[{"access":1,"address":"International Finance Centre, Kadampukur Village, Newtown, New Town, West Bengal 700156, India","icon":"https://assets.plugshare.com/icons/Y.png","icon_type":"Y","id":288104,"latitude":22.599506,"longitude":88.471701,"name":"Delta Fast EV Charging Station (SC)","stations":[{"id":630523,"outlets":[{"connector":3,"id":1889898,"kilowatts":null,"power":0,"status":null}]}],"url":"http://api.plugshare.com/view/location/288104"},{"access":1,"address":"NH715, Bhatemora Gaon, Assam 785006, India","icon":"https://assets.plugshare.com/icons/Y.png","icon_type":"Y","id":337264,"latitude":26.747017,"longitude":94.168147,"name":"TML Pragati Motors Jorhat Tata Power FC","stations":[{"id":795361,"network_id":1012,"outlets":[{"connector":13,"id":2292947,"kilowatts":null,"power":0,"status":null}]}],"url":"http://api.plugshare.com/view/location/337264"},{"access":1,"address":"7M5V+8VP, Chandpur, Bangladesh","icon":"https://assets.plugshare.com/icons/Y.png","icon_type":"Y","id":360088,"latitude":23.257495,"longitude":90.695065,"name":"Baburhat","stations":[{"id":859556,"outlets":[{"connector":3,"id":2387043,"kilowatts":null,"power":0,"status":null}]}],"url":"http://api.plugshare.com/view/location/360088"},{"access":1,"address":"A-7, IInd Phase, Adityapur Industrial Area, Adityapur, Jamshedpur, Jharkhand 832109, India","icon":"https://assets.plugshare.com/icons/Y.png","icon_type":"Y","id":304976,"latitude":22.790721,"longitude":86.147192,"name":"ASL Motors Tata Power FC","stations":[{"id":708089,"outlets":[{"connector":3,"id":2135540,"kilowatts":null,"power":0,"status":null},{"connector":13,"id":2135541,"kilowatts":null,"power":0,"status":null}]}],"url":"http://api.plugshare.com/view/location/304976"},{"access":1,"address":"Barkura, Nalbari Main Rd, Nalbari, Assam 781335, India","icon":"https://assets.plugshare.com/icons/G.png","icon_type":"G","id":307693,"latitude":26.446894,"longitude":91.432938,"name":"Auto Pol Con Bolt SC","stations":[{"id":714634,"outlets":[{"connector":9,"id":2148267,"kilowatts":null,"power":0,"status":null}]}],"url":"http://api.plugshare.com/view/location/307693"},{"access":1,"address":"NH43, Gahila, Chhattisgarh 497101, India","icon":"https://assets.plugshare.com/icons/G.png","icon_type":"G","id":331749,"latitude":23.02377,"longitude":83.378107,"name":"HPCL Shree Ram pump Chargegrid Type-2","stations":[{"id":780879,"outlets":[{"connector":7,"id":2274292,"kilowatts":null,"power":0,"status":null}]}],"url":"http://api.plugshare.com/view/location/331749"},{"access":1,"address":"Opposite K M Tank, Laheriasarai, Darbhanga, Bihar 846001, India","icon":"https://assets.plugshare.com/icons/G.png","icon_type":"G","id":223671,"latitude":26.114442,"longitude":85.905858,"name":"Opposite K M Tank","stations":[{"id":488620,"outlets":[{"connector":9,"id":1183293,"kilowatts":null,"power":0,"status":null}]}],"url":"http://api.plugshare.com/view/location/223671"},{"access":1,"address":"8XPP+96X, Nadesar, Chaukaghat, Varanasi, Uttar Pradesh 221002, India","icon":"https://assets.plugshare.com/icons/G.png","icon_type":"G","id":334697,"latitude":25.336039,"longitude":82.985737,"name":"Taj Ganges Wall Charger","stations":[{"id":788424,"outlets":[{"connector":9,"id":2284160,"kilowatts":null,"power":0,"status":null}]}],"url":"http://api.plugshare.com/view/location/334697"},{"access":1,"address":"8X99+2V5, Lahartara Boulia, Bazardiha, Maheshpur, Varanasi, Uttar Pradesh 221002, India","icon":"https://assets.plugshare.com/icons/Y.png","icon_type":"Y","id":358207,"latitude":25.317547,"longitude":82.969515,"name":"TML Brijlax Motors Varanasi Tata Power FC","stations":[{"id":854456,"network_id":1012,"outlets":[{"connector":13,"id":2379801,"kilowatts":null,"power":0,"status":null}]}],"url":"http://api.plugshare.com/view/location/358207"},{"access":1,"address":"FXW5+VRQ, Tentel Para, Sambalpur, Odisha 768006, India","icon":"https://assets.plugshare.com/icons/Y.png","icon_type":"Y","id":361296,"latitude":21.49724,"longitude":83.959548,"name":"Lankeswari Motors","stations":[{"id":863073,"network_id":1012,"outlets":[{"connector":13,"id":2392133,"kilowatts":null,"power":0,"status":null}]}],"url":"http://api.plugshare.com/view/location/361296"},{"access":1,"address":"No 31 NH Chokchoka, opposite Prova Automobile, Cooch Behar, West Bengal 736101, India","icon":"https://assets.plugshare.com/icons/Y.png","icon_type":"Y","id":330097,"latitude":26.323424,"longitude":89.484964,"name":"TML Rangeet Auto Tata Power FC","stations":[{"id":776322,"network_id":1012,"outlets":[{"connector":3,"id":2268172,"kilowatts":null,"power":0,"status":null},{"connector":13,"id":2268173,"kilowatts":null,"power":0,"status":null}]}],"url":"http://api.plugshare.com/view/location/330097"},{"access":1,"address":"Grand Trunk Rd, Nanhu Bigha, Bihar 824201, India","icon":"https://assets.plugshare.com/icons/Y.png","icon_type":"Y","id":312451,"latitude":24.525276,"longitude":84.932238,"name":"TML Sara Automobile Tata Power FC","stations":[{"id":727845,"outlets":[{"connector":3,"id":2186051,"kilowatts":null,"power":0,"status":null},{"connector":13,"id":2186052,"kilowatts":null,"power":0,"status":null}]}],"url":"http://api.plugshare.com/view/location/312451"},{"access":1,"address":"Fatuha Marg, Jaferkhantola, Patna, Bihar 800009, India","icon":"https://assets.plugshare.com/icons/Y.png","icon_type":"Y","id":329378,"latitude":25.571229,"longitude":85.258578,"name":"TML Shankar Motors Tata Power FC","stations":[{"id":774232,"outlets":[{"connector":3,"id":2265495,"kilowatts":null,"power":0,"status":null},{"connector":13,"id":2265496,"kilowatts":null,"power":0,"status":null}]}],"url":"http://api.plugshare.com/view/location/329378"},{"access":1,"address":"NH18, Ashok Nagar Sector-2, Dhanbad, Jharkhand 828127, India","icon":"https://assets.plugshare.com/icons/G.png","icon_type":"G","id":307552,"latitude":23.826038,"longitude":86.490523,"name":"Okinawa Solitaire Auto showroom Bolt SC","stations":[{"id":714296,"outlets":[{"connector":9,"id":2147622,"kilowatts":null,"power":0,"status":null}]}],"url":"http://api.plugshare.com/view/location/307552"},{"access":1,"address":"Dipshikha METI School","icon":"https://assets.plugshare.com/icons/G.png","icon_type":"G","id":190573,"latitude":25.757109,"longitude":88.55235,"name":"Rudrapur","stations":[{"id":398655,"outlets":[{"connector":14,"id":700152,"kilowatts":null,"power":0,"status":null}]}],"url":"http://api.plugshare.com/view/location/190573"},{"access":1,"address":"NH16, Artung, Balia, Balasore, Odisha 756056, India","icon":"https://assets.plugshare.com/icons/Y.png","icon_type":"Y","id":341272,"latitude":21.497783,"longitude":86.88959,"name":"TML Premier Cars Tata Power FC","stations":[{"id":806812,"outlets":[{"connector":13,"id":2307747,"kilowatts":null,"power":0,"status":null}]}],"url":"http://api.plugshare.com/view/location/341272"},{"access":1,"address":"Khagaul Rd, Balaji Nagar, Danapur Nizamat, Mobarakpur-Raghurampur, Bihar 801503, India","icon":"https://assets.plugshare.com/icons/G.png","icon_type":"G","id":306904,"latitude":25.613056,"longitude":85.041573,"name":"TML Ananya Auto Slow Charger","stations":[{"id":712501,"outlets":[{"connector":9,"id":2144078,"kilowatts":null,"power":0,"status":null}]}],"url":"http://api.plugshare.com/view/location/306904"},{"access":1,"address":"14p, next to Prabhat Khabar, Kokar Industrial Area, Shanti Nagar, Ranchi, Jharkhand 834001, India","icon":"https://assets.plugshare.com/icons/Y.png","icon_type":"Y","id":307827,"latitude":23.371357,"longitude":85.350711,"name":"TML Basubdeb Auto Tata Power FC","stations":[{"id":714972,"outlets":[{"connector":3,"id":2148959,"kilowatts":null,"power":0,"status":null},{"connector":13,"id":2148960,"kilowatts":null,"power":0,"status":null}]}],"url":"http://api.plugshare.com/view/location/307827"},{"access":1,"address":"Unnamed Road, Thakrahan, Bihar 845459, India","icon":"https://assets.plugshare.com/icons/Y.png","icon_type":"Y","id":327620,"latitude":26.743782,"longitude":83.263346,"name":"TML RKL Showroom GIDA Tata Power FC","stations":[{"id":769163,"outlets":[{"connector":3,"id":2258828,"kilowatts":null,"power":0,"status":null},{"connector":13,"id":2258829,"kilowatts":null,"power":0,"status":null}]}],"url":"http://api.plugshare.com/view/location/327620"},{"access":1,"address":"Bauwa hotel , Bardibas","icon":"https://assets.plugshare.com/icons/Y.png","icon_type":"Y","id":327375,"latitude":26.980078,"longitude":85.918989,"name":"Bauwa Hotel","stations":[{"id":768661,"outlets":[{"connector":3,"id":2258206,"kilowatts":null,"power":0,"status":null}]}],"url":"http://api.plugshare.com/view/location/327375"},{"access":1,"address":"Delhi - Kolkata Hwy, Kasimpur, West Bengal 713102, India","icon":"https://assets.plugshare.com/icons/Y.png","icon_type":"Y","id":304980,"latitude":23.273534,"longitude":87.812923,"name":"TML Banerjee Automobiles Tata Power FC","stations":[{"id":708094,"outlets":[{"connector":3,"id":2135549,"kilowatts":null,"power":0,"status":null},{"connector":13,"id":2135550,"kilowatts":null,"power":0,"status":null}]}],"url":"http://api.plugshare.com/view/location/304980"},{"access":1,"address":"Unnamed Road, Bangladesh","icon":"https://assets.plugshare.com/icons/G.png","icon_type":"G","id":226210,"latitude":23.668717,"longitude":89.433946,"name":"RESI","stations":[{"id":494439,"outlets":[{"connector":14,"id":1215984,"kilowatts":null,"power":0,"status":null}]}],"url":"http://api.plugshare.com/view/location/226210"},{"access":1,"address":"Alipurduar Debi nagar Durga bari Alipurduar 11 hat kali bari, Shanti Nagar, Sobhaganj, West Bengal 736121, India","icon":"https://assets.plugshare.com/icons/G.png","icon_type":"G","id":316067,"latitude":26.487228,"longitude":89.526831,"name":"eSource EV Wall Charger","stations":[{"id":737070,"outlets":[{"connector":9,"id":2216117,"kilowatts":null,"power":0,"status":null}]},{"id":737071,"outlets":[{"connector":9,"id":2216118,"kilowatts":null,"power":0,"status":null}]},{"id":737072,"outlets":[{"connector":9,"id":2216119,"kilowatts":null,"power":0,"status":null}]}],"url":"http://api.plugshare.com/view/location/316067"},{"access":1,"address":"Bauwa Hotel and Lodge, Lalgadh, Province-02, Nepal","icon":"https://assets.plugshare.com/icons/Y.png","icon_type":"Y","id":327374,"latitude":26.980485,"longitude":85.91886,"name":"Bauwa Hotel and Lodge BYD AC Charger","stations":[{"id":768660,"outlets":[{"connector":13,"id":2258205,"kilowatts":null,"power":0,"status":null}]}],"url":"http://api.plugshare.com/view/location/327374"},{"access":1,"address":"Biroh Bebejia Sensowa, near NHPC Godown, Assam 782002","icon":"https://assets.plugshare.com/icons/Y.png","icon_type":"Y","id":356780,"latitude":26.312437,"longitude":92.64017,"name":"TML Ashutosh Motors Nagaon Tata Power FC","stations":[{"id":850652,"network_id":1012,"outlets":[{"connector":13,"id":2374660,"kilowatts":null,"power":0,"status":null}]}],"url":"http://api.plugshare.com/view/location/356780"},{"access":1,"address":"NH19, West Bengal 713339, India","icon":"https://assets.plugshare.com/icons/Y.png","icon_type":"Y","id":327622,"latitude":23.663899,"longitude":87.057772,"name":"TML Chandrani Enterprises Tata Power FC","stations":[{"id":769166,"outlets":[{"connector":3,"id":2258834,"kilowatts":null,"power":0,"status":null},{"connector":13,"id":2258835,"kilowatts":null,"power":0,"status":null}]}],"url":"http://api.plugshare.com/view/location/327622"},{"access":1,"address":"Sarraf Sadan, Birgunj 44300, Nepal","icon":"https://assets.plugshare.com/icons/G.png","icon_type":"G","id":315494,"latitude":27.013239,"longitude":84.875364,"name":"Green Bolt SC","stations":[{"id":735645,"outlets":[{"connector":9,"id":2214185,"kilowatts":null,"power":0,"status":null}]}],"url":"http://api.plugshare.com/view/location/315494"},{"access":1,"address":"Tribhuvan Hwy, Birgunj 44300, Nepal","icon":"https://assets.plugshare.com/icons/Y.png","icon_type":"Y","id":327464,"latitude":27.026707,"longitude":84.886135,"name":"Orchids Moto Hyundai AC Charger","stations":[{"id":768842,"outlets":[{"connector":13,"id":2258438,"kilowatts":null,"power":0,"status":null}]}],"url":"http://api.plugshare.com/view/location/327464"},{"access":1,"address":"Biada Road, Balidih, Bokaro Steel City, Jharkhand 827014, India","icon":"https://assets.plugshare.com/icons/Y.png","icon_type":"Y","id":329175,"latitude":23.664773,"longitude":86.073018,"name":"TML Kraft Auto Tata Power FC","stations":[{"id":773559,"outlets":[{"connector":3,"id":2264620,"kilowatts":null,"power":0,"status":null},{"connector":13,"id":2264621,"kilowatts":null,"power":0,"status":null}]}],"url":"http://api.plugshare.com/view/location/329175"},{"access":1,"address":"i-Red Airtel Project, AH46, Rupnarayanpur, West Bengal 721305, India","icon":"https://assets.plugshare.com/icons/Y.png","icon_type":"Y","id":336402,"latitude":22.380942,"longitude":87.365993,"name":"Hotel Greenland Tower Tata Power FC","stations":[{"id":793318,"network_id":1012,"outlets":[{"connector":3,"id":2290315,"kilowatts":null,"power":0,"status":null},{"connector":13,"id":2290316,"kilowatts":null,"power":0,"status":null}]},{"id":793319,"network_id":1012,"outlets":[{"connector":7,"id":2290317,"kilowatts":null,"power":0,"status":null}]},{"id":793320,"network_id":1012,"outlets":[{"connector":7,"id":2290318,"kilowatts":null,"power":0,"status":null}]}],"url":"http://api.plugshare.com/view/location/336402"},{"access":1,"address":"Sambalpur - Cuttack Hwy, Nuahata, Odisha 759128, India","icon":"https://assets.plugshare.com/icons/Y.png","icon_type":"Y","id":356835,"latitude":20.831667,"longitude":85.241597,"name":"Trupti Automotives Tatat Power Charger","stations":[{"id":850742,"network_id":1012,"outlets":[{"connector":13,"id":2374768,"kilowatts":null,"power":0,"status":null}]}],"url":"http://api.plugshare.com/view/location/356835"},{"access":1,"address":"SH 2, Wadraf Nagar, Chhattisgarh 497225, India","icon":"https://assets.plugshare.com/icons/G.png","icon_type":"G","id":331750,"latitude":23.760819,"longitude":83.198205,"name":"HPCL Vishwanath Fuels Chargegrid Type-2","stations":[{"id":780880,"outlets":[{"connector":7,"id":2274293,"kilowatts":null,"power":0,"status":null}]}],"url":"http://api.plugshare.com/view/location/331750"},{"access":1,"address":"722V+RX Bhagalpur, Bihar, India","icon":"https://assets.plugshare.com/icons/Y.png","icon_type":"Y","id":353959,"latitude":25.252017,"longitude":87.04493,"name":"TML Shankar Motors Bhagalpur Tata Power FC","stations":[{"id":843270,"network_id":1012,"outlets":[{"connector":13,"id":2364860,"kilowatts":null,"power":0,"status":null}]}],"url":"http://api.plugshare.com/view/location/353959"},{"access":1,"address":"kalikanager, Butwal 32907, Nepal","icon":"https://assets.plugshare.com/icons/Y.png","icon_type":"Y","id":327461,"latitude":27.673417,"longitude":83.464366,"name":"Siddhi Vinayak Hyundai AC Charger","stations":[{"id":768839,"outlets":[{"connector":13,"id":2258435,"kilowatts":null,"power":0,"status":null}]}],"url":"http://api.plugshare.com/view/location/327461"},{"access":1,"address":"Balmandir Rd 10, Bharatpur 44207, Nepal","icon":"https://assets.plugshare.com/icons/Y.png","icon_type":"Y","id":327463,"latitude":27.674864,"longitude":84.431815,"name":"Pinnacle Trading Hyundai AC Charger","stations":[{"id":768841,"outlets":[{"connector":13,"id":2258437,"kilowatts":null,"power":0,"status":null}]}],"url":"http://api.plugshare.com/view/location/327463"},{"access":1,"address":"In front Sai Baba Mandir, St Francis school rd, Caister town, Caisters town, Castairs Town, Bompas Town, Deoghar, Jharkhand 814112, India","icon":"https://assets.plugshare.com/icons/G.png","icon_type":"G","id":315491,"latitude":24.482159,"longitude":86.688699,"name":"Sri Sai Bolt SC","stations":[{"id":735642,"outlets":[{"connector":9,"id":2214182,"kilowatts":null,"power":0,"status":null}]}],"url":"http://api.plugshare.com/view/location/315491"},{"access":1,"address":"JGFH+Q9R, Gobindabasan, Digha, West Bengal 721463, India","icon":"https://assets.plugshare.com/icons/Y.png","icon_type":"Y","id":347974,"latitude":21.624464,"longitude":87.528587,"name":"Hotel Artland Digha Tata power FC","stations":[{"id":826475,"outlets":[{"connector":13,"id":2333853,"kilowatts":null,"power":0,"status":null}]}],"url":"http://api.plugshare.com/view/location/347974"},{"access":1,"address":"Jasoiya growth centre, Jasoiya Mor Bus Stop NH2, Bihar 824101, India","icon":"https://assets.plugshare.com/icons/G.png","icon_type":"G","id":334698,"latitude":24.769965,"longitude":84.350836,"name":"Hotel Gargee Grand Wall Charger","stations":[{"id":788425,"outlets":[{"connector":9,"id":2284161,"kilowatts":null,"power":0,"status":null}]}],"url":"http://api.plugshare.com/view/location/334698"},{"access":1,"address":"Koshi Rajmarg 12, Itahari 56705, Nepal","icon":"https://assets.plugshare.com/icons/G.png","icon_type":"G","id":349755,"latitude":26.627486,"longitude":87.273808,"name":"Itahari -12 Khanar , Biratnagar Line","stations":[{"id":831854,"outlets":[{"connector":7,"id":2349921,"kilowatts":null,"power":0,"status":null}]}],"url":"http://api.plugshare.com/view/location/349755"},{"access":1,"address":"Adampool, opposite Topsel Toyota, Gangtok, Sikkim 737135, India","icon":"https://assets.plugshare.com/icons/Y.png","icon_type":"Y","id":346012,"latitude":27.305347,"longitude":88.585854,"name":"TML Rangeet Auto Tata Power FC","stations":[{"id":821620,"outlets":[{"connector":3,"id":2326936,"kilowatts":null,"power":0,"status":null},{"connector":13,"id":2326937,"kilowatts":null,"power":0,"status":null}]}],"url":"http://api.plugshare.com/view/location/346012"},{"access":1,"address":"Adampool, opposite Topsel Toyota, Gangtok, Sikkim 737135, India","icon":"https://assets.plugshare.com/icons/Y.png","icon_type":"Y","id":346011,"latitude":27.305347,"longitude":88.585854,"name":"TML Rangeet Auto Tata Power FC","stations":[{"id":821619,"outlets":[{"connector":3,"id":2326934,"kilowatts":null,"power":0,"status":null},{"connector":13,"id":2326935,"kilowatts":null,"power":0,"status":null}]}],"url":"http://api.plugshare.com/view/location/346011"},{"access":1,"address":"Adampool, opposite Topsel Toyota, Gangtok, Sikkim 737135, India","icon":"https://assets.plugshare.com/icons/Y.png","icon_type":"Y","id":346010,"latitude":27.305347,"longitude":88.585854,"name":"TML Rangeet Auto Tata Power FC","stations":[{"id":821618,"outlets":[{"connector":3,"id":2326932,"kilowatts":null,"power":0,"status":null},{"connector":13,"id":2326933,"kilowatts":null,"power":0,"status":null}]}],"url":"http://api.plugshare.com/view/location/346010"},{"access":1,"address":"Delhi - Kolkata Hwy, Benachity, Durgapur, West Bengal 713213, India","icon":"https://assets.plugshare.com/icons/G.png","icon_type":"G","id":307553,"latitude":23.548033,"longitude":87.273821,"name":"Biswajit Sarkar Bolt SC","stations":[{"id":714297,"outlets":[{"connector":9,"id":2147625,"kilowatts":null,"power":0,"status":null}]}],"url":"http://api.plugshare.com/view/location/307553"},{"access":1,"address":"Ghatal Rd, Dabcha, Chandrakona Road, West Bengal 721253, India","icon":"https://assets.plugshare.com/icons/G.png","icon_type":"G","id":315492,"latitude":22.73353,"longitude":87.345298,"name":"Shree Motors Bolt SC","stations":[{"id":735643,"outlets":[{"connector":9,"id":2214183,"kilowatts":null,"power":0,"status":null}]}],"url":"http://api.plugshare.com/view/location/315492"},{"access":1,"address":"NH12, Soharai, West Bengal 733134, India","icon":"https://assets.plugshare.com/icons/Y.png","icon_type":"Y","id":348820,"latitude":25.63872,"longitude":88.10571,"name":"TML Rangeet Motors Raiganj Tata Power FC","stations":[{"id":828793,"network_id":1012,"outlets":[{"connector":13,"id":2345721,"kilowatts":null,"power":0,"status":null}]}],"url":"http://api.plugshare.com/view/location/348820"},{"access":1,"address":"NH 31 Kishanganj Road, Damka, near Gulabbagh, Damka, Bihar 854326, India","icon":"https://assets.plugshare.com/icons/Y.png","icon_type":"Y","id":350731,"latitude":25.794686,"longitude":87.559351,"name":"TATA POWER FAST CHARGER STATION DAMAKA , PURNIA, BIHAR","stations":[{"id":834869,"network_id":1012,"outlets":[{"connector":13,"id":2353929,"kilowatts":null,"power":0,"status":null}]}],"url":"http://api.plugshare.com/view/location/350731"},{"access":1,"address":"Government Bus Terminal, Imlichatti (Mal Godown) 842001, Station Road, Ramdayalu Nagar, Sutapatti, Pokhraira, Muzaffarpur, Bihar 842002, India","icon":"https://assets.plugshare.com/icons/Y.png","icon_type":"Y","id":353559,"latitude":26.125166,"longitude":85.376391,"name":"Imlichatti Bus Stand Charge-Zone FC","stations":[{"id":842316,"outlets":[{"connector":13,"id":2363589,"kilowatts":null,"power":0,"status":null},{"connector":13,"id":2363590,"kilowatts":null,"power":0,"status":null}]}],"url":"http://api.plugshare.com/view/location/353559"},{"access":1,"address":"Satsang Viharlane, Amgola Road, Mahammadpur Kazi, Satsang Vihar, Muzaffarpur, Bihar 842002, India","icon":"https://assets.plugshare.com/icons/G.png","icon_type":"G","id":307550,"latitude":26.114316,"longitude":85.390118,"name":"Navya EV Charging Bolt SC","stations":[{"id":714293,"outlets":[{"connector":9,"id":2147619,"kilowatts":null,"power":0,"status":null}]}],"url":"http://api.plugshare.com/view/location/307550"},{"access":1,"address":"Mandarmoni Beach Access, Mandarmani, West Bengal 721455, India","icon":"https://assets.plugshare.com/icons/G.png","icon_type":"G","id":328703,"latitude":21.663196,"longitude":87.701785,"name":"Resort Garden Retreat Wall Charger","stations":[{"id":772111,"outlets":[{"connector":9,"id":2262741,"kilowatts":null,"power":0,"status":null}]}],"url":"http://api.plugshare.com/view/location/328703"},{"access":1,"address":"B.P Highway, Purano Jhangajholi 45900, Nepal","icon":"https://assets.plugshare.com/icons/Y.png","icon_type":"Y","id":329951,"latitude":27.405275,"longitude":85.920282,"name":"Taj Riverside Resort TATA Motors 25kW DC Fast Charger","stations":[{"id":775750,"outlets":[{"connector":13,"id":2267502,"kilowatts":null,"power":0,"status":null}]}],"url":"http://api.plugshare.com/view/location/329951"},{"access":1,"address":"Berhampore - Jalangi Rd, Raninagar, Keshobnagar, Sibdanga Badarpur, West Bengal 742101, India","icon":"https://assets.plugshare.com/icons/G.png","icon_type":"G","id":328705,"latitude":24.099948,"longitude":88.277272,"name":"Hotel Sunshine Wall Charger","stations":[{"id":772113,"outlets":[{"connector":9,"id":2262745,"kilowatts":null,"power":0,"status":null}]}],"url":"http://api.plugshare.com/view/location/328705"},{"access":1,"address":"Delhi - Kolkata Hwy, Dhanbad, Jharkhand 826004, India","icon":"https://assets.plugshare.com/icons/Y.png","icon_type":"Y","id":330622,"latitude":23.848703,"longitude":86.441481,"name":"TML SS Motogen Tata Power FC","stations":[{"id":777473,"outlets":[{"connector":3,"id":2269788,"kilowatts":null,"power":0,"status":null},{"connector":13,"id":2269789,"kilowatts":null,"power":0,"status":null}]}],"url":"http://api.plugshare.com/view/location/330622"},{"access":1,"address":"Khaprail Road, Behind Barsana Hotel & Resort, Siliguri, NH 55, Baniakhari, West Bengal 734010, India","icon":"https://assets.plugshare.com/icons/Y.png","icon_type":"Y","id":329912,"latitude":26.729696,"longitude":88.373832,"name":"TML Lexican Motors Tata Power FC","stations":[{"id":775640,"outlets":[{"connector":3,"id":2267377,"kilowatts":null,"power":0,"status":null},{"connector":13,"id":2267378,"kilowatts":null,"power":0,"status":null}]}],"url":"http://api.plugshare.com/view/location/329912"},{"access":1,"address":"Bus Stand Thek, Bankura, West Bengal 722102, India","icon":"https://assets.plugshare.com/icons/G.png","icon_type":"G","id":307554,"latitude":23.242834,"longitude":87.035231,"name":"Maa Durga Enterprise Bolt SC","stations":[{"id":714298,"outlets":[{"connector":9,"id":2147626,"kilowatts":null,"power":0,"status":null}]}],"url":"http://api.plugshare.com/view/location/307554"},{"access":1,"address":"E - W Hwy, Hetauda 44107, Nepal","icon":"https://assets.plugshare.com/icons/Y.png","icon_type":"Y","id":327465,"latitude":27.425413,"longitude":85.03004,"name":"Hetauda Wheels Hyundai AC Charger","stations":[{"id":768843,"outlets":[{"connector":13,"id":2258439,"kilowatts":null,"power":0,"status":null}]}],"url":"http://api.plugshare.com/view/location/327465"},{"access":1,"address":"Badshahi Rd, Bharchhan, Odisha 754296, India","icon":"https://assets.plugshare.com/icons/G.png","icon_type":"G","id":315495,"latitude":20.658279,"longitude":86.117281,"name":"E-eve Charging Bolt SC","stations":[{"id":735646,"outlets":[{"connector":9,"id":2214186,"kilowatts":null,"power":0,"status":null}]}],"url":"http://api.plugshare.com/view/location/315495"},{"access":1,"address":"Basanti Hwy, Boyermari, West Bengal 743442, India","icon":"https://assets.plugshare.com/icons/Y.png","icon_type":"Y","id":332392,"latitude":22.437872,"longitude":88.763425,"name":"IOCL Fuel Pump Tata Power FC","stations":[{"id":782486,"outlets":[{"connector":13,"id":2276342,"kilowatts":null,"power":0,"status":null}]}],"url":"http://api.plugshare.com/view/location/332392"},{"access":1,"address":"Unnamed Road, \u0935\u093e\u0923\u0917\u0902\u0917\u093e 32800, Nepal","icon":"https://assets.plugshare.com/icons/G.png","icon_type":"G","id":347503,"latitude":27.661304,"longitude":83.170865,"name":"Ram Subhage's Personal Charger 7KW","stations":[{"id":825382,"outlets":[{"connector":7,"id":2332367,"kilowatts":null,"power":0,"status":null}]}],"url":"http://api.plugshare.com/view/location/347503"},{"access":1,"address":"Diamond Harbour Rd, Cheora, West Bengal 743368, India","icon":"https://assets.plugshare.com/icons/Y.png","icon_type":"Y","id":316988,"latitude":22.255808,"longitude":88.190935,"name":"IOCL COCO Sarisha Tata Power FC","stations":[{"id":739650,"outlets":[{"connector":3,"id":2219561,"kilowatts":null,"power":0,"status":null},{"connector":13,"id":2219562,"kilowatts":null,"power":0,"status":null}]}],"url":"http://api.plugshare.com/view/location/316988"},{"access":1,"address":"Riverside Spring Resort, Darechok, Nepal","icon":"https://assets.plugshare.com/icons/Y.png","icon_type":"Y","id":327480,"latitude":27.874388,"longitude":84.616377,"name":"Riverside Spring Resort KIA 7kW AC Charger","stations":[{"id":768861,"outlets":[{"connector":13,"id":2258460,"kilowatts":null,"power":0,"status":null}]}],"url":"http://api.plugshare.com/view/location/327480"},{"access":1,"address":"Thumka - Korikha - Bahunbhanjyan Rd, Bandipur 33914, Nepal","icon":"https://assets.plugshare.com/icons/Y.png","icon_type":"Y","id":327481,"latitude":27.966867,"longitude":84.404721,"name":"KOS Dumre 7kW AC Charger","stations":[{"id":768862,"outlets":[{"connector":13,"id":2258461,"kilowatts":null,"power":0,"status":null}]}],"url":"http://api.plugshare.com/view/location/327481"},{"access":1,"address":"Bumthang - Ura Highway, Paro, Bhutan","icon":"https://assets.plugshare.com/icons/G.png","icon_type":"G","id":58887,"latitude":27.405021,"longitude":89.419985,"name":"Airport Restaurant","stations":[{"id":81416,"outlets":[{"connector":10,"id":177837,"kilowatts":null,"power":0,"status":null}]}],"url":"http://api.plugshare.com/view/location/58887"},{"access":1,"address":"Orisha Trunk Rd, Manikpur, Kulgachia, Howrah, West Bengal 711306, India","icon":"https://assets.plugshare.com/icons/G.png","icon_type":"G","id":315493,"latitude":22.472089,"longitude":88.024967,"name":"K Enterprise Bolt SC","stations":[{"id":735644,"outlets":[{"connector":9,"id":2214184,"kilowatts":null,"power":0,"status":null}]}],"url":"http://api.plugshare.com/view/location/315493"},{"access":1,"address":"Siddhartha Hwy, Siddharthanagar 32900, Nepal","icon":"https://assets.plugshare.com/icons/G.png","icon_type":"G","id":327462,"latitude":27.503597,"longitude":83.456441,"name":"Jagat Motors Hyundai AC Charger","stations":[{"id":768840,"outlets":[{"connector":7,"id":2259919,"kilowatts":null,"power":0,"status":null}]}],"url":"http://api.plugshare.com/view/location/327462"},{"access":1,"address":"Unnamed Road, Patliputra Industrial Area, Digha, Patna, Bihar 800010, India","icon":"https://assets.plugshare.com/icons/Y.png","icon_type":"Y","id":331628,"latitude":25.634187,"longitude":85.105481,"name":"TML Shankar Motors Tata Power FC","stations":[{"id":780396,"outlets":[{"connector":3,"id":2273687,"kilowatts":null,"power":0,"status":null},{"connector":13,"id":2273688,"kilowatts":null,"power":0,"status":null}]}],"url":"http://api.plugshare.com/view/location/331628"},{"access":1,"address":"Chennai - Kolkata Hwy, Kolaghat, West Bengal 721134, India","icon":"https://assets.plugshare.com/icons/G.png","icon_type":"G","id":333107,"latitude":22.433159,"longitude":87.867362,"name":"Express Food Plaza Wall Charger","stations":[{"id":784426,"outlets":[{"connector":9,"id":2278862,"kilowatts":null,"power":0,"status":null}]}],"url":"http://api.plugshare.com/view/location/333107"},{"access":1,"address":"GWHX+JH Badachanchoo, Odisha, India","icon":"https://assets.plugshare.com/icons/Y.png","icon_type":"Y","id":350554,"latitude":20.529064,"longitude":85.948947,"name":"TML Trupti Automotives Tata Power FC","stations":[{"id":834354,"outlets":[{"connector":13,"id":2353253,"kilowatts":null,"power":0,"status":null}]}],"url":"http://api.plugshare.com/view/location/350554"},{"access":1,"address":"1, Chittaranjan Ave, Esplanade, Chowringhee North, Bow Barracks, Kolkata, West Bengal 700072, India","icon":"https://assets.plugshare.com/icons/Y.png","icon_type":"Y","id":288107,"latitude":22.56655,"longitude":88.352098,"name":"Mass Tech Fast Charging (SC)","stations":[{"id":630528,"outlets":[{"connector":3,"id":1889910,"kilowatts":null,"power":0,"status":null}]}],"url":"http://api.plugshare.com/view/location/288107"},{"access":1,"address":"Baghmara Road 44200, Ratnanagar 00977, Nepal","icon":"https://assets.plugshare.com/icons/Y.png","icon_type":"Y","id":357392,"latitude":27.587757,"longitude":84.484337,"name":"Landmark Forest Park MG AC CHARGER","stations":[{"id":852242,"outlets":[{"connector":13,"id":2376703,"kilowatts":null,"power":0,"status":null}]}],"url":"http://api.plugshare.com/view/location/357392"},{"access":1,"address":"Shambhu Nath Plaza, Jamal Rd, Budh Vihar, Fraser Road Area, Patna, Bihar 800001, India","icon":"https://assets.plugshare.com/icons/G.png","icon_type":"G","id":307551,"latitude":25.609266,"longitude":85.1403,"name":"Pure EV Showroom Bolt SC","stations":[{"id":714294,"outlets":[{"connector":9,"id":2147620,"kilowatts":null,"power":0,"status":null}]},{"id":714295,"outlets":[{"connector":9,"id":2147621,"kilowatts":null,"power":0,"status":null}]}],"url":"http://api.plugshare.com/view/location/307551"},{"access":1,"address":"SH15, Salap, Howrah, West Bengal 711409, India","icon":"https://assets.plugshare.com/icons/Y.png","icon_type":"Y","id":314088,"latitude":22.614497,"longitude":88.273105,"name":"Tata Motors Cars Service Centre","stations":[{"id":732140,"outlets":[{"connector":3,"id":2201677,"kilowatts":null,"power":0,"status":null},{"connector":13,"id":2201678,"kilowatts":null,"power":0,"status":null}]}],"url":"http://api.plugshare.com/view/location/314088"},{"access":1,"address":"\u0938\u0941\u0930\u0941\u0919\u094d\u0917\u093e, E - W Hwy, Kankai 57200, Nepal","icon":"https://assets.plugshare.com/icons/Y.png","icon_type":"Y","id":327466,"latitude":26.647016,"longitude":87.889958,"name":"Pathivara Auto Link Hyundai AC Charger","stations":[{"id":768844,"outlets":[{"connector":13,"id":2258440,"kilowatts":null,"power":0,"status":null}]}],"url":"http://api.plugshare.com/view/location/327466"},{"access":1,"address":"E W, \u092a\u0942\u0930\u094d\u0935 \u092a\u0936\u094d\u091a\u093f\u092e \u0930\u093e\u091c\u092e\u093e\u0930\u094d\u0917, \u0935\u093f\u0930\u094d\u0924\u093e\u092e\u094b\u0921 57204, Nepal","icon":"https://assets.plugshare.com/icons/Y.png","icon_type":"Y","id":327496,"latitude":26.640698,"longitude":87.98073,"name":"Mahalaxmi Intl MG 7kW AC Charger","stations":[{"id":768887,"outlets":[{"connector":13,"id":2258488,"kilowatts":null,"power":0,"status":null}]}],"url":"http://api.plugshare.com/view/location/327496"},{"access":1,"address":"HFPC+34R, Tilottama 32903, Nepal","icon":"https://assets.plugshare.com/icons/Y.png","icon_type":"Y","id":345599,"latitude":27.583872,"longitude":83.471536,"name":"TATA DC Fast Charger","stations":[{"id":820484,"outlets":[{"connector":13,"id":2325344,"kilowatts":null,"power":0,"status":null}]}],"url":"http://api.plugshare.com/view/location/345599"},{"access":1,"address":"NH10, Ward 42, Don Bosco Colony, Siliguri, West Bengal 734004, India","icon":"https://assets.plugshare.com/icons/Y.png","icon_type":"Y","id":354135,"latitude":26.750965,"longitude":88.439968,"name":"TML Rangeet Auto Siliguri Tata Power FC","stations":[{"id":843813,"network_id":1012,"outlets":[{"connector":13,"id":2365612,"kilowatts":null,"power":0,"status":null}]}],"url":"http://api.plugshare.com/view/location/354135"},{"access":1,"address":"Assam Trunk Rd, Fatasil Hills, Guwahati, Assam 781010, India","icon":"https://assets.plugshare.com/icons/Y.png","icon_type":"Y","id":329377,"latitude":26.164416,"longitude":91.715526,"name":"TML Utkarsh Mototech Guwahati Tata Power FC","stations":[{"id":774231,"network_id":1012,"outlets":[{"connector":3,"id":2265493,"kilowatts":null,"power":0,"status":null},{"connector":13,"id":2265494,"kilowatts":null,"power":0,"status":null}]}],"url":"http://api.plugshare.com/view/location/329377"},{"access":1,"address":"4Q65+QXP, Nalapara, Sarusajai, Guwahati, Assam 781040, India","icon":"https://assets.plugshare.com/icons/Y.png","icon_type":"Y","id":349238,"latitude":26.111788,"longitude":91.759739,"name":"Sarawgi Motors Tata Power FC","stations":[{"id":830164,"network_id":1012,"outlets":[{"connector":13,"id":2347705,"kilowatts":null,"power":0,"status":null}]}],"url":"http://api.plugshare.com/view/location/349238"},{"access":1,"address":"E W, \u092a\u0942\u0930\u094d\u0935 \u092a\u0936\u094d\u091a\u093f\u092e \u0930\u093e\u091c\u092e\u093e\u0930\u094d\u0917, \u092e\u093f\u0925\u093f\u0932\u093e 45600, Nepal","icon":"https://assets.plugshare.com/icons/Y.png","icon_type":"Y","id":349002,"latitude":26.929253,"longitude":85.956543,"name":"Komal Hotel MG 7 KW AC Charger","stations":[{"id":829279,"outlets":[{"connector":13,"id":2368908,"kilowatts":null,"power":0,"status":null}]}],"url":"http://api.plugshare.com/view/location/349002"},{"access":1,"address":"22, BG Block(Newtown), Uniworld City, Newtown, New Town, West Bengal 700156, India","icon":"https://assets.plugshare.com/icons/Y.png","icon_type":"Y","id":309314,"latitude":22.562851,"longitude":88.495251,"name":"Uniworld City, New Town, Kolkata","stations":[{"id":718965,"outlets":[{"connector":13,"id":2157348,"kilowatts":null,"power":0,"status":null}]}],"url":"http://api.plugshare.com/view/location/309314"},{"access":1,"address":"PFC9+MQ5, Dabgram, West Bengal 734004, India","icon":"https://assets.plugshare.com/icons/G.png","icon_type":"G","id":343153,"latitude":26.732134,"longitude":88.432197,"name":"Atherspace Siliguri","stations":[{"id":811892,"outlets":[{"connector":7,"id":2314548,"kilowatts":null,"power":0,"status":null}]},{"id":811893,"outlets":[{"connector":7,"id":2314549,"kilowatts":null,"power":0,"status":null}]}],"url":"http://api.plugshare.com/view/location/343153"},{"access":1,"address":"59/1, Khudiram Bose Rd, Dutta Bagan, Paikpara, Kolkata, West Bengal 700037, India","icon":"https://assets.plugshare.com/icons/Y.png","icon_type":"Y","id":316061,"latitude":22.607524,"longitude":88.392261,"name":"IOCL Drive In Pump Tata Power FC","stations":[{"id":737062,"outlets":[{"connector":3,"id":2216104,"kilowatts":null,"power":0,"status":null},{"connector":13,"id":2216105,"kilowatts":null,"power":0,"status":null}]}],"url":"http://api.plugshare.com/view/location/316061"},{"access":1,"address":"L1-57, Dori Rd, Sakchi, Jamshedpur, Jharkhand 831001, India","icon":"https://assets.plugshare.com/icons/Y.png","icon_type":"Y","id":336399,"latitude":22.802593,"longitude":86.203661,"name":"Tata Steel Sakchi Parking Tata Power FC","stations":[{"id":793315,"outlets":[{"connector":13,"id":2290312,"kilowatts":null,"power":0,"status":null}]}],"url":"http://api.plugshare.com/view/location/336399"},{"access":1,"address":"HD Complex, Janapath Ln, South Sarania, Ulubari, Guwahati, Assam 781007, India","icon":"https://assets.plugshare.com/icons/G.png","icon_type":"G","id":331751,"latitude":26.170918,"longitude":91.761481,"name":"HPCL Guwahati Chargegrid Type-2","stations":[{"id":780881,"outlets":[{"connector":7,"id":2274294,"kilowatts":null,"power":0,"status":null},{"connector":7,"id":2274295,"kilowatts":null,"power":0,"status":null}]}],"url":"http://api.plugshare.com/view/location/331751"},{"access":1,"address":"401 Maru Tower, Kanke Rd, Jawahar Nagar, Hatma, Ranchi, Jharkhand 834008, India","icon":"https://assets.plugshare.com/icons/G.png","icon_type":"G","id":328696,"latitude":23.396414,"longitude":85.31393,"name":"HPCL Retail RO Chargegrid Type2","stations":[{"id":772099,"outlets":[{"connector":7,"id":2262725,"kilowatts":null,"power":0,"status":null}]},{"id":772100,"outlets":[{"connector":7,"id":2262726,"kilowatts":null,"power":0,"status":null}]}],"url":"http://api.plugshare.com/view/location/328696"},{"access":1,"address":"41, Hanumanpura, Jawahar Nagar Colony, Bhelupur, Varanasi, Uttar Pradesh 221010, India","icon":"https://assets.plugshare.com/icons/G.png","icon_type":"G","id":348210,"latitude":25.295478,"longitude":82.999151,"name":"Speedforce CNC Bolt Wall Charger","stations":[{"id":827109,"outlets":[{"connector":9,"id":2334708,"kilowatts":null,"power":0,"status":null}]}],"url":"http://api.plugshare.com/view/location/348210"},{"access":1,"address":"Service Rd, Tali Park, Action Area IID, Newtown, New Town, West Bengal 700052, India","icon":"https://assets.plugshare.com/icons/Y.png","icon_type":"Y","id":329925,"latitude":22.620692,"longitude":88.461156,"name":"TML Lexus Motors Tata Power FC","stations":[{"id":775661,"outlets":[{"connector":3,"id":2267403,"kilowatts":null,"power":0,"status":null},{"connector":13,"id":2267404,"kilowatts":null,"power":0,"status":null}]}],"url":"http://api.plugshare.com/view/location/329925"},{"access":1,"address":"11/1A, Rishi Bankim Chandra Road, Mahendra Colony, Cantonment, Rajbari, Dum Dum, Kolkata, West Bengal 700028, India","icon":"https://assets.plugshare.com/icons/Y.png","icon_type":"Y","id":316062,"latitude":22.630747,"longitude":88.421596,"name":"IOCL Dwarka Pump Tata Power FC","stations":[{"id":737063,"outlets":[{"connector":3,"id":2216106,"kilowatts":null,"power":0,"status":null},{"connector":13,"id":2216107,"kilowatts":null,"power":0,"status":null}]}],"url":"http://api.plugshare.com/view/location/316062"},{"access":1,"address":"707, Jadu Colony, Sarada Pally, Kolkata, West Bengal 700034, India","icon":"https://assets.plugshare.com/icons/Y.png","icon_type":"Y","id":319001,"latitude":22.489152,"longitude":88.314328,"name":"IOCL Diamond Pump Tata Power FC","stations":[{"id":744921,"outlets":[{"connector":3,"id":2226631,"kilowatts":null,"power":0,"status":"UNKNOWN"},{"connector":13,"id":2226632,"kilowatts":null,"power":0,"status":"UNKNOWN"}]}],"url":"http://api.plugshare.com/view/location/319001"},{"access":1,"address":"Unnamed Road, Kathmandu 44600, Nepal","icon":"https://assets.plugshare.com/icons/G.png","icon_type":"G","id":330139,"latitude":27.743377,"longitude":85.306488,"name":"Tarkeshwor-10","stations":[{"id":776391,"outlets":[{"connector":9,"id":2268295,"kilowatts":null,"power":0,"status":null}]}],"url":"http://api.plugshare.com/view/location/330139"},{"access":1,"address":"H04, Darechok, Nepal","icon":"https://assets.plugshare.com/icons/Y.png","icon_type":"Y","id":344539,"latitude":27.858865,"longitude":84.646064,"name":"Siddhartha Riverside Resort DC Fast Charging","stations":[{"id":815506,"outlets":[{"connector":13,"id":2319515,"kilowatts":null,"power":0,"status":null}]}],"url":"http://api.plugshare.com/view/location/344539"},{"access":1,"address":"Keonjhar - Ghatgaon - Panikoili Rd, Mohammed Jamalpur, Odisha 755015, India","icon":"https://assets.plugshare.com/icons/Y.png","icon_type":"Y","id":357315,"latitude":20.918795,"longitude":86.216886,"name":"TML Trupti Automotives Panikoili Tata Power FC","stations":[{"id":852084,"network_id":1012,"outlets":[{"connector":13,"id":2376495,"kilowatts":null,"power":0,"status":null}]}],"url":"http://api.plugshare.com/view/location/357315"},{"access":1,"address":"New Town Rd, Action Area III, Newtown, New Town, West Bengal 700135, India","icon":"https://assets.plugshare.com/icons/G.png","icon_type":"G","id":288100,"latitude":22.555199,"longitude":88.50296,"name":"EXICOM Fast EVCS (SC)","stations":[{"id":630510,"outlets":[{"connector":7,"id":1889884,"kilowatts":null,"power":0,"status":null}]},{"id":630511,"outlets":[{"connector":9,"id":1889885,"kilowatts":null,"power":0,"status":null}]}],"url":"http://api.plugshare.com/view/location/288100"},{"access":1,"address":"AH45, Balipasi, Odisha 755022, India","icon":"https://assets.plugshare.com/icons/Y.png","icon_type":"Y","id":357313,"latitude":20.923671,"longitude":86.248849,"name":"Prasanta Fuel Pump Balipasi Tata Power FC","stations":[{"id":852081,"network_id":1012,"outlets":[{"connector":13,"id":2376492,"kilowatts":null,"power":0,"status":null}]}],"url":"http://api.plugshare.com/view/location/357313"},{"access":1,"address":"13, Ho Chi Minh Sarani, Kankaria Estates, Park Street area, Kolkata, West Bengal 700071, India","icon":"https://assets.plugshare.com/icons/Y.png","icon_type":"Y","id":327624,"latitude":22.54747,"longitude":88.349608,"name":"Tata Steel Park Street Tata Power FC","stations":[{"id":769169,"outlets":[{"connector":13,"id":2258841,"kilowatts":null,"power":0,"status":null},{"connector":13,"id":2258842,"kilowatts":null,"power":0,"status":null}]}],"url":"http://api.plugshare.com/view/location/327624"},{"access":1,"address":"Damaru Cultural Tours & Travels Kathmandu Nepal, Tangal, Nepal Telecom, Kailash Marg, \u0915\u093e\u0920\u092e\u093e\u0921\u094c\u0901 44605, Nepal","icon":"https://assets.plugshare.com/icons/Y.png","icon_type":"Y","id":327470,"latitude":27.715334,"longitude":85.33001,"name":"Hyundai Naxal AC Charger","stations":[{"id":768849,"outlets":[{"connector":13,"id":2258445,"kilowatts":null,"power":0,"status":null}]}],"url":"http://api.plugshare.com/view/location/327470"},{"access":1,"address":"Eastern Bypass,ward 36,Telipara ,siliguri, West Bengal 734004","icon":"https://assets.plugshare.com/icons/G.png","icon_type":"G","id":345318,"latitude":26.713877,"longitude":88.457049,"name":"AARGO-Basanti Trading Co","stations":[{"id":819735,"outlets":[{"connector":7,"id":2324289,"kilowatts":null,"power":0,"status":null}]}],"url":"http://api.plugshare.com/view/location/345318"},{"access":1,"address":"Eastern Bypass,ward 36,Telipara ,siliguri, West Bengal 734004","icon":"https://assets.plugshare.com/icons/G.png","icon_type":"G","id":345319,"latitude":26.713877,"longitude":88.457049,"name":"AARGO-Basanti Trading Co","stations":[{"id":819736,"outlets":[{"connector":7,"id":2324290,"kilowatts":null,"power":0,"status":null}]}],"url":"http://api.plugshare.com/view/location/345319"},{"access":1,"address":"18/A/H/4, Chetla Hat Rd, Chetla, Kolkata, West Bengal 700027, India","icon":"https://assets.plugshare.com/icons/Y.png","icon_type":"Y","id":316059,"latitude":22.519974,"longitude":88.333676,"name":"IOCL","stations":[{"id":737060,"outlets":[{"connector":3,"id":2216100,"kilowatts":null,"power":0,"status":null},{"connector":13,"id":2216101,"kilowatts":null,"power":0,"status":null}]}],"url":"http://api.plugshare.com/view/location/316059"},{"access":1,"address":"E - W Hwy, Birtamode 57204, Nepal","icon":"https://assets.plugshare.com/icons/G.png","icon_type":"G","id":349005,"latitude":26.640649,"longitude":87.955292,"name":"Mahalaxmi International","stations":[{"id":829284,"outlets":[{"connector":7,"id":2346361,"kilowatts":null,"power":0,"status":null}]}],"url":"http://api.plugshare.com/view/location/349005"},{"access":1,"address":"Delhi - Kolkata Hwy, Nigha, West Bengal 713339, India","icon":"https://assets.plugshare.com/icons/G.png","icon_type":"G","id":334699,"latitude":23.669939,"longitude":87.033153,"name":"Citi Residenci Wall Charger","stations":[{"id":788426,"outlets":[{"connector":9,"id":2284162,"kilowatts":null,"power":0,"status":null}]}],"url":"http://api.plugshare.com/view/location/334699"},{"access":1,"address":"Pokhara-Baglung Hwy, Pokhara 33700, Nepal","icon":"https://assets.plugshare.com/icons/Y.png","icon_type":"Y","id":327457,"latitude":28.22222,"longitude":83.978658,"name":"Barahi Service Center - Hyundai AC Charger","stations":[{"id":768835,"outlets":[{"connector":13,"id":2258431,"kilowatts":null,"power":0,"status":null}]}],"url":"http://api.plugshare.com/view/location/327457"},{"access":1,"address":"B.P. Highway, Bardibas 45701, Nepal","icon":"https://assets.plugshare.com/icons/G.png","icon_type":"G","id":349003,"latitude":26.999532,"longitude":85.903315,"name":"Hotel Gunja MG 7 kW AC Charger","stations":[{"id":829280,"outlets":[{"connector":7,"id":2346357,"kilowatts":null,"power":0,"status":null}]}],"url":"http://api.plugshare.com/view/location/349003"},{"access":1,"address":"Line Tank Rd, Gopal Gunj, Deputy Para, Ahirtoli, Ranchi, Jharkhand 834001, India","icon":"https://assets.plugshare.com/icons/Y.png","icon_type":"Y","id":332351,"latitude":23.371779,"longitude":85.326138,"name":"MG Ranchi Tata Power FC","stations":[{"id":782369,"outlets":[{"connector":3,"id":2276200,"kilowatts":null,"power":0,"status":null},{"connector":13,"id":2276201,"kilowatts":null,"power":0,"status":null}]}],"url":"http://api.plugshare.com/view/location/332351"},{"access":1,"address":"Nk singh Marga ward 31, Kathmandu, Central Region, Nepal, N.K.Singh Marg, Kathmandu 44600, Nepal","icon":"https://assets.plugshare.com/icons/G.png","icon_type":"G","id":348257,"latitude":27.689064,"longitude":85.340622,"name":"PRANISH PATHAK","stations":[{"id":827209,"outlets":[{"connector":7,"id":2334840,"kilowatts":null,"power":0,"status":null}]}],"url":"http://api.plugshare.com/view/location/348257"},{"access":1,"address":"Thirbam Sadak 1722, Kathmandu 44600, Nepal","icon":"https://assets.plugshare.com/icons/Y.png","icon_type":"Y","id":327372,"latitude":27.72012,"longitude":85.331158,"name":"BYD Park","stations":[{"id":768657,"outlets":[{"connector":3,"id":2258202,"kilowatts":null,"power":0,"status":null}]},{"id":768658,"outlets":[{"connector":3,"id":2258203,"kilowatts":null,"power":0,"status":null}]}],"url":"http://api.plugshare.com/view/location/327372"},{"access":1,"address":"Tata Cancer Hospital, Action Area 1D, Newtown, New Town, West Bengal 700156, India","icon":"https://assets.plugshare.com/icons/G.png","icon_type":"G","id":288094,"latitude":22.577393,"longitude":88.478547,"name":"EVCS (SC)","stations":[{"id":630502,"outlets":[{"connector":9,"id":1889876,"kilowatts":null,"power":0,"status":null}]}],"url":"http://api.plugshare.com/view/location/288094"},{"access":1,"address":"MFPG+4WH, Butwal 32907, Nepal","icon":"https://assets.plugshare.com/icons/G.png","icon_type":"G","id":346774,"latitude":27.685771,"longitude":83.477231,"name":"Ocean Auto AC Charger","stations":[{"id":823500,"network_id":1,"outlets":[{"connector":7,"id":2329788,"kilowatts":null,"power":0,"status":null},{"connector":10,"id":2329789,"kilowatts":null,"power":0,"status":null}]}],"url":"http://api.plugshare.com/view/location/346774"},{"access":1,"address":" Street Number 30, AF Block(Newtown), Action Area I, Newtown, New Town, West Bengal 700059, India","icon":"https://assets.plugshare.com/icons/G.png","icon_type":"G","id":288089,"latitude":22.581558,"longitude":88.448176,"name":"EVCS Najrul Tirtha (SC)","stations":[{"id":630491,"outlets":[{"connector":9,"id":1889858,"kilowatts":null,"power":0,"status":null}]},{"id":630492,"outlets":[{"connector":10,"id":1889859,"kilowatts":null,"power":0,"status":null}]}],"url":"http://api.plugshare.com/view/location/288089"},{"access":1,"address":"Hogdzin Lam, Thimphu, Bhutan","icon":"https://assets.plugshare.com/icons/G.png","icon_type":"G","id":47115,"latitude":27.471405,"longitude":89.63928,"name":"Hogdzin Lam Parking / Charging","stations":[{"id":65587,"outlets":[{"connector":10,"id":131077,"kilowatts":null,"power":0,"status":null}]}],"url":"http://api.plugshare.com/view/location/47115"},{"access":1,"address":"Tashichho Dzong, Thimphu, Bhutan","icon":"https://assets.plugshare.com/icons/G.png","icon_type":"G","id":58810,"latitude":27.488236,"longitude":89.634538,"name":"Ministry of Home and Cultural Affairs","stations":[{"id":81308,"outlets":[{"connector":10,"id":177838,"kilowatts":null,"power":0,"status":null}]}],"url":"http://api.plugshare.com/view/location/58810"},{"access":1,"address":"2, Taratala Rd, Makalhati Mauza, Kolkata, West Bengal 700088, India","icon":"https://assets.plugshare.com/icons/Y.png","icon_type":"Y","id":316060,"latitude":22.522953,"longitude":88.290888,"name":"IOCL Nature Park","stations":[{"id":737061,"outlets":[{"connector":3,"id":2216102,"kilowatts":null,"power":0,"status":null},{"connector":13,"id":2216103,"kilowatts":null,"power":0,"status":null}]}],"url":"http://api.plugshare.com/view/location/316060"},{"access":1,"address":"P54, Hide Rd, Tikiapara, Garden Reach, Kolkata, West Bengal 700043, India","icon":"https://assets.plugshare.com/icons/Y.png","icon_type":"Y","id":322676,"latitude":22.528942,"longitude":88.307237,"name":"JLR Lexus Motors Tata Power FC","stations":[{"id":755082,"outlets":[{"connector":7,"id":2239968,"kilowatts":null,"power":0,"status":null}]},{"id":755083,"outlets":[{"connector":3,"id":2239969,"kilowatts":null,"power":0,"status":null},{"connector":13,"id":2239970,"kilowatts":null,"power":0,"status":null}]}],"url":"http://api.plugshare.com/view/location/322676"},{"access":1,"address":"CG l landmark , Opp Birendra Campus, Bharatpur Height.","icon":"https://assets.plugshare.com/icons/G.png","icon_type":"G","id":359839,"latitude":27.66606,"longitude":84.417899,"name":"Bharatpur , 10 E- W Highway","stations":[{"id":858920,"network_id":33,"outlets":[{"connector":9,"id":2386105,"kilowatts":null,"power":0,"status":null}]}],"url":"http://api.plugshare.com/view/location/359839"},{"access":1,"address":"Ring Road 640, Lalitpur 44600, Nepal","icon":"https://assets.plugshare.com/icons/Y.png","icon_type":"Y","id":360785,"latitude":27.673773,"longitude":85.301479,"name":"Tata Motors DC fast Charger","stations":[{"id":861595,"outlets":[{"connector":13,"id":2390170,"kilowatts":null,"power":0,"status":null}]}],"url":"http://api.plugshare.com/view/location/360785"},{"access":1,"address":"Baidam Rd, Pokhara 33700, Nepal","icon":"https://assets.plugshare.com/icons/Y.png","icon_type":"Y","id":327460,"latitude":28.22183,"longitude":83.951634,"name":"Waterfront Resort, Hyundai AC Charger","stations":[{"id":768838,"outlets":[{"connector":13,"id":2258434,"kilowatts":null,"power":0,"status":null}]}],"url":"http://api.plugshare.com/view/location/327460"},{"access":1,"address":"Lakeside, Pokhara-6, Pokhara 33700, Nepal","icon":"https://assets.plugshare.com/icons/Y.png","icon_type":"Y","id":327459,"latitude":28.208176,"longitude":83.957948,"name":"Hotel Barahi, Hyundai 7.2kW AC Charger","stations":[{"id":768837,"outlets":[{"connector":13,"id":2258433,"kilowatts":null,"power":0,"status":null}]}],"url":"http://api.plugshare.com/view/location/327459"},{"access":1,"address":"Labim Mall, Pulchowk, Kathmandu, Nepal","icon":"https://assets.plugshare.com/icons/Y.png","icon_type":"Y","id":327378,"latitude":27.677414,"longitude":85.316777,"name":"Labim Mall Hyundai 7KW AC Charger","stations":[{"id":768665,"outlets":[{"connector":13,"id":2258213,"kilowatts":null,"power":0,"status":null}]}],"url":"http://api.plugshare.com/view/location/327378"},{"access":1,"address":"Kupondole, Lalitpur 44600, Nepal","icon":"https://assets.plugshare.com/icons/Y.png","icon_type":"Y","id":327468,"latitude":27.690503,"longitude":85.311526,"name":"LI Auto Service Hyundai AC Charger","stations":[{"id":768847,"outlets":[{"connector":13,"id":2258443,"kilowatts":null,"power":0,"status":null}]}],"url":"http://api.plugshare.com/view/location/327468"},{"access":1,"address":"E - W Hwy, Bharatpur 44207, Nepal","icon":"https://assets.plugshare.com/icons/G.png","icon_type":"G","id":344556,"latitude":27.688242,"longitude":84.427368,"name":"Hotel Royal Century MG ZS EV 7 KW AC CHARGER","stations":[{"id":815556,"network_id":33,"outlets":[{"connector":7,"id":2319576,"kilowatts":null,"power":0,"status":null}]}],"url":"http://api.plugshare.com/view/location/344556"},{"access":1,"address":"Nayabazar Rd 9, Pokhara 33700, Nepal","icon":"https://assets.plugshare.com/icons/G.png","icon_type":"G","id":327503,"latitude":28.212127,"longitude":83.98729,"name":"MG Jonchhen 7kW AC Charger","stations":[{"id":768905,"outlets":[{"connector":7,"id":2259918,"kilowatts":null,"power":0,"status":null}]}],"url":"http://api.plugshare.com/view/location/327503"},{"access":1,"address":"Improvement Center Building, Tata Steel, Northern Town, Jamshedpur, Jharkhand 831001, India","icon":"https://assets.plugshare.com/icons/Y.png","icon_type":"Y","id":336401,"latitude":22.800092,"longitude":86.188279,"name":"Tata Steel Northen Town Parking Tata Power FC","stations":[{"id":793317,"outlets":[{"connector":13,"id":2290314,"kilowatts":null,"power":0,"status":null}]}],"url":"http://api.plugshare.com/view/location/336401"},{"access":1,"address":"Plot No.2C, Premises No.10-097, Street Number 110, BA Block(Newtown), Action Area I, Newtown, New Town, West Bengal 700156, India","icon":"https://assets.plugshare.com/icons/G.png","icon_type":"G","id":288091,"latitude":22.583352,"longitude":88.459354,"name":"EVCS (SC)","stations":[{"id":630498,"outlets":[{"connector":9,"id":1889872,"kilowatts":null,"power":0,"status":null}]}],"url":"http://api.plugshare.com/view/location/288091"},{"access":1,"address":"dhumbharai opposite of om hospital ","icon":"https://assets.plugshare.com/icons/Y.png","icon_type":"Y","id":354624,"latitude":27.721822,"longitude":85.341407,"name":"sundar yatayat fast charging dtation","stations":[{"id":844982,"outlets":[{"connector":14,"id":2367328,"kilowatts":null,"power":0,"status":null}]},{"id":844983,"outlets":[{"connector":3,"id":2367329,"kilowatts":null,"power":0,"status":null}]}],"url":"http://api.plugshare.com/view/location/354624"},{"access":1,"address":"R55X+8CQ, Jubilee Park, Sakchi, Jamshedpur, Jharkhand 831001, India","icon":"https://assets.plugshare.com/icons/Y.png","icon_type":"Y","id":336400,"latitude":22.808467,"longitude":86.19828,"name":"Tata Steel Ambagan Parking Tata Power FC","stations":[{"id":793316,"outlets":[{"connector":13,"id":2290313,"kilowatts":null,"power":0,"status":null}]}],"url":"http://api.plugshare.com/view/location/336400"},{"access":1,"address":"Thapathali, Kathmandu 44600, Nepal","icon":"https://assets.plugshare.com/icons/Y.png","icon_type":"Y","id":327471,"latitude":27.692307,"longitude":85.318503,"name":"Hyundai Sales AC Charger","stations":[{"id":768850,"outlets":[{"connector":13,"id":2258446,"kilowatts":null,"power":0,"status":null}]}],"url":"http://api.plugshare.com/view/location/327471"},{"access":1,"address":"Karbigahiya, Maruti Nagar, Mithapur Farm Area, Mithapur, Patna, Bihar 800001, India","icon":"https://assets.plugshare.com/icons/G.png","icon_type":"G","id":329826,"latitude":25.601954,"longitude":85.138411,"name":"Karbigahiya Statiq Type2 10KW","stations":[{"id":775458,"outlets":[{"connector":7,"id":2267136,"kilowatts":null,"power":0,"status":null}]}],"url":"http://api.plugshare.com/view/location/329826"},{"access":1,"address":"Bypass Rd, Bharatpur 44207, Nepal","icon":"https://assets.plugshare.com/icons/Y.png","icon_type":"Y","id":335077,"latitude":27.676785,"longitude":84.438359,"name":"Sajha Auto MG 7KW AC Charger","stations":[{"id":789345,"outlets":[{"connector":13,"id":2285318,"kilowatts":null,"power":0,"status":null}]}],"url":"http://api.plugshare.com/view/location/335077"},{"access":1,"address":"6X47+C45, Pokhara 33700, Nepal","icon":"https://assets.plugshare.com/icons/Y.png","icon_type":"Y","id":356355,"latitude":28.206037,"longitude":83.962846,"name":"Temple Tree Resort And Spa MG EV CHARGER","stations":[{"id":849400,"outlets":[{"connector":13,"id":2372950,"kilowatts":null,"power":0,"status":null}]}],"url":"http://api.plugshare.com/view/location/356355"},{"access":1,"address":"2V5F+FMM, Birgunj 44300, Nepal","icon":"https://assets.plugshare.com/icons/G.png","icon_type":"G","id":356354,"latitude":27.008453,"longitude":84.874265,"name":"Hotel Makalu MG AC Charger","stations":[{"id":849399,"outlets":[{"connector":7,"id":2372948,"kilowatts":null,"power":0,"status":null},{"connector":10,"id":2372949,"kilowatts":null,"power":0,"status":null}]}],"url":"http://api.plugshare.com/view/location/356354"},{"access":1,"address":"NIT Road, Ghungoor, Masimpur, Silchar, Assam 788118, India","icon":"https://assets.plugshare.com/icons/G.png","icon_type":"G","id":99805,"latitude":24.757929,"longitude":92.788392,"name":"T-POINT, NIT Silchar","stations":[{"id":165846,"outlets":[{"connector":11,"id":384481,"kilowatts":null,"power":0,"status":null}]}],"url":"http://api.plugshare.com/view/location/99805"},{"access":1,"address":"Bombay Beach Resort Approach Rd, Mandarmani, 721455, India","icon":"https://assets.plugshare.com/icons/G.png","icon_type":"G","id":350953,"latitude":21.663995,"longitude":87.706276,"name":"Resort Kiss Of Sea","stations":[{"id":835649,"network_id":33,"outlets":[{"connector":9,"id":2354940,"kilowatts":null,"power":0,"status":null}]}],"url":"http://api.plugshare.com/view/location/350953"},{"access":1,"address":"Mulkot","icon":"https://assets.plugshare.com/icons/G.png","icon_type":"G","id":355124,"latitude":27.402098,"longitude":85.923264,"name":"Akshit Resort and Rafting MG ZS EV 7KW AC CHARGER","stations":[{"id":846160,"outlets":[{"connector":7,"id":2368821,"kilowatts":null,"power":0,"status":null}]}],"url":"http://api.plugshare.com/view/location/355124"},{"access":1,"address":"MCCM+P8P, Bharatpur 44200, Nepal","icon":"https://assets.plugshare.com/icons/Y.png","icon_type":"Y","id":361306,"latitude":27.671382,"longitude":84.433949,"name":"BYD 40kW Fast Charger","stations":[{"id":863101,"outlets":[{"connector":13,"id":2392176,"kilowatts":null,"power":0,"status":null}]}],"url":"http://api.plugshare.com/view/location/361306"},{"access":1,"address":"Sama Marga 514, Kathmandu 44600, Nepal","icon":"https://assets.plugshare.com/icons/Y.png","icon_type":"Y","id":327504,"latitude":27.715086,"longitude":85.326359,"name":"MG Motors 7 kW AC Charger","stations":[{"id":768906,"outlets":[{"connector":13,"id":2258509,"kilowatts":null,"power":0,"status":null}]}],"url":"http://api.plugshare.com/view/location/327504"},{"access":1,"address":"18, Fraser Rd, Dak Bunglow, Near, Chowk, Patna, Bihar 800001, India","icon":"https://assets.plugshare.com/icons/G.png","icon_type":"G","id":328695,"latitude":25.609061,"longitude":85.137288,"name":"HPCL Retail Office Chargegrid Type2","stations":[{"id":772098,"outlets":[{"connector":7,"id":2262724,"kilowatts":null,"power":0,"status":null}]}],"url":"http://api.plugshare.com/view/location/328695"},{"access":1,"address":"Tower 1, Uniworld City, Newtown, New Town, West Bengal 700156, India","icon":"https://assets.plugshare.com/icons/Y.png","icon_type":"Y","id":309320,"latitude":22.562179,"longitude":88.492744,"name":"Uniworld  City New Town Tata Power FC","stations":[{"id":718972,"outlets":[{"connector":7,"id":2157371,"kilowatts":null,"power":0,"status":null}]},{"id":718973,"outlets":[{"connector":7,"id":2157372,"kilowatts":null,"power":0,"status":null}]},{"id":718974,"outlets":[{"connector":3,"id":2157373,"kilowatts":null,"power":0,"status":null},{"connector":13,"id":2157374,"kilowatts":null,"power":0,"status":null}]}],"url":"http://api.plugshare.com/view/location/309320"},{"access":1,"address":"Durbar Tole St, Lalitpur 44600, Nepal","icon":"https://assets.plugshare.com/icons/Y.png","icon_type":"Y","id":327474,"latitude":27.679262,"longitude":85.317418,"name":"Sajha Yatayat BYD Charger","stations":[{"id":768854,"outlets":[{"connector":13,"id":2258450,"kilowatts":null,"power":0,"status":null}]}],"url":"http://api.plugshare.com/view/location/327474"},{"access":1,"address":"Trade Tower, Kathmandu 44600, Nepal","icon":"https://assets.plugshare.com/icons/Y.png","icon_type":"Y","id":327473,"latitude":27.692234,"longitude":85.319544,"name":"Trade Tower BYD Charger","stations":[{"id":768853,"outlets":[{"connector":13,"id":2258449,"kilowatts":null,"power":0,"status":null}]}],"url":"http://api.plugshare.com/view/location/327473"},{"access":1,"address":"Lakeside Rd 6, Pokhara 33700, Nepal","icon":"https://assets.plugshare.com/icons/Y.png","icon_type":"Y","id":355157,"latitude":28.207906,"longitude":83.957604,"name":"Hotel Landmark MG 7 Kw Charger","stations":[{"id":846239,"outlets":[{"connector":13,"id":2368909,"kilowatts":null,"power":0,"status":null}]}],"url":"http://api.plugshare.com/view/location/355157"},{"access":1,"address":"Tata Motors  Gramps Auto Bampada","icon":"https://assets.plugshare.com/icons/Y.png","icon_type":"Y","id":341435,"latitude":21.498071,"longitude":86.889698,"name":"Bampada, Balasore","stations":[{"id":807327,"outlets":[{"connector":3,"id":2308462,"kilowatts":null,"power":0,"status":null},{"connector":13,"id":2308463,"kilowatts":null,"power":0,"status":null}]}],"url":"http://api.plugshare.com/view/location/341435"},{"access":1,"address":"1021, Janoki, JN Bose Rd, opposite to SBI Bank (Subhasgram Branch, Kodalla, Rajpur Sonarpur, Kolkata, West Bengal 700146, India","icon":"https://assets.plugshare.com/icons/G.png","icon_type":"G","id":287154,"latitude":22.409213,"longitude":88.431617,"name":"Opposite S.B.I , Subhasgram (SC)","stations":[{"id":627436,"outlets":[{"connector":9,"id":1863176,"kilowatts":null,"power":0,"status":null}]},{"id":627437,"outlets":[{"connector":10,"id":1863177,"kilowatts":null,"power":0,"status":null}]}],"url":"http://api.plugshare.com/view/location/287154"},{"access":1,"address":"Sambalpur - Cuttack Hwy, Nuahata, Odisha 759128, India","icon":"https://assets.plugshare.com/icons/Y.png","icon_type":"Y","id":356836,"latitude":20.831667,"longitude":85.241597,"name":"Trupti Automotives, Telco Chowk, Banarpal","stations":[{"id":850743,"network_id":1012,"outlets":[{"connector":13,"id":2374769,"kilowatts":null,"power":0,"status":null}]}],"url":"http://api.plugshare.com/view/location/356836"},{"access":1,"address":"1021, Janoki, JN Bose Rd, opposite to SBI Bank (Subhasgram Branch, Kodalla, Rajpur Sonarpur, Kolkata, West Bengal 700146, India","icon":"https://assets.plugshare.com/icons/G.png","icon_type":"G","id":287156,"latitude":22.409213,"longitude":88.431617,"name":"Sudipta Chakraborty","stations":[{"id":627439,"outlets":[{"connector":9,"id":1863179,"kilowatts":null,"power":0,"status":null}]},{"id":627440,"outlets":[{"connector":10,"id":1863180,"kilowatts":null,"power":0,"status":null}]}],"url":"http://api.plugshare.com/view/location/287156"},{"access":1,"address":"P82H+5PR, Bagdogra, West Bengal 734014, India","icon":"https://assets.plugshare.com/icons/Y.png","icon_type":"Y","id":355581,"latitude":26.700634,"longitude":88.329239,"name":"IOCL Bagdogra Tata Power FC","stations":[{"id":847348,"network_id":1012,"outlets":[{"connector":13,"id":2370365,"kilowatts":null,"power":0,"status":null}]}],"url":"http://api.plugshare.com/view/location/355581"},{"access":1,"address":"P82H+5PR, Bagdogra, West Bengal 734014, India","icon":"https://assets.plugshare.com/icons/Y.png","icon_type":"Y","id":355582,"latitude":26.700634,"longitude":88.329239,"name":"IOCL Bagdogra Tata Power FC","stations":[{"id":847349,"network_id":1012,"outlets":[{"connector":13,"id":2370366,"kilowatts":null,"power":0,"status":null}]}],"url":"http://api.plugshare.com/view/location/355582"},{"access":1,"address":"Adampool, opposite Topsel Toyota, Gangtok, Sikkim 737135, India","icon":"https://assets.plugshare.com/icons/Y.png","icon_type":"Y","id":346013,"latitude":27.305347,"longitude":88.585854,"name":"TML Rangeet Auto Tata Power FC","stations":[{"id":821621,"outlets":[{"connector":3,"id":2326938,"kilowatts":null,"power":0,"status":null},{"connector":13,"id":2326939,"kilowatts":null,"power":0,"status":null}]}],"url":"http://api.plugshare.com/view/location/346013"}]
