[{"access":1,"address":"Abasia Town Link Rd, Rahim Yar Khan, Punjab 64200, Pakistan","icon":"https://assets.plugshare.com/icons/Y.png","icon_type":"Y","id":341290,"latitude":28.434639,"longitude":70.307841,"name":"Hw","stations":[{"id":806853,"outlets":[{"connector":8,"id":2307808,"kilowatts":null,"power":0,"status":null}]},{"id":806854,"network_id":52,"outlets":[{"connector":13,"id":2307809,"kilowatts":null,"power":0,"status":null}]}],"url":"http://api.plugshare.com/view/location/341290"},{"access":1,"address":"K112, Khempura, Udaipur, Rajasthan 313002, India","icon":"https://assets.plugshare.com/icons/Y.png","icon_type":"Y","id":305353,"latitude":24.574091,"longitude":73.746192,"name":"MG MOTOR UDAIPUR TATA POWER FC","score":9.0,"stations":[{"id":708878,"outlets":[{"connector":3,"id":2137060,"kilowatts":null,"power":0,"status":null},{"connector":13,"id":2137061,"kilowatts":null,"power":0,"status":null}]}],"url":"http://api.plugshare.com/view/location/305353"},{"access":1,"address":"3, Gondal Rd, behind Dunex Metal, Vavdi, Rajkot, Gujarat 360004, India","icon":"https://assets.plugshare.com/icons/Y.png","icon_type":"Y","id":304699,"latitude":22.234486,"longitude":70.801173,"name":"MG Motor Jai Ganesh Tata Power FC","stations":[{"id":707414,"outlets":[{"connector":3,"id":2134170,"kilowatts":null,"power":0,"status":null},{"connector":13,"id":2134171,"kilowatts":null,"power":0,"status":null}]}],"url":"http://api.plugshare.com/view/location/304699"},{"access":1,"address":"NH52, Rampuria, Madhya Pradesh 465661, India","icon":"https://assets.plugshare.com/icons/YR.png","icon_type":"YR","id":304448,"latitude":23.997522,"longitude":76.786871,"name":"IOCL FC (Coming Soon)","stations":[{"id":706898,"outlets":[{"connector":13,"id":2133060,"kilowatts":null,"power":0,"status":null}]}],"url":"http://api.plugshare.com/view/location/304448"},{"access":1,"address":"2, AB Rd, Anoop Nagar, Indore, Madhya Pradesh 452001, India","icon":"https://assets.plugshare.com/icons/Y.png","icon_type":"Y","id":304447,"latitude":22.730118,"longitude":75.888844,"name":"MG Motors Hriday Tata Power FC","stations":[{"id":706897,"outlets":[{"connector":3,"id":2133058,"kilowatts":null,"power":0,"status":null},{"connector":13,"id":2133059,"kilowatts":null,"power":0,"status":null}]}],"url":"http://api.plugshare.com/view/location/304447"},{"access":1,"address":"A-225, Agra Bypass Rd, Khandari, Agra, Uttar Pradesh 282001, India","icon":"https://assets.plugshare.com/icons/Y.png","icon_type":"Y","id":304991,"latitude":27.21151,"longitude":77.997803,"name":"MG Motors Tata Power FC","stations":[{"id":708114,"outlets":[{"connector":13,"id":2135584,"kilowatts":null,"power":0,"status":null},{"connector":13,"id":2135585,"kilowatts":null,"power":0,"status":null}]}],"url":"http://api.plugshare.com/view/location/304991"},{"access":1,"address":"Udaipur","icon":"https://assets.plugshare.com/icons/G.png","icon_type":"G","id":303537,"latitude":24.563805,"longitude":73.707274,"name":"Home Unit - Mohit","stations":[{"id":704678,"outlets":[{"connector":7,"id":2128684,"kilowatts":null,"power":0,"status":null},{"connector":9,"id":2128685,"kilowatts":null,"power":0,"status":null}]}],"url":"http://api.plugshare.com/view/location/303537"},{"access":1,"address":"Aurangabad - Nagpur Rd, Anjani Budruk, Maharashtra 443301, India","icon":"https://assets.plugshare.com/icons/YR.png","icon_type":"YR","id":358947,"latitude":20.166253,"longitude":76.642752,"name":"Hotel Parivar Parking (Coming Soon)","stations":[{"id":856615,"outlets":[{"connector":13,"id":2382984,"kilowatts":null,"power":0,"status":null}]},{"id":856616,"outlets":[{"connector":7,"id":2382985,"kilowatts":null,"power":0,"status":null}]}],"url":"http://api.plugshare.com/view/location/358947"},{"access":1,"address":"Congress Nagar Rd, Maltekdi, Amravati, Maharashtra 444606, India","icon":"https://assets.plugshare.com/icons/G.png","icon_type":"G","id":305140,"latitude":20.928727,"longitude":77.758512,"name":"Jadhav Solar Wall Charger","stations":[{"id":708438,"outlets":[{"connector":9,"id":2136208,"kilowatts":null,"power":0,"status":null}]}],"url":"http://api.plugshare.com/view/location/305140"},{"access":1,"address":"6358+R32, Jhalamand, Rajasthan 342013, India","icon":"https://assets.plugshare.com/icons/Y.png","icon_type":"Y","id":359082,"latitude":26.20977,"longitude":73.065019,"name":"Jhalamgarh Hotel Tata Power FC","stations":[{"id":856915,"network_id":1012,"outlets":[{"connector":13,"id":2383368,"kilowatts":null,"power":0,"status":null}]}],"url":"http://api.plugshare.com/view/location/359082"},{"access":1,"address":"Nawathe Stop, Badnera Rd, Vidhya Vihar Colony, Navathe Nagar, Amravati, Maharashtra 444607, India","icon":"https://assets.plugshare.com/icons/Y.png","icon_type":"Y","id":330618,"latitude":20.909467,"longitude":77.752234,"name":"Hotel Rangoli Pearl Tata Power FC(25kw)","score":9.0,"stations":[{"id":777465,"outlets":[{"connector":3,"id":2269778,"kilowatts":null,"power":0,"status":null},{"connector":13,"id":2269779,"kilowatts":null,"power":0,"status":null}]},{"id":777466,"outlets":[{"connector":7,"id":2269780,"kilowatts":null,"power":0,"status":null}]}],"url":"http://api.plugshare.com/view/location/330618"},{"access":1,"address":"Plot No.5, Samithi School Rd, Patel Nagar, Udhyog Darshan Society, Om Shree Sai Jalaram Nagar, Udhna, Surat, Gujarat 394210, India","icon":"https://assets.plugshare.com/icons/Y.png","icon_type":"Y","id":269920,"latitude":21.16493,"longitude":72.835873,"name":"Chevrolet Service Center","stations":[{"id":594947,"outlets":[{"connector":13,"id":1648557,"kilowatts":null,"power":0,"status":null}]},{"id":594948,"outlets":[{"connector":3,"id":1648558,"kilowatts":null,"power":0,"status":null}]}],"url":"http://api.plugshare.com/view/location/269920"},{"access":1,"address":"J\u0101lgaon\u200e 425003, Maharashtra, Inde","icon":"https://assets.plugshare.com/icons/Y.png","icon_type":"Y","id":119430,"latitude":20.984063,"longitude":75.594443,"name":"MASSTECH Fast Charger","stations":[{"id":209042,"outlets":[{"connector":13,"id":2143966,"kilowatts":null,"power":0,"status":null}]}],"url":"http://api.plugshare.com/view/location/119430"},{"access":1,"address":"7M8H+4GJ, Railway Area, Bhuj, Gujarat 370001, India","icon":"https://assets.plugshare.com/icons/Y.png","icon_type":"Y","id":355781,"latitude":23.265558,"longitude":69.678663,"name":"Click Hotel Bhuj Tata Power FC","stations":[{"id":848221,"network_id":1012,"outlets":[{"connector":13,"id":2371452,"kilowatts":null,"power":0,"status":null}]}],"url":"http://api.plugshare.com/view/location/355781"},{"access":1,"address":"11, near CANARA BANK - GENERAL BRANCH, MIDC, Satpur Colony, Nashik, Maharashtra 422007, India","icon":"https://assets.plugshare.com/icons/G.png","icon_type":"G","id":303947,"latitude":19.99089,"longitude":73.738775,"name":"ibis Nashik Wall Charger","stations":[{"id":705706,"outlets":[{"connector":9,"id":2130551,"kilowatts":null,"power":0,"status":null}]}],"url":"http://api.plugshare.com/view/location/303947"},{"access":1,"address":"1B/A, Police line, Subhash Chowk, Ratanada, Jodhpur","icon":"https://assets.plugshare.com/icons/G.png","icon_type":"G","id":346517,"latitude":26.279872,"longitude":73.0304,"name":"The Fern Residency Xobolt Type-2","stations":[{"id":822910,"outlets":[{"connector":7,"id":2329014,"kilowatts":null,"power":0,"status":null}]}],"url":"http://api.plugshare.com/view/location/346517"},{"access":1,"address":"Q5Q2+6X9, Nakoda, Rajasthan 344024, India","icon":"https://assets.plugshare.com/icons/G.png","icon_type":"G","id":348700,"latitude":25.787505,"longitude":72.152377,"name":"Nakoda EV Charging Station","stations":[{"id":828548,"outlets":[{"connector":9,"id":2345381,"kilowatts":null,"power":0,"status":null}]}],"url":"http://api.plugshare.com/view/location/348700"},{"access":1,"address":"15, 56/15, JK Rd, Bijli Nagar, Private Colony, Govindpura, Bhopal, Madhya Pradesh 462023, India","icon":"https://assets.plugshare.com/icons/Y.png","icon_type":"Y","id":316057,"latitude":23.259173,"longitude":77.456893,"name":"TML Varenyam Motors Tata Power FC","stations":[{"id":737058,"outlets":[{"connector":3,"id":2216097,"kilowatts":null,"power":0,"status":null},{"connector":13,"id":2216098,"kilowatts":null,"power":0,"status":null}]}],"url":"http://api.plugshare.com/view/location/316057"},{"access":1,"address":"In front of Railyway colony ganj betul 312chhitranjan nagar, near of Agarwal petrol pump, Ganj, Betul, Madhya Pradesh 460001, India","icon":"https://assets.plugshare.com/icons/G.png","icon_type":"G","id":307530,"latitude":21.897102,"longitude":77.901787,"name":"GK Motors Bolt SC","stations":[{"id":714184,"outlets":[{"connector":9,"id":2147482,"kilowatts":null,"power":0,"status":null}]}],"url":"http://api.plugshare.com/view/location/307530"},{"access":1,"address":"RJHH+79H, Chittorgarh, Rajasthan 312001, India","icon":"https://assets.plugshare.com/icons/Y.png","icon_type":"Y","id":356429,"latitude":24.827762,"longitude":74.627731,"name":"Yash Tata Motors Chittorgarh Tata Power FC","stations":[{"id":849571,"network_id":1012,"outlets":[{"connector":13,"id":2373150,"kilowatts":null,"power":0,"status":null}]}],"url":"http://api.plugshare.com/view/location/356429"},{"access":1,"address":"Ajmer Bypass, Ratanzila, Ajmer, Rajasthan 305025, India","icon":"https://assets.plugshare.com/icons/Y.png","icon_type":"Y","id":336619,"latitude":26.426821,"longitude":74.68197,"name":"MG GPS Ajmer Tata Power FC","score":9.0,"stations":[{"id":793927,"outlets":[{"connector":13,"id":2291123,"kilowatts":null,"power":0,"status":null},{"connector":13,"id":2291124,"kilowatts":null,"power":0,"status":null}]}],"url":"http://api.plugshare.com/view/location/336619"},{"access":1,"address":"414, Subhash Nagar, Saptar, Sawai Madhopur, Rajasthan 322022, India","icon":"https://assets.plugshare.com/icons/G.png","icon_type":"G","id":336840,"latitude":26.018715,"longitude":76.368949,"name":"Ranathambhaur Mahal Hotel","stations":[{"id":794444,"outlets":[{"connector":1,"id":2291816,"kilowatts":null,"power":0,"status":null}]},{"id":794445,"outlets":[{"connector":9,"id":2291817,"kilowatts":null,"power":0,"status":null}]}],"url":"http://api.plugshare.com/view/location/336840"},{"access":1,"address":"RPHX+JC Tikhi, Maharashtra, India","icon":"https://assets.plugshare.com/icons/Y.png","icon_type":"Y","id":354362,"latitude":20.829098,"longitude":74.748613,"name":"Coming Soon - Hotel Bliss County Dhule Statiq 60KW FC","stations":[{"id":844318,"outlets":[{"connector":13,"id":2366393,"kilowatts":null,"power":0,"status":null},{"connector":13,"id":2366394,"kilowatts":null,"power":0,"status":null}]},{"id":844319,"outlets":[{"connector":7,"id":2366395,"kilowatts":null,"power":0,"status":null}]},{"id":844320,"outlets":[{"connector":9,"id":2366396,"kilowatts":null,"power":0,"status":null}]}],"url":"http://api.plugshare.com/view/location/354362"},{"access":1,"address":"Unnamed Road, Rajasthan 304804, India","icon":"https://assets.plugshare.com/icons/Y.png","icon_type":"Y","id":357713,"latitude":25.936118,"longitude":75.458843,"name":"Dusk View Beesalpur Tata Power FC","stations":[{"id":853207,"network_id":1012,"outlets":[{"connector":13,"id":2378023,"kilowatts":null,"power":0,"status":null}]},{"id":853208,"network_id":1012,"outlets":[{"connector":7,"id":2378024,"kilowatts":null,"power":0,"status":null}]}],"url":"http://api.plugshare.com/view/location/357713"},{"access":1,"address":"H5GR+C9 Gokulpura, Rajasthan, India","icon":"https://assets.plugshare.com/icons/Y.png","icon_type":"Y","id":351480,"latitude":27.576072,"longitude":75.190928,"name":"Coming Soon - Xobolt FC","stations":[{"id":836912,"outlets":[{"connector":13,"id":2356517,"kilowatts":null,"power":0,"status":null}]}],"url":"http://api.plugshare.com/view/location/351480"},{"access":1,"address":"Plot No E35 MIDC Area, Chikalthana Near Prozone Mall, MIDC Industrial Area, Chilkalthana, Aurangabad, Maharashtra 431006, India","icon":"https://assets.plugshare.com/icons/Y.png","icon_type":"Y","id":304059,"latitude":19.880472,"longitude":75.372491,"name":"Satish Motors Tata Power FC","stations":[{"id":706021,"outlets":[{"connector":13,"id":2131025,"kilowatts":null,"power":0,"status":null}]}],"url":"http://api.plugshare.com/view/location/304059"},{"access":1,"address":"Gaurav path, Ajmer Rd, Bhilwara, Rajasthan 311001, India","icon":"https://assets.plugshare.com/icons/Y.png","icon_type":"Y","id":339127,"latitude":25.382003,"longitude":74.62168,"name":"TML Yash Motors Wall Charger","stations":[{"id":860830,"outlets":[{"connector":13,"id":2388943,"kilowatts":null,"power":0,"status":null}]}],"url":"http://api.plugshare.com/view/location/339127"},{"access":1,"address":"National Highway 3, near to Mp Rto Checkpost, Deola, Madhya Pradesh 451449, India","icon":"https://assets.plugshare.com/icons/G.png","icon_type":"G","id":328166,"latitude":21.845008,"longitude":75.196268,"name":"Rajhans Hotel Wall Charger","stations":[{"id":770817,"outlets":[{"connector":9,"id":2260963,"kilowatts":null,"power":0,"status":null}]}],"url":"http://api.plugshare.com/view/location/328166"},{"access":1,"address":"L/49, Regional Transport Office Area, Junagad, Gujarat 362001, India","icon":"https://assets.plugshare.com/icons/Y.png","icon_type":"Y","id":355783,"latitude":21.528358,"longitude":70.458352,"name":"Click Hotel Junagad Tata Power FC","stations":[{"id":848223,"network_id":1012,"outlets":[{"connector":13,"id":2371455,"kilowatts":null,"power":0,"status":null}]}],"url":"http://api.plugshare.com/view/location/355783"},{"access":1,"address":"HQ8F+XJ3, Surendranagar, Gujarat 363421, India","icon":"https://assets.plugshare.com/icons/Y.png","icon_type":"Y","id":356432,"latitude":22.567381,"longitude":71.774198,"name":"Highway Food Mall Limbdi Charge-Zone FC","stations":[{"id":849631,"outlets":[{"connector":13,"id":2373210,"kilowatts":null,"power":0,"status":null},{"connector":13,"id":2373211,"kilowatts":null,"power":0,"status":null}]},{"id":849632,"outlets":[{"connector":7,"id":2373212,"kilowatts":null,"power":0,"status":null},{"connector":7,"id":2373213,"kilowatts":null,"power":0,"status":null}]}],"url":"http://api.plugshare.com/view/location/356432"},{"access":1,"address":"NH 48, Salvav, Vapi, Gujarat 396185, India","icon":"https://assets.plugshare.com/icons/G.png","icon_type":"G","id":303976,"latitude":20.41427,"longitude":72.917256,"name":"Ginger Hotel Wall Charger","stations":[{"id":705753,"outlets":[{"connector":9,"id":2130632,"kilowatts":null,"power":0,"status":null}]}],"url":"http://api.plugshare.com/view/location/303976"},{"access":1,"address":"Patne Market, Ranpise Nagar, opp. Surbhi Hotel, Ranpise Nagar, Akola, Maharashtra 444001, India","icon":"https://assets.plugshare.com/icons/G.png","icon_type":"G","id":328713,"latitude":20.707854,"longitude":77.016955,"name":"Hemant Nawkar Bolt Wall Charger","stations":[{"id":772123,"outlets":[{"connector":9,"id":2262756,"kilowatts":null,"power":0,"status":null}]}],"url":"http://api.plugshare.com/view/location/328713"},{"access":1,"address":"Rama mander road, Raje Sambhaji Nagar, Mirza Nagar, Buldana, Maharashtra 443001, India","icon":"https://assets.plugshare.com/icons/G.png","icon_type":"G","id":328712,"latitude":20.536019,"longitude":76.186203,"name":"Ayodhya Nagar Bolt Wall Charger","stations":[{"id":772122,"outlets":[{"connector":9,"id":2262755,"kilowatts":null,"power":0,"status":null}]}],"url":"http://api.plugshare.com/view/location/328712"},{"access":1,"address":"AH47, Yeshwantnagar, Madhya Pradesh 456770, India","icon":"https://assets.plugshare.com/icons/G.png","icon_type":"G","id":328694,"latitude":23.379605,"longitude":76.231103,"name":"Jyoti Pump Chargegrid Type 2","stations":[{"id":772097,"outlets":[{"connector":7,"id":2262723,"kilowatts":null,"power":0,"status":null}]}],"url":"http://api.plugshare.com/view/location/328694"},{"access":1,"address":"Parikarma Marg, Ganahera, Pushkar, Rajasthan 305022, India","icon":"https://assets.plugshare.com/icons/G.png","icon_type":"G","id":328194,"latitude":26.484025,"longitude":74.557464,"name":"Hotel Moti Mahal Slow Charger","stations":[{"id":770897,"outlets":[{"connector":9,"id":2261083,"kilowatts":null,"power":0,"status":null}]}],"url":"http://api.plugshare.com/view/location/328194"},{"access":1,"address":"Ankleshwar - Burhanpur Hwy, Narayan Nagar, Swami Vivekanand Nagar, Shahada, Maharashtra 425409, India","icon":"https://assets.plugshare.com/icons/G.png","icon_type":"G","id":307527,"latitude":21.535057,"longitude":74.473715,"name":"Raj Motors Bolt SC","stations":[{"id":714181,"outlets":[{"connector":9,"id":2147479,"kilowatts":null,"power":0,"status":null}]}],"url":"http://api.plugshare.com/view/location/307527"},{"access":1,"address":"Indore - Bhopal Rd, Guradiya Bada, Madhya Pradesh 466221, India","icon":"https://assets.plugshare.com/icons/Y.png","icon_type":"Y","id":353143,"latitude":22.996811,"longitude":76.554601,"name":"Sol Retreat","stations":[{"id":841268,"outlets":[{"connector":13,"id":2361803,"kilowatts":null,"power":0,"status":null}]}],"url":"http://api.plugshare.com/view/location/353143"},{"access":1,"address":"1728, Railway Colony, Churu, Rajasthan 331001, India","icon":"https://assets.plugshare.com/icons/G.png","icon_type":"G","id":359046,"latitude":28.294434,"longitude":74.960944,"name":"Soni E Mobility Bolt Wall Charger","stations":[{"id":856836,"outlets":[{"connector":9,"id":2383270,"kilowatts":null,"power":0,"status":null}]}],"url":"http://api.plugshare.com/view/location/359046"},{"access":1,"address":"Unnamed Road, Gujarat 393151, India","icon":"https://assets.plugshare.com/icons/Y.png","icon_type":"Y","id":325433,"latitude":21.885796,"longitude":73.688162,"name":"IOCL Pump Tata Power FC","stations":[{"id":762898,"outlets":[{"connector":13,"id":2250330,"kilowatts":null,"power":0,"status":null},{"connector":3,"id":2250329,"kilowatts":null,"power":0,"status":null}]}],"url":"http://api.plugshare.com/view/location/325433"},{"access":1,"address":"govind villa gaav dhawari","icon":"https://assets.plugshare.com/icons/G.png","icon_type":"G","id":322007,"latitude":23.92811,"longitude":73.828804,"name":"Govind Villa","stations":[{"id":753337,"outlets":[{"connector":2,"id":2237636,"kilowatts":null,"power":0,"status":"UNKNOWN"}]}],"url":"http://api.plugshare.com/view/location/322007"},{"access":1,"address":"Unnamed Road, Hodal Rural, Haryana 121106, India","icon":"https://assets.plugshare.com/icons/YR.png","icon_type":"YR","id":309295,"latitude":27.866024,"longitude":77.350991,"name":"Jaypee Infratech Chargegrid FC (Coming Soon)","stations":[{"id":718944,"outlets":[{"connector":13,"id":2157304,"kilowatts":null,"power":0,"status":null}]}],"url":"http://api.plugshare.com/view/location/309295"},{"access":1,"address":"Kasara Dumala Rd, Kasarwadi, Sangamner, Maharashtra 422605, India","icon":"https://assets.plugshare.com/icons/G.png","icon_type":"G","id":303955,"latitude":19.561169,"longitude":74.199436,"name":"Malpani Palace Wall Charger","stations":[{"id":705720,"outlets":[{"connector":9,"id":2130571,"kilowatts":null,"power":0,"status":null}]}],"url":"http://api.plugshare.com/view/location/303955"},{"access":1,"address":"Vagapara main road Opp : saty narayan apartment Morbi :, Sardar Nagar, Morbi, Gujarat 363641, India","icon":"https://assets.plugshare.com/icons/G.png","icon_type":"G","id":307863,"latitude":22.813812,"longitude":70.834755,"name":"Active E Bike Bolt SC","stations":[{"id":715060,"outlets":[{"connector":9,"id":2149090,"kilowatts":null,"power":0,"status":null}]}],"url":"http://api.plugshare.com/view/location/307863"},{"access":1,"address":"Agra Rd, Rajasthan 303303, India","icon":"https://assets.plugshare.com/icons/Y.png","icon_type":"Y","id":328699,"latitude":26.908065,"longitude":76.393814,"name":"Indian Oil Prakash Pump Chargegrid FC","stations":[{"id":772104,"outlets":[{"connector":13,"id":2262731,"kilowatts":null,"power":0,"status":null},{"connector":3,"id":2262730,"kilowatts":null,"power":0,"status":null}]},{"id":772103,"outlets":[{"connector":7,"id":2262729,"kilowatts":null,"power":0,"status":null}]}],"url":"http://api.plugshare.com/view/location/328699"},{"access":1,"address":"SHRI SHAKTI AUTO SHREEJI COMPLEX NEAR HOTEL NARMADA N.H.NO.48 PO ZADESHWAR BHARUCH-392011-GUJARAT-INDIA","icon":"https://assets.plugshare.com/icons/GR.png","icon_type":"GR","id":177168,"latitude":21.730483,"longitude":73.028721,"name":"BHARUCH/INDIA (Coming Soon)","stations":[{"id":363899,"outlets":[{"connector":14,"id":654617,"kilowatts":null,"power":0,"status":null}]}],"url":"http://api.plugshare.com/view/location/177168"},{"access":1,"address":"4HFP+VRX, Qila Kumbhalgarh, Rajasthan 313325, India","icon":"https://assets.plugshare.com/icons/G.png","icon_type":"G","id":348739,"latitude":25.126663,"longitude":73.587593,"name":"Club Mahindra Kumbalgarh","stations":[{"id":828631,"outlets":[{"connector":9,"id":2345484,"kilowatts":null,"power":0,"status":null}]}],"url":"http://api.plugshare.com/view/location/348739"},{"access":1,"address":"52G5+M6G, Sewala Jat, Panchkuian, Rakabganj, Agra, Uttar Pradesh 282001, India","icon":"https://assets.plugshare.com/icons/Y.png","icon_type":"Y","id":358311,"latitude":27.17667,"longitude":78.008074,"name":"agra","stations":[{"id":854623,"outlets":[{"connector":2,"id":2380017,"kilowatts":null,"power":0,"status":null},{"connector":7,"id":2380018,"kilowatts":null,"power":0,"status":null},{"connector":3,"id":2380019,"kilowatts":null,"power":0,"status":null}]},{"id":854624,"outlets":[{"connector":1,"id":2380020,"kilowatts":null,"power":0,"status":null}]}],"url":"http://api.plugshare.com/view/location/358311"},{"access":1,"address":"Veer sawrkar chok Bhopal gun, Pratap Nagar, Bhilwara, Rajasthan 311001, India","icon":"https://assets.plugshare.com/icons/Y.png","icon_type":"Y","id":360529,"latitude":25.340739,"longitude":74.631318,"name":"Yash motor tata charging","stations":[{"id":860829,"outlets":[{"connector":13,"id":2388942,"kilowatts":null,"power":0,"status":null}]}],"url":"http://api.plugshare.com/view/location/360529"},{"access":1,"address":"MDR2, Rajasthan 332318, India","icon":"https://assets.plugshare.com/icons/Y.png","icon_type":"Y","id":360069,"latitude":27.735985,"longitude":74.742631,"name":"RnB Shanti Niketan Salasar Tata Power FC","stations":[{"id":859520,"network_id":1012,"outlets":[{"connector":13,"id":2386988,"kilowatts":null,"power":0,"status":null}]}],"url":"http://api.plugshare.com/view/location/360069"},{"access":1,"address":"Papari Rd, Dohra, Rajasthan 301404, India","icon":"https://assets.plugshare.com/icons/G.png","icon_type":"G","id":339372,"latitude":27.712817,"longitude":76.7414,"name":"E-Fill AC Charger - Vyan Medical Hospital","stations":[{"id":800891,"outlets":[{"connector":7,"id":2300234,"kilowatts":null,"power":0,"status":null}]}],"url":"http://api.plugshare.com/view/location/339372"},{"access":1,"address":"New Galla Mandi, Sagar Rd, Uday Nagar Colony, Vidisha, Madhya Pradesh 464001, India","icon":"https://assets.plugshare.com/icons/G.png","icon_type":"G","id":350927,"latitude":23.535344,"longitude":77.838939,"name":"Hp Fuel Pump Pitalia Vidisha Chargegrid Type-2","stations":[{"id":835614,"outlets":[{"connector":7,"id":2354898,"kilowatts":null,"power":0,"status":null}]}],"url":"http://api.plugshare.com/view/location/350927"},{"access":1,"address":"GJ SH 25, Hirana, Gujarat 365435, India","icon":"https://assets.plugshare.com/icons/G.png","icon_type":"G","id":219806,"latitude":21.814372,"longitude":71.418168,"name":"Noori Petroleum","stations":[{"id":479338,"outlets":[{"connector":2,"id":1117994,"kilowatts":null,"power":0,"status":null}]},{"id":479337,"outlets":[{"connector":6,"id":1117989,"kilowatts":null,"power":0,"status":null}]}],"url":"http://api.plugshare.com/view/location/219806"},{"access":1,"address":"Darwha Rd, Gadhwale Twp, Karanja, Maharashtra 444105, India","icon":"https://assets.plugshare.com/icons/G.png","icon_type":"G","id":328714,"latitude":20.481006,"longitude":77.479553,"name":"Ashwin Auto Services Bolt Wall Charger","stations":[{"id":772124,"outlets":[{"connector":9,"id":2262759,"kilowatts":null,"power":0,"status":null}]}],"url":"http://api.plugshare.com/view/location/328714"},{"access":1,"address":"NH 48, Piplodi, Gujarat 383120, India","icon":"https://assets.plugshare.com/icons/G.png","icon_type":"G","id":339205,"latitude":23.574771,"longitude":72.957145,"name":"TML SP Cars Himatnagar Wall Charger","stations":[{"id":800498,"outlets":[{"connector":9,"id":2299699,"kilowatts":null,"power":0,"status":null}]}],"url":"http://api.plugshare.com/view/location/339205"},{"access":1,"address":"Rani Bagh Resort, N.H.8, By Pass Ajmer Road, Beawar, Rajasthan 305901","icon":"https://assets.plugshare.com/icons/Y.png","icon_type":"Y","id":358064,"latitude":26.124989,"longitude":74.345966,"name":"Statiq 50kW CCS Rani Bagh","stations":[{"id":854170,"outlets":[{"connector":13,"id":2379410,"kilowatts":null,"power":0,"status":null},{"connector":13,"id":2379411,"kilowatts":null,"power":0,"status":null}]}],"url":"http://api.plugshare.com/view/location/358064"},{"access":1,"address":"T Junction, Gujarat State Highway 36, Dist, Barwala, Gujarat 382450","icon":"https://assets.plugshare.com/icons/Y.png","icon_type":"Y","id":360733,"latitude":22.144597,"longitude":71.896624,"name":"Hotel Grand Arya","stations":[{"id":861442,"outlets":[{"connector":13,"id":2389877,"kilowatts":null,"power":0,"status":null},{"connector":3,"id":2389882,"kilowatts":null,"power":0,"status":null}]}],"url":"http://api.plugshare.com/view/location/360733"},{"access":1,"address":"NH160, Mokhavane, Maharashtra 421602, India","icon":"https://assets.plugshare.com/icons/YR.png","icon_type":"YR","id":355120,"latitude":19.62769,"longitude":73.448099,"name":"Hotel Vrindavan Kasara Charge+Zone 60KW (Coming Soon)","stations":[{"id":846155,"outlets":[{"connector":13,"id":2368816,"kilowatts":null,"power":0,"status":null},{"connector":13,"id":2368815,"kilowatts":null,"power":0,"status":null}]}],"url":"http://api.plugshare.com/view/location/355120"},{"access":1,"address":"Mantha Road , Jalna , Maharashtra ","icon":"https://assets.plugshare.com/icons/G.png","icon_type":"G","id":343009,"latitude":19.843815,"longitude":75.922004,"name":"Hotel Shreeji , Jalna , Maharashtra","stations":[{"id":811432,"outlets":[{"connector":9,"id":2313913,"kilowatts":null,"power":0,"status":null}]}],"url":"http://api.plugshare.com/view/location/343009"},{"access":1,"address":"G9VJ+M4Q Mehsana by Pass Circle, Mehsana, Gujarat 384435, India","icon":"https://assets.plugshare.com/icons/Y.png","icon_type":"Y","id":361157,"latitude":23.54344,"longitude":72.381339,"name":"Falcon Motors","stations":[{"id":862656,"network_id":1012,"outlets":[{"connector":13,"id":2391634,"kilowatts":null,"power":0,"status":null}]}],"url":"http://api.plugshare.com/view/location/361157"},{"access":1,"address":"NH927A, Jethana Rural, Rajasthan 314031, India","icon":"https://assets.plugshare.com/icons/G.png","icon_type":"G","id":329497,"latitude":23.648739,"longitude":74.053649,"name":"Hakimi Motors Wall Charger","stations":[{"id":774574,"outlets":[{"connector":9,"id":2265953,"kilowatts":null,"power":0,"status":null}]}],"url":"http://api.plugshare.com/view/location/329497"},{"access":1,"address":"Shell Askari 4, Rashid Minhas Rd. (in front of McDonalds), Gulistan e Johar, Karachi, Pakistan","icon":"https://assets.plugshare.com/icons/Y.png","icon_type":"Y","id":348068,"latitude":24.900367,"longitude":67.116774,"name":"Shell Recharge (Askari-4)","stations":[{"id":826820,"outlets":[{"connector":3,"id":2334317,"kilowatts":null,"power":0,"status":null},{"connector":13,"id":2334318,"kilowatts":null,"power":0,"status":null}]}],"url":"http://api.plugshare.com/view/location/348068"},{"access":1,"address":"Kallawas - Kaluwas Rd, Bahdoda, Rajasthan 303119, India","icon":"https://assets.plugshare.com/icons/Y.png","icon_type":"Y","id":357511,"latitude":27.491097,"longitude":76.053113,"name":"TML Roshan Motors Shahpura Tata Power FC","stations":[{"id":852527,"network_id":1012,"outlets":[{"connector":13,"id":2377127,"kilowatts":null,"power":0,"status":null}]}],"url":"http://api.plugshare.com/view/location/357511"},{"access":1,"address":"6V7X+44 Chapda Mal, Madhya Pradesh, India","icon":"https://assets.plugshare.com/icons/G.png","icon_type":"G","id":350929,"latitude":22.212856,"longitude":77.897829,"name":"HP Gupta Fuels Betul Chargegrid Type-2","stations":[{"id":835616,"outlets":[{"connector":7,"id":2354902,"kilowatts":null,"power":0,"status":null}]}],"url":"http://api.plugshare.com/view/location/350929"},{"access":1,"address":"MGRW+Q5G, Talegaon, Igatpuri, Maharashtra 422402, India","icon":"https://assets.plugshare.com/icons/G.png","icon_type":"G","id":352730,"latitude":19.69166,"longitude":73.545622,"name":"Rakabi Fern Hotel Igatpuri Wall Charger","stations":[{"id":840160,"outlets":[{"connector":9,"id":2360316,"kilowatts":null,"power":0,"status":null}]}],"url":"http://api.plugshare.com/view/location/352730"},{"access":1,"address":"M6JP+89G, Dudu, Rajasthan 303008, India","icon":"https://assets.plugshare.com/icons/G.png","icon_type":"G","id":357686,"latitude":26.680602,"longitude":75.235805,"name":"Vrindavan Dham Charging Station","stations":[{"id":853150,"outlets":[{"connector":7,"id":2377949,"kilowatts":null,"power":0,"status":null}]}],"url":"http://api.plugshare.com/view/location/357686"},{"access":1,"address":"HWVJ+F9 Tolamal, Rajasthan, India","icon":"https://assets.plugshare.com/icons/Y.png","icon_type":"Y","id":351481,"latitude":26.593633,"longitude":74.930882,"name":"Coming Soon - Xobolt FC","stations":[{"id":836913,"outlets":[{"connector":13,"id":2356518,"kilowatts":null,"power":0,"status":null}]}],"url":"http://api.plugshare.com/view/location/351481"},{"access":1,"address":"36QX+M75, Nashik, Maharashtra 422305, India","icon":"https://assets.plugshare.com/icons/G.png","icon_type":"G","id":352670,"latitude":20.088195,"longitude":74.249279,"name":"Shree Datta Petroleum HP E Charge","stations":[{"id":840035,"outlets":[{"connector":7,"id":2360134,"kilowatts":null,"power":0,"status":null},{"connector":24,"id":2360135,"kilowatts":null,"power":0,"status":null}]}],"url":"http://api.plugshare.com/view/location/352670"},{"access":1,"address":"Pawapuri Teerath Dham, Delhi Kandla Highway Post Krishnaganj, Rajasthan 307001, India","icon":"https://assets.plugshare.com/icons/G.png","icon_type":"G","id":348984,"latitude":24.749385,"longitude":72.708667,"name":"Shree Pawapuri Jain Thirth","stations":[{"id":829254,"outlets":[{"connector":9,"id":2346319,"kilowatts":null,"power":0,"status":null}]}],"url":"http://api.plugshare.com/view/location/348984"},{"access":1,"address":"Dataniwas Bus Station, NH 8, Khara Asan, Rajasthan 313333, India","icon":"https://assets.plugshare.com/icons/G.png","icon_type":"G","id":356249,"latitude":25.347813,"longitude":73.778317,"name":"Hotel Ashirwad","stations":[{"id":849201,"outlets":[{"connector":9,"id":2372694,"kilowatts":null,"power":0,"status":null}]}],"url":"http://api.plugshare.com/view/location/356249"},{"access":1,"address":"Sector 59, Faridabad, Hary\u0101na 121004, Inde","icon":"https://assets.plugshare.com/icons/G.png","icon_type":"G","id":144123,"latitude":28.307228,"longitude":77.303983,"name":"JBM Auto ltd.","stations":[{"id":274167,"outlets":[{"connector":9,"id":542532,"kilowatts":null,"power":0,"status":null}]}],"url":"http://api.plugshare.com/view/location/144123"},{"access":1,"address":"Hotel Kismat Kathiyawadi, NH 48, Mumbai Ahmedabad Highway, Near Vadalla, Bharuch, Gujarat","icon":"https://assets.plugshare.com/icons/Y.png","icon_type":"Y","id":337728,"latitude":21.750191,"longitude":73.019633,"name":"Hotel Kismat Kathiyawadi","score":9.0,"stations":[{"id":796678,"outlets":[{"connector":3,"id":2294694,"kilowatts":null,"power":0,"status":null},{"connector":13,"id":2294695,"kilowatts":null,"power":0,"status":null}]}],"url":"http://api.plugshare.com/view/location/337728"},{"access":1,"address":"NH 48, Gujarat 391240, India","icon":"https://assets.plugshare.com/icons/Y.png","icon_type":"Y","id":337130,"latitude":22.023883,"longitude":73.117433,"name":"Honest  Restaurant Charge Zone FC","score":9.0,"stations":[{"id":795098,"outlets":[{"connector":13,"id":2292621,"kilowatts":null,"power":0,"status":null},{"connector":13,"id":2292622,"kilowatts":null,"power":0,"status":null}]}],"url":"http://api.plugshare.com/view/location/337130"},{"access":1,"address":"Sun Temple, Modhera, Mahesana","icon":"https://assets.plugshare.com/icons/GR.png","icon_type":"GR","id":348471,"latitude":23.583462,"longitude":72.135155,"name":"Modhera (Coming Soon)","stations":[{"id":827995,"outlets":[{"connector":7,"id":2344507,"kilowatts":null,"power":0,"status":null}]}],"url":"http://api.plugshare.com/view/location/348471"},{"access":1,"address":"Unnamed Road, Maharashtra 423701, India","icon":"https://assets.plugshare.com/icons/G.png","icon_type":"G","id":328688,"latitude":19.801546,"longitude":74.881573,"name":"Bhau Enterprises Chargegrid Type 2","stations":[{"id":772088,"outlets":[{"connector":7,"id":2262711,"kilowatts":null,"power":0,"status":null}]}],"url":"http://api.plugshare.com/view/location/328688"},{"access":1,"address":"NH-8 Ajmer Road Bagru kalan, Keria Ka Bas, Rajasthan 303007, India","icon":"https://assets.plugshare.com/icons/YR.png","icon_type":"YR","id":314417,"latitude":26.815857,"longitude":75.509088,"name":"IOCL AR Traders Tata Power FC (Coming Soon)","stations":[{"id":732988,"outlets":[{"connector":3,"id":2204835,"kilowatts":null,"power":0,"status":null},{"connector":13,"id":2204836,"kilowatts":null,"power":0,"status":null}]}],"url":"http://api.plugshare.com/view/location/314417"},{"access":1,"address":"NH248, Syari, Rajasthan 303002, India","icon":"https://assets.plugshare.com/icons/Y.png","icon_type":"Y","id":337746,"latitude":27.158946,"longitude":75.960348,"name":"Yaksh The Art People Tata Power FC","stations":[{"id":796730,"outlets":[{"connector":3,"id":2294762,"kilowatts":null,"power":0,"status":null},{"connector":13,"id":2294763,"kilowatts":null,"power":0,"status":null}]},{"id":796731,"outlets":[{"connector":7,"id":2294764,"kilowatts":null,"power":0,"status":null}]},{"id":830165,"outlets":[{"connector":13,"id":2347706,"kilowatts":null,"power":0,"status":null}]}],"url":"http://api.plugshare.com/view/location/337746"},{"access":1,"address":"WHJ9+WJR, Bhuwali, Rajasthan 314011, India","icon":"https://assets.plugshare.com/icons/G.png","icon_type":"G","id":350313,"latitude":23.93101,"longitude":73.568299,"name":"Coming Soon - Neel Gagan Punjabi Dhaba Xobolt FC","stations":[{"id":833453,"outlets":[{"connector":9,"id":2356174,"kilowatts":null,"power":0,"status":null}]}],"url":"http://api.plugshare.com/view/location/350313"},{"access":1,"address":"Navsari Exit, GIDC Kabilpore, Navsari, Gujarat 396445, India","icon":"https://assets.plugshare.com/icons/Y.png","icon_type":"Y","id":337072,"latitude":20.944351,"longitude":72.963018,"name":"Hotel Fun City","score":10.0,"stations":[{"id":794992,"outlets":[{"connector":13,"id":2292483,"kilowatts":null,"power":0,"status":null},{"connector":13,"id":2292484,"kilowatts":null,"power":0,"status":null}]}],"url":"http://api.plugshare.com/view/location/337072"},{"access":1,"address":"22RW+H27, Barwani, Madhya Pradesh 451556, India","icon":"https://assets.plugshare.com/icons/G.png","icon_type":"G","id":350922,"latitude":22.041473,"longitude":75.04553,"name":"HPCL Anjad Chargegrid Type-2","stations":[{"id":835609,"outlets":[{"connector":7,"id":2354893,"kilowatts":null,"power":0,"status":null}]}],"url":"http://api.plugshare.com/view/location/350922"},{"access":1,"address":"Dolmen City, HC-3, Marine Promenade, Block 4 Clifton, Karachi, Pakistan","icon":"https://assets.plugshare.com/icons/G.png","icon_type":"G","id":114162,"latitude":24.802669,"longitude":67.030514,"name":"Dolmen Mall Clifton Parking","stations":[{"id":196086,"outlets":[{"connector":7,"id":427725,"kilowatts":null,"power":0,"status":null}]}],"url":"http://api.plugshare.com/view/location/114162"},{"access":1,"address":"hathikhana,Newr sbi atm,barumal road,dharmpur","icon":"https://assets.plugshare.com/icons/G.png","icon_type":"G","id":352132,"latitude":20.533058,"longitude":73.178886,"name":"Viren Home Charging Station","stations":[{"id":838686,"outlets":[{"connector":9,"id":2358509,"kilowatts":null,"power":0,"status":null}]}],"url":"http://api.plugshare.com/view/location/352132"},{"access":1,"address":"XQWX+XPH, Shiv Aradhna, Kuha, Gujarat 382433, India","icon":"https://assets.plugshare.com/icons/Y.png","icon_type":"Y","id":341273,"latitude":22.997434,"longitude":72.799368,"name":"IOCL Jay Petrol Pump Tata Power FC","stations":[{"id":806813,"outlets":[{"connector":13,"id":2307748,"kilowatts":null,"power":0,"status":null}]}],"url":"http://api.plugshare.com/view/location/341273"},{"access":1,"address":"MWM5+GW7, Haloli, Maharashtra 401404, India","icon":"https://assets.plugshare.com/icons/G.png","icon_type":"G","id":347661,"latitude":19.685009,"longitude":72.90873,"name":"Shree Saikrupa Dhabha Bolt Wall Charger","stations":[{"id":825811,"outlets":[{"connector":9,"id":2332959,"kilowatts":null,"power":0,"status":null}]}],"url":"http://api.plugshare.com/view/location/347661"},{"access":1,"address":"Q499+38 Sannod, Madhya Pradesh, India","icon":"https://assets.plugshare.com/icons/G.png","icon_type":"G","id":350926,"latitude":22.767673,"longitude":76.118333,"name":"Vijay Lakshmi Fuel Pump Chargegrid Type-2","stations":[{"id":835613,"outlets":[{"connector":7,"id":2354897,"kilowatts":null,"power":0,"status":null}]}],"url":"http://api.plugshare.com/view/location/350926"},{"access":1,"address":"FP6P+45 Tinchha, Madhya Pradesh, India","icon":"https://assets.plugshare.com/icons/G.png","icon_type":"G","id":350924,"latitude":22.460316,"longitude":75.735465,"name":"Balaji Petrol Pump Chargegrid Type-2","stations":[{"id":835611,"outlets":[{"connector":7,"id":2354895,"kilowatts":null,"power":0,"status":null}]}],"url":"http://api.plugshare.com/view/location/350924"},{"access":1,"address":"Sendhwa, Madhya Pradesh 451666, India","icon":"https://assets.plugshare.com/icons/G.png","icon_type":"G","id":359117,"latitude":21.671767,"longitude":75.084684,"name":"Shree Garden & Resorts","stations":[{"id":857014,"outlets":[{"connector":9,"id":2383481,"kilowatts":null,"power":0,"status":null}]}],"url":"http://api.plugshare.com/view/location/359117"},{"access":1,"address":"Borawakenagar Rd, Shrirampur, Maharashtra 413709, India","icon":"https://assets.plugshare.com/icons/G.png","icon_type":"G","id":307524,"latitude":19.620816,"longitude":74.674803,"name":"Famous Cafe","stations":[{"id":714178,"outlets":[{"connector":9,"id":2147472,"kilowatts":null,"power":0,"status":null}]}],"url":"http://api.plugshare.com/view/location/307524"},{"access":1,"address":"Loni-Shrirampur Rd, Loni Kh., Maharashtra 413713, India","icon":"https://assets.plugshare.com/icons/G.png","icon_type":"G","id":307525,"latitude":19.591985,"longitude":74.485164,"name":"Jai Mata Di Auto Bolt SC","stations":[{"id":714179,"outlets":[{"connector":9,"id":2147477,"kilowatts":null,"power":0,"status":null}]}],"url":"http://api.plugshare.com/view/location/307525"},{"access":1,"address":"R3RM+6G, Kedarpur, Maharashtra, India","icon":"https://assets.plugshare.com/icons/G.png","icon_type":"G","id":350643,"latitude":19.840823,"longitude":74.083932,"name":"Sameer Avhad","stations":[{"id":834634,"network_id":1,"outlets":[{"connector":9,"id":2353633,"kilowatts":null,"power":0,"status":null}]}],"url":"http://api.plugshare.com/view/location/350643"},{"access":1,"address":"Maharashtra State Highway 17, Maharashtra 422202, India","icon":"https://assets.plugshare.com/icons/Y.png","icon_type":"Y","id":348437,"latitude":20.169345,"longitude":73.825561,"name":"Vrundavan Garden Statiq FC","stations":[{"id":827896,"outlets":[{"connector":13,"id":2344369,"kilowatts":null,"power":0,"status":null},{"connector":13,"id":2350763,"kilowatts":null,"power":0,"status":null}]}],"url":"http://api.plugshare.com/view/location/348437"},{"access":1,"address":"Golden Quadrilateral, Chaubara, Rajasthan 301706, India","icon":"https://assets.plugshare.com/icons/Y.png","icon_type":"Y","id":348580,"latitude":28.008824,"longitude":76.463957,"name":"Tata Power FC","stations":[{"id":828251,"outlets":[{"connector":13,"id":2344960,"kilowatts":null,"power":0,"status":null}]}],"url":"http://api.plugshare.com/view/location/348580"},{"access":1,"address":"Rui Shiv Rd, Shirdi, Maharashtra 423109, India","icon":"https://assets.plugshare.com/icons/G.png","icon_type":"G","id":311278,"latitude":19.772366,"longitude":74.480588,"name":"St Laurn Resort Shirdi Wall Charger","stations":[{"id":724458,"outlets":[{"connector":9,"id":2173531,"kilowatts":null,"power":0,"status":null}]}],"url":"http://api.plugshare.com/view/location/311278"},{"access":1,"address":"D104, Sonanagar, Valsad, Gujarat 396001, India","icon":"https://assets.plugshare.com/icons/G.png","icon_type":"G","id":310694,"latitude":20.589273,"longitude":72.934564,"name":"Dev E Motors Bolt SC","stations":[{"id":723050,"outlets":[{"connector":9,"id":2169327,"kilowatts":null,"power":0,"status":null}]}],"url":"http://api.plugshare.com/view/location/310694"},{"access":1,"address":"NH-8 Service Rd, Kukrola, Haryana 122051, India","icon":"https://assets.plugshare.com/icons/Y.png","icon_type":"Y","id":309552,"latitude":28.323439,"longitude":76.901226,"name":"Bikanerwala Kukrola Tata Power FC","stations":[{"id":719567,"outlets":[{"connector":3,"id":2158878,"kilowatts":null,"power":0,"status":null},{"connector":13,"id":2158879,"kilowatts":null,"power":0,"status":null}]}],"url":"http://api.plugshare.com/view/location/309552"},{"access":1,"address":"Nagar Rd, Waluj, Aurangabad, Maharashtra 431136, India","icon":"https://assets.plugshare.com/icons/YR.png","icon_type":"YR","id":317203,"latitude":19.817853,"longitude":75.240849,"name":"Land Rover Satish Motors Tata Power FC (Coming Soon)","stations":[{"id":740137,"outlets":[{"connector":3,"id":2220160,"kilowatts":null,"power":0,"status":null},{"connector":13,"id":2220161,"kilowatts":null,"power":0,"status":null}]}],"url":"http://api.plugshare.com/view/location/317203"},{"access":1,"address":"8X23+H9J, Amboli, Gujarat 394150, India","icon":"https://assets.plugshare.com/icons/Y.png","icon_type":"Y","id":342114,"latitude":21.301278,"longitude":72.953389,"name":"Hotel Swagat Inn","stations":[{"id":809148,"outlets":[{"connector":13,"id":2310849,"kilowatts":null,"power":0,"status":null}]}],"url":"http://api.plugshare.com/view/location/342114"},{"access":1,"address":"F3PP+3G Nimgaon Kh., Maharashtra, India","icon":"https://assets.plugshare.com/icons/G.png","icon_type":"G","id":359035,"latitude":19.485245,"longitude":74.086282,"name":"Bolt Wall Charger","stations":[{"id":856825,"outlets":[{"connector":9,"id":2383258,"kilowatts":null,"power":0,"status":null}]}],"url":"http://api.plugshare.com/view/location/359035"},{"access":1,"address":"NH 48, Gujarat 382321, India","icon":"https://assets.plugshare.com/icons/Y.png","icon_type":"Y","id":357123,"latitude":23.281302,"longitude":72.75968,"name":"Hpcl Bapa Sitaram Dhanap","stations":[{"id":851641,"network_id":1012,"outlets":[{"connector":13,"id":2375912,"kilowatts":null,"power":0,"status":null}]}],"url":"http://api.plugshare.com/view/location/357123"},{"access":1,"address":"Golden Galaxy Resorts, NH 19, Faridabad, Haryana 121004, India","icon":"https://assets.plugshare.com/icons/Y.png","icon_type":"Y","id":333856,"latitude":28.287788,"longitude":77.295724,"name":"AARGO(50KW) Golden Galaxy Resorts","score":9.0,"stations":[{"id":786402,"outlets":[{"connector":13,"id":2281501,"kilowatts":50.0,"power":0,"status":null},{"connector":7,"id":2312954,"kilowatts":22.0,"power":0,"status":null},{"connector":3,"id":2312952,"kilowatts":50.0,"power":0,"status":null}]},{"id":786404,"outlets":[{"connector":13,"id":2281503,"kilowatts":50.0,"power":0,"status":null},{"connector":3,"id":2312949,"kilowatts":50.0,"power":0,"status":null}]}],"url":"http://api.plugshare.com/view/location/333856"},{"access":1,"address":"\u0938\u093f\u0939\u094b\u0930 \u0928\u093e\u0915\u093e (A) | Sehore Naka (A, Bairagarh, Bhopal, Madhya Pradesh 462030, India","icon":"https://assets.plugshare.com/icons/Y.png","icon_type":"Y","id":337618,"latitude":23.269539,"longitude":77.327345,"name":"Bairagarh Visarjan Ghat Exicom FC","stations":[{"id":796386,"outlets":[{"connector":13,"id":2294289,"kilowatts":null,"power":0,"status":null}]},{"id":796387,"outlets":[{"connector":1,"id":2294290,"kilowatts":null,"power":0,"status":null}]}],"url":"http://api.plugshare.com/view/location/337618"},{"access":1,"address":"RPXH+R4G, RICO Industrial Area, Dungarpur, Rajasthan 314001, India","icon":"https://assets.plugshare.com/icons/G.png","icon_type":"G","id":359042,"latitude":23.84933,"longitude":73.728203,"name":"The Way Automobile Bolt Wall Charger","stations":[{"id":856832,"outlets":[{"connector":9,"id":2383266,"kilowatts":null,"power":0,"status":null}]}],"url":"http://api.plugshare.com/view/location/359042"},{"access":1,"address":"E-36, Block E, Industrial Area, Surajpur Site 4, Greater Noida, Uttar Pradesh 201310, India","icon":"https://assets.plugshare.com/icons/Y.png","icon_type":"Y","id":309554,"latitude":28.457882,"longitude":77.523238,"name":"TML Sagar Motors Tata Power FC","stations":[{"id":719570,"outlets":[{"connector":3,"id":2158886,"kilowatts":null,"power":0,"status":null},{"connector":13,"id":2158887,"kilowatts":null,"power":0,"status":null}]}],"url":"http://api.plugshare.com/view/location/309554"},{"access":1,"address":"NH 48, Achchhad, Maharashtra 401606, India","icon":"https://assets.plugshare.com/icons/Y.png","icon_type":"Y","id":337073,"latitude":20.221033,"longitude":72.881452,"name":"Hotel Sahyadri Talasari Charge Zone FC","score":10.0,"stations":[{"id":794993,"outlets":[{"connector":13,"id":2292485,"kilowatts":null,"power":0,"status":null},{"connector":13,"id":2292486,"kilowatts":null,"power":0,"status":null}]}],"url":"http://api.plugshare.com/view/location/337073"},{"access":1,"address":"Ellora Heritage Resort Rd, Maharashtra 431102, India","icon":"https://assets.plugshare.com/icons/G.png","icon_type":"G","id":336775,"latitude":20.02067,"longitude":75.169485,"name":"Ellora Heritage Resort","stations":[{"id":794299,"outlets":[{"connector":9,"id":2291645,"kilowatts":null,"power":0,"status":null}]}],"url":"http://api.plugshare.com/view/location/336775"},{"access":1,"address":"1, Sitapura Industrial Area, Sitapura, Jaipur, Rajasthan 302022, India","icon":"https://assets.plugshare.com/icons/Y.png","icon_type":"Y","id":304682,"latitude":26.777536,"longitude":75.839379,"name":"TML First Mobital Tata Power FC","stations":[{"id":707389,"outlets":[{"connector":13,"id":2134111,"kilowatts":null,"power":0,"status":null}]}],"url":"http://api.plugshare.com/view/location/304682"},{"access":1,"address":"Auarangabad Nagpur highway ,Karmad ,","icon":"https://assets.plugshare.com/icons/G.png","icon_type":"G","id":338534,"latitude":19.866484,"longitude":75.519707,"name":"Monika Garden Restaurant","stations":[{"id":798763,"outlets":[{"connector":9,"id":2297515,"kilowatts":null,"power":0,"status":null}]}],"url":"http://api.plugshare.com/view/location/338534"},{"access":1,"address":"16-4/3, Sector 19, Faridabad, Haryana 121002, India","icon":"https://assets.plugshare.com/icons/Y.png","icon_type":"Y","id":334416,"latitude":28.418737,"longitude":77.311075,"name":"TML Multitech Motors Tata Power FC","stations":[{"id":787756,"outlets":[{"connector":3,"id":2283277,"kilowatts":null,"power":0,"status":null},{"connector":13,"id":2283278,"kilowatts":null,"power":0,"status":null}]}],"url":"http://api.plugshare.com/view/location/334416"},{"access":1,"address":"NH60, Maharashtra 422102, India","icon":"https://assets.plugshare.com/icons/G.png","icon_type":"G","id":347421,"latitude":19.905731,"longitude":73.913032,"name":"Nashik Stud Farm","stations":[{"id":825094,"outlets":[{"connector":9,"id":2331991,"kilowatts":null,"power":0,"status":null}]}],"url":"http://api.plugshare.com/view/location/347421"},{"access":1,"address":"Aurangabad, Puna, Jikthan, Maharashtra 431133, India","icon":"https://assets.plugshare.com/icons/G.png","icon_type":"G","id":331504,"latitude":19.75375,"longitude":75.151118,"name":"Hotel Shrushti Tata Power Type-2 AC","stations":[{"id":780081,"outlets":[{"connector":7,"id":2273257,"kilowatts":null,"power":0,"status":null}]}],"url":"http://api.plugshare.com/view/location/331504"},{"access":1,"address":"Nahargarh Biological Park, Delhi - Jaipur Expy, Kunda, Sisiyawas, Rajasthan 302028, India","icon":"https://assets.plugshare.com/icons/Y.png","icon_type":"Y","id":338851,"latitude":27.01262,"longitude":75.877456,"name":"Zero cafe Xobolt 30 kW DC Charging Station","stations":[{"id":799604,"outlets":[{"connector":13,"id":2298563,"kilowatts":null,"power":0,"status":null}]}],"url":"http://api.plugshare.com/view/location/338851"},{"access":1,"address":"111, Surat - Navsari Rd, Kanakpur, Sachin, Surat, Gujarat 394230, India","icon":"https://assets.plugshare.com/icons/G.png","icon_type":"G","id":317386,"latitude":21.077647,"longitude":72.885839,"name":"ND Electric  Vehicle Bolt SC","stations":[{"id":740625,"outlets":[{"connector":9,"id":2220854,"kilowatts":null,"power":0,"status":null}]}],"url":"http://api.plugshare.com/view/location/317386"},{"access":1,"address":"2-7-JM, Awadh Park Rd, Santoshi Nagar Slum, Rajkot, Gujarat 360006, India","icon":"https://assets.plugshare.com/icons/G.png","icon_type":"G","id":307864,"latitude":22.330293,"longitude":70.786056,"name":"Powerpace Technology Bolt SC","stations":[{"id":715061,"outlets":[{"connector":9,"id":2149091,"kilowatts":null,"power":0,"status":null}]}],"url":"http://api.plugshare.com/view/location/307864"},{"access":1,"address":"RRCX+QX4, Gram Baroli, Madhya Pradesh 453555, India","icon":"https://assets.plugshare.com/icons/G.png","icon_type":"G","id":350925,"latitude":22.821922,"longitude":75.849969,"name":"Sagar Fuel Pump Chargegrid Type-2","stations":[{"id":835612,"outlets":[{"connector":7,"id":2354896,"kilowatts":null,"power":0,"status":null}]}],"url":"http://api.plugshare.com/view/location/350925"},{"access":1,"address":"W66M+Q5C, Pradnyapuri, Maharashtra 431002, India","icon":"https://assets.plugshare.com/icons/Y.png","icon_type":"Y","id":334407,"latitude":19.912005,"longitude":75.232959,"name":"TML Satish Motors Tata Power FC","stations":[{"id":787744,"outlets":[{"connector":3,"id":2283261,"kilowatts":null,"power":0,"status":null},{"connector":13,"id":2283262,"kilowatts":null,"power":0,"status":null}]}],"url":"http://api.plugshare.com/view/location/334407"},{"access":1,"address":"Emerald Heights, Madhya Pradesh 452012, India","icon":"https://assets.plugshare.com/icons/Y.png","icon_type":"Y","id":339356,"latitude":22.651706,"longitude":75.821112,"name":"TML Shyam Automotives AB Road Tata Power FC","stations":[{"id":800859,"outlets":[{"connector":3,"id":2300193,"kilowatts":null,"power":0,"status":null},{"connector":13,"id":2300194,"kilowatts":null,"power":0,"status":null}]}],"url":"http://api.plugshare.com/view/location/339356"},{"access":1,"address":"WGFV+XC7, Kamod, Gujarat 382427, India","icon":"https://assets.plugshare.com/icons/Y.png","icon_type":"Y","id":337479,"latitude":22.924794,"longitude":72.543489,"name":"IOCL Om Petroleum Tata Power FC","score":8.0,"stations":[{"id":795975,"outlets":[{"connector":3,"id":2293722,"kilowatts":null,"power":0,"status":null},{"connector":13,"id":2293723,"kilowatts":null,"power":0,"status":null}]}],"url":"http://api.plugshare.com/view/location/337479"},{"access":1,"address":"6, Govind Marg, Saket Colony, Adarsh Nagar, Jaipur, Rajasthan 302004, India","icon":"https://assets.plugshare.com/icons/Y.png","icon_type":"Y","id":308003,"latitude":26.901431,"longitude":75.835443,"name":"TML Roshan Motors Tata Power FC","stations":[{"id":715332,"outlets":[{"connector":13,"id":2149750,"kilowatts":null,"power":0,"status":null}]}],"url":"http://api.plugshare.com/view/location/308003"},{"access":1,"address":"H 25 avenue, Evershine Globle City, Dongarpada, Rustomjee Global City, Opposite Rustomjee International School, Virar West, Virar, Maharashtra 401303, India","icon":"https://assets.plugshare.com/icons/G.png","icon_type":"G","id":303971,"latitude":19.474483,"longitude":72.807781,"name":"Speedway Automobile","score":9.0,"stations":[{"id":705748,"outlets":[{"connector":9,"id":2130676,"kilowatts":null,"power":0,"status":null}]}],"url":"http://api.plugshare.com/view/location/303971"},{"access":1,"address":"Urmin Products Private Limited, 48, Changodar Industrial Estate, Sarkhej-Bavla Rd, Changodar, Gujarat 382213, India","icon":"https://assets.plugshare.com/icons/G.png","icon_type":"G","id":307860,"latitude":22.928095,"longitude":72.452014,"name":"ECO Fuel System Bolt SC","stations":[{"id":715057,"outlets":[{"connector":9,"id":2149087,"kilowatts":null,"power":0,"status":null}]}],"url":"http://api.plugshare.com/view/location/307860"},{"access":1,"address":"plot no 3, khsra no. 117/1 sahuo ki dhani, Phase 1st, Sangriya, Jodhpur, Rajasthan 342013, India","icon":"https://assets.plugshare.com/icons/G.png","icon_type":"G","id":359043,"latitude":26.201503,"longitude":73.004944,"name":"Khatri Brother Bolt Wall Charger","stations":[{"id":856833,"outlets":[{"connector":9,"id":2383267,"kilowatts":null,"power":0,"status":null}]}],"url":"http://api.plugshare.com/view/location/359043"},{"access":1,"address":"246, Vaishali Rd, Saket Colony, Shantipura, Ajmer, Rajasthan 305004, India","icon":"https://assets.plugshare.com/icons/Y.png","icon_type":"Y","id":357714,"latitude":26.487833,"longitude":74.62913,"name":"Bravia Hotel Vaishali Nagar Tata Power FC","stations":[{"id":853209,"network_id":1012,"outlets":[{"connector":13,"id":2378025,"kilowatts":null,"power":0,"status":null}]}],"url":"http://api.plugshare.com/view/location/357714"},{"access":1,"address":"30/1, Bawadiya Kalan Rd, Raghunath Nagar, Rohit Nagar, Shirdipuram, Gulmohar Colony, Bhopal, Madhya Pradesh 462016, India","icon":"https://assets.plugshare.com/icons/Y.png","icon_type":"Y","id":316058,"latitude":23.182489,"longitude":77.432792,"name":"IOCL Pump Tata Power FC","stations":[{"id":737059,"outlets":[{"connector":13,"id":2216099,"kilowatts":null,"power":0,"status":null}]}],"url":"http://api.plugshare.com/view/location/316058"},{"access":1,"address":"395009, Jahangir Pura, Rander, Surat, Gujarat 395005, India","icon":"https://assets.plugshare.com/icons/G.png","icon_type":"G","id":307865,"latitude":21.235034,"longitude":72.789701,"name":"Shree EV Bolt SC","stations":[{"id":715062,"outlets":[{"connector":9,"id":2149092,"kilowatts":null,"power":0,"status":null}]}],"url":"http://api.plugshare.com/view/location/307865"},{"access":1,"address":"Dahanu - Jawhar Rd, Patel Pada, Dahanu, Maharashtra 401602, India","icon":"https://assets.plugshare.com/icons/G.png","icon_type":"G","id":306876,"latitude":19.987884,"longitude":72.748958,"name":"MV Petrol","stations":[{"id":712447,"outlets":[{"connector":9,"id":2143940,"kilowatts":null,"power":0,"status":null}]}],"url":"http://api.plugshare.com/view/location/306876"},{"access":1,"address":"RCM8+4RH, Mathura, Uttar Pradesh 281403, India","icon":"https://assets.plugshare.com/icons/Y.png","icon_type":"Y","id":345876,"latitude":27.832367,"longitude":77.418789,"name":"AARGO(24KW) Asli Pappu Dhaba","score":9.0,"stations":[{"id":821212,"outlets":[{"connector":13,"id":2326326,"kilowatts":null,"power":0,"status":null}]}],"url":"http://api.plugshare.com/view/location/345876"},{"access":1,"address":"umaid palace resort","icon":"https://assets.plugshare.com/icons/Y.png","icon_type":"Y","id":359415,"latitude":26.913014,"longitude":76.466885,"name":"Umaid Palace","stations":[{"id":857739,"outlets":[{"connector":13,"id":2384426,"kilowatts":null,"power":0,"status":null}]},{"id":857740,"outlets":[{"connector":7,"id":2384427,"kilowatts":null,"power":0,"status":null}]},{"id":857741,"outlets":[{"connector":7,"id":2384428,"kilowatts":null,"power":0,"status":null}]}],"url":"http://api.plugshare.com/view/location/359415"},{"access":1,"address":"NH47, Changodar, Gujarat 382210, India","icon":"https://assets.plugshare.com/icons/Y.png","icon_type":"Y","id":339809,"latitude":22.938034,"longitude":72.45573,"name":"IOCL Changodar Pump Tata Power FC","stations":[{"id":802023,"outlets":[{"connector":3,"id":2301846,"kilowatts":null,"power":0,"status":null},{"connector":13,"id":2301847,"kilowatts":null,"power":0,"status":null}]}],"url":"http://api.plugshare.com/view/location/339809"},{"access":1,"address":"New Express Highway, Amravati- Badnera Road, Opp. Ram Meghe College of engineering, Badnera, Amravati, Maharashtra 444701, India","icon":"https://assets.plugshare.com/icons/G.png","icon_type":"G","id":305141,"latitude":20.857434,"longitude":77.748385,"name":"Jadhav Home Slow Charger","stations":[{"id":708439,"outlets":[{"connector":9,"id":2136211,"kilowatts":null,"power":0,"status":null}]}],"url":"http://api.plugshare.com/view/location/305141"},{"access":1,"address":"Trambakeshwar Rd, Belgaon Dhaga, Nashik, Maharashtra 422007, India","icon":"https://assets.plugshare.com/icons/Y.png","icon_type":"Y","id":304720,"latitude":19.971846,"longitude":73.681268,"name":"Hotel Sanskruti","score":9.0,"stations":[{"id":707455,"outlets":[{"connector":3,"id":2134272,"kilowatts":25.0,"power":0,"status":null},{"connector":13,"id":2134273,"kilowatts":25.0,"power":0,"status":null}]}],"url":"http://api.plugshare.com/view/location/304720"},{"access":1,"address":"2, Gaurav Path, Adajan Gam, Adajan, Surat, Gujarat 394510, India","icon":"https://assets.plugshare.com/icons/Y.png","icon_type":"Y","id":304679,"latitude":21.15992,"longitude":72.770375,"name":"TML Shreeji Motors Tata Power FC","stations":[{"id":707385,"outlets":[{"connector":3,"id":2134104,"kilowatts":null,"power":0,"status":null},{"connector":13,"id":2134105,"kilowatts":null,"power":0,"status":null}]}],"url":"http://api.plugshare.com/view/location/304679"},{"access":1,"address":"19, Sector 15, Faridabad, Haryana 121007, India","icon":"https://assets.plugshare.com/icons/G.png","icon_type":"G","id":328395,"latitude":28.395612,"longitude":77.322513,"name":"Charge City - Faridabad Sec-15 Community Center","stations":[{"id":771480,"outlets":[{"connector":7,"id":2261897,"kilowatts":null,"power":0,"status":null}]}],"url":"http://api.plugshare.com/view/location/328395"},{"access":1,"address":"Near Morabhagal BRTS Stop, Surat Olpad Road, Morabhagal, Surat-395005","icon":"https://assets.plugshare.com/icons/YR.png","icon_type":"YR","id":339849,"latitude":21.220777,"longitude":72.790461,"name":"Coming Soon - HP e-Charge (Mora Bhagal) (Coming Soon)","stations":[{"id":802120,"outlets":[{"connector":13,"id":2301968,"kilowatts":null,"power":0,"status":null},{"connector":13,"id":2301967,"kilowatts":null,"power":0,"status":null}]}],"url":"http://api.plugshare.com/view/location/339849"},{"access":1,"address":"J-21, GIDC Umbergaon, Umargam, Gujarat 396171, India","icon":"https://assets.plugshare.com/icons/G.png","icon_type":"G","id":359030,"latitude":20.168438,"longitude":72.768351,"name":"Bhavya Greentech Bolt Wall Charger","stations":[{"id":856820,"outlets":[{"connector":9,"id":2383252,"kilowatts":null,"power":0,"status":null}]}],"url":"http://api.plugshare.com/view/location/359030"},{"access":1,"address":"30, 2nd floor, Bhagat Colony,Sushan Circle, GIDC Makarpura Industrial Area, Makarpura, Vadodara, Gujarat 390010, India","icon":"https://assets.plugshare.com/icons/G.png","icon_type":"G","id":69474,"latitude":22.258397,"longitude":73.197617,"name":"Gridscape Solutions","stations":[{"id":480742,"outlets":[{"connector":2,"id":1128757,"kilowatts":null,"power":0,"status":null}]},{"id":98217,"outlets":[{"connector":2,"id":476839,"kilowatts":null,"power":0,"status":null}]}],"url":"http://api.plugshare.com/view/location/69474"},{"access":1,"address":"B-6, Vishwakarma Industrial Area, Jaipur, Rajasthan 302013, India","icon":"https://assets.plugshare.com/icons/Y.png","icon_type":"Y","id":304684,"latitude":26.972175,"longitude":75.777071,"name":"TML Shree Shyam Motors Tata Power FC","stations":[{"id":707391,"outlets":[{"connector":13,"id":2134113,"kilowatts":null,"power":0,"status":null}]}],"url":"http://api.plugshare.com/view/location/304684"},{"access":1,"address":"310, Queens Rd, Nemi Sagar Colony, D - Block, Vaishali Nagar, Jaipur, Rajasthan 302021, India","icon":"https://assets.plugshare.com/icons/Y.png","icon_type":"Y","id":304683,"latitude":26.914443,"longitude":75.753409,"name":"TML Akar Fourwheels","stations":[{"id":707390,"outlets":[{"connector":13,"id":2134112,"kilowatts":null,"power":0,"status":null}]}],"url":"http://api.plugshare.com/view/location/304683"},{"access":1,"address":"S-303, Sapphire, Comfort height, New Jail Rd, Comfort Green Phase 2, Sanjeev Nagar, Navri, Bhopal, Madhya Pradesh 462038, India","icon":"https://assets.plugshare.com/icons/G.png","icon_type":"G","id":345492,"latitude":23.298113,"longitude":77.377247,"name":"Captain's","stations":[{"id":820253,"outlets":[{"connector":7,"id":2325022,"kilowatts":null,"power":0,"status":null}]}],"url":"http://api.plugshare.com/view/location/345492"},{"access":1,"address":"Galaxy Rd, Part II, Sector 15 Part 2, Sector 15, Gurugram, Haryana 122007, India","icon":"https://assets.plugshare.com/icons/G.png","icon_type":"G","id":309869,"latitude":28.467621,"longitude":77.042717,"name":"Kalyani Hospital","stations":[{"id":720550,"network_id":46,"outlets":[{"connector":14,"id":2161047,"kilowatts":null,"power":0,"status":null}]}],"url":"http://api.plugshare.com/view/location/309869"},{"access":1,"address":"Pannalal Nagar, Maharashtra State Highway 30, Samadhan Colony, Konkanwadi, Aurangabad, Maharashtra 431005, India","icon":"https://assets.plugshare.com/icons/Y.png","icon_type":"Y","id":304672,"latitude":19.873011,"longitude":75.318196,"name":"MG Motors Tata Power FC","stations":[{"id":707374,"outlets":[{"connector":3,"id":2256345,"kilowatts":null,"power":0,"status":null},{"connector":13,"id":2256346,"kilowatts":null,"power":0,"status":null}]}],"url":"http://api.plugshare.com/view/location/304672"},{"access":1,"address":"Bharuch - Dahej Rd, Gujarat 392130, India","icon":"https://assets.plugshare.com/icons/Y.png","icon_type":"Y","id":356427,"latitude":21.716146,"longitude":72.656572,"name":"Hotel Suba Grand Dahej Tata Power FC","stations":[{"id":849569,"network_id":1012,"outlets":[{"connector":13,"id":2373148,"kilowatts":null,"power":0,"status":null}]}],"url":"http://api.plugshare.com/view/location/356427"},{"access":1,"address":"Unnamed Road 122101, Sector 80, Gurugram, Haryana 122051, India","icon":"https://assets.plugshare.com/icons/G.png","icon_type":"G","id":350062,"latitude":28.363863,"longitude":76.959522,"name":"Karma Lakelands Statiq Type-2","stations":[{"id":832616,"outlets":[{"connector":7,"id":2350860,"kilowatts":null,"power":0,"status":null}]}],"url":"http://api.plugshare.com/view/location/350062"},{"access":1,"address":"NH 48, Diwan Mohalla, Behror, Rajasthan 301701, India","icon":"https://assets.plugshare.com/icons/Y.png","icon_type":"Y","id":319388,"latitude":27.874074,"longitude":76.275957,"name":"Hotel Highway Xpress Statiq 50KW DC","score":10.0,"stations":[{"id":746090,"outlets":[{"connector":13,"id":2228141,"kilowatts":50.0,"power":0,"status":"UNKNOWN"},{"connector":13,"id":2292740,"kilowatts":50.0,"power":0,"status":null}]}],"url":"http://api.plugshare.com/view/location/319388"},{"access":1,"address":"6, Ashoka Cinema Rd, Thakkre Baba Conlony, Bapu Bazar, Shakti Nagar, Udaipur, Rajasthan 313001, India","icon":"https://assets.plugshare.com/icons/Y.png","icon_type":"Y","id":310508,"latitude":24.581035,"longitude":73.696733,"name":"TML Chambal Motocorp Tata Power FC","stations":[{"id":722571,"outlets":[{"connector":3,"id":2167591,"kilowatts":null,"power":0,"status":null},{"connector":13,"id":2167592,"kilowatts":null,"power":0,"status":null}]}],"url":"http://api.plugshare.com/view/location/310508"},{"access":1,"address":"GQ8V+3VV, Shastri Nagar, Vidisha, Madhya Pradesh 464001, India","icon":"https://assets.plugshare.com/icons/G.png","icon_type":"G","id":350928,"latitude":23.515295,"longitude":77.794643,"name":"MSHSD Datta Fuel Pump Chargegrid Type-2","stations":[{"id":835615,"outlets":[{"connector":7,"id":2354901,"kilowatts":null,"power":0,"status":null}]}],"url":"http://api.plugshare.com/view/location/350928"},{"access":1,"address":"Rudra residency vadodara","icon":"https://assets.plugshare.com/icons/Y.png","icon_type":"Y","id":330551,"latitude":22.289398,"longitude":73.159623,"name":"vadodara","stations":[{"id":777304,"outlets":[{"connector":3,"id":2269502,"kilowatts":null,"power":0,"status":null}]}],"url":"http://api.plugshare.com/view/location/330551"},{"access":1,"address":"Darbaripur Rd, Sector 70, Hasanpur, Haryana 122101, India","icon":"https://assets.plugshare.com/icons/G.png","icon_type":"G","id":334259,"latitude":28.38624,"longitude":77.006336,"name":"IOCL Statiq AC Type-2","stations":[{"id":787360,"outlets":[{"connector":7,"id":2282740,"kilowatts":null,"power":0,"status":null}]}],"url":"http://api.plugshare.com/view/location/334259"},{"access":1,"address":"HJG7+9M3, Jait, Uttar Pradesh 281406, India","icon":"https://assets.plugshare.com/icons/G.png","icon_type":"G","id":346299,"latitude":27.575234,"longitude":77.614382,"name":"AARGO29_04 Krishna Valley Vrindavan","stations":[{"id":822378,"outlets":[{"connector":7,"id":2328013,"kilowatts":null,"power":0,"status":null}]}],"url":"http://api.plugshare.com/view/location/346299"},{"access":1,"address":"Choithram Mandi, Mangal Nagar, Indore, Madhya Pradesh 452014, India","icon":"https://assets.plugshare.com/icons/Y.png","icon_type":"Y","id":341583,"latitude":22.685056,"longitude":75.855631,"name":"IOCL Pump Tata Power FC","stations":[{"id":807661,"outlets":[{"connector":3,"id":2308862,"kilowatts":null,"power":0,"status":null},{"connector":13,"id":2308863,"kilowatts":null,"power":0,"status":null}]}],"url":"http://api.plugshare.com/view/location/341583"},{"access":1,"address":"Unnamed Road, Kondhale, Maharashtra 421312, India","icon":"https://assets.plugshare.com/icons/G.png","icon_type":"G","id":360025,"latitude":19.526288,"longitude":73.139202,"name":"Kondhale, Tal Wada,","stations":[{"id":859447,"outlets":[{"connector":9,"id":2386895,"kilowatts":null,"power":0,"status":null}]}],"url":"http://api.plugshare.com/view/location/360025"},{"access":1,"address":"Ambad, MIDC Ambad, Nashik, Maharashtra 422010, India","icon":"https://assets.plugshare.com/icons/Y.png","icon_type":"Y","id":328612,"latitude":19.950417,"longitude":73.748787,"name":"MG JITENDER Wheels Tata Power FC","score":9.0,"stations":[{"id":771951,"outlets":[{"connector":3,"id":2262538,"kilowatts":null,"power":0,"status":null},{"connector":13,"id":2262539,"kilowatts":null,"power":0,"status":null}]}],"url":"http://api.plugshare.com/view/location/328612"},{"access":1,"address":"F242+QH Gurugram, Haryana, India","icon":"https://assets.plugshare.com/icons/G.png","icon_type":"G","id":350037,"latitude":28.456978,"longitude":77.001386,"name":"IOCL Statiq Type-2","stations":[{"id":832552,"outlets":[{"connector":7,"id":2350781,"kilowatts":null,"power":0,"status":null}]},{"id":832553,"outlets":[{"connector":9,"id":2350782,"kilowatts":null,"power":0,"status":null}]}],"url":"http://api.plugshare.com/view/location/350037"},{"access":1,"address":"Tent City 1, Statue of Unity, Kevadia, Gujarat","icon":"https://assets.plugshare.com/icons/Y.png","icon_type":"Y","id":345712,"latitude":21.880349,"longitude":73.727323,"name":"MobiLane DC FC (80kW)","stations":[{"id":820796,"outlets":[{"connector":13,"id":2325739,"kilowatts":null,"power":0,"status":null},{"connector":13,"id":2325740,"kilowatts":null,"power":0,"status":null}]}],"url":"http://api.plugshare.com/view/location/345712"},{"access":1,"address":"11, Aurangabad - Phulambri - Sillod Rd, Hudco, Yadav Nagar, N 11, Cidco, Aurangabad, Maharashtra 431003, India","icon":"https://assets.plugshare.com/icons/Y.png","icon_type":"Y","id":357427,"latitude":19.911735,"longitude":75.348437,"name":"Click Hotel Cidco Tata Power FC","stations":[{"id":852311,"network_id":1012,"outlets":[{"connector":13,"id":2376785,"kilowatts":null,"power":0,"status":null}]}],"url":"http://api.plugshare.com/view/location/357427"},{"access":1,"address":"Marutinandan Complex, K.K Nagar Cross Road, Sardar Vallabhbhai Patel Rd, Sector 4, Madhuvrund Society, Nirnay Nagar, Ahmedabad, Gujarat 380061, India","icon":"https://assets.plugshare.com/icons/GR.png","icon_type":"GR","id":203451,"latitude":23.072188,"longitude":72.551399,"name":"Marutinandan Complex (Coming Soon)","stations":[{"id":432505,"outlets":[{"connector":6,"id":761372,"kilowatts":null,"power":0,"status":null}]}],"url":"http://api.plugshare.com/view/location/203451"},{"access":1,"address":"Old Agra Rd, Matoshree Nagar, Nashik, Maharashtra 422011, India","icon":"https://assets.plugshare.com/icons/Y.png","icon_type":"Y","id":304725,"latitude":19.993005,"longitude":73.78292,"name":"TML Sterling Motors Tata Power FC","stations":[{"id":768086,"outlets":[{"connector":7,"id":2257395,"kilowatts":null,"power":0,"status":null}]},{"id":707468,"outlets":[{"connector":3,"id":2134288,"kilowatts":null,"power":0,"status":null},{"connector":13,"id":2134289,"kilowatts":null,"power":0,"status":null}]}],"url":"http://api.plugshare.com/view/location/304725"},{"access":1,"address":"Satpur, Trambakeshwar Rd, MIDC, Satpur Colony, Nashik, Maharashtra 422007, India","icon":"https://assets.plugshare.com/icons/Y.png","icon_type":"Y","id":304723,"latitude":19.991498,"longitude":73.744094,"name":"Ginger Hotel","score":9.0,"stations":[{"id":707464,"outlets":[{"connector":3,"id":2134283,"kilowatts":null,"power":0,"status":null},{"connector":13,"id":2134284,"kilowatts":null,"power":0,"status":null}]},{"id":766299,"outlets":[{"connector":7,"id":2254946,"kilowatts":null,"power":0,"status":null}]}],"url":"http://api.plugshare.com/view/location/304723"},{"access":1,"address":"HOTEL THE BLACKSTONE, A-20 Ganesh Nagar 200ft Rd, Muhana Mandi Rd Mansarovar Jaipur","icon":"https://assets.plugshare.com/icons/G.png","icon_type":"G","id":339386,"latitude":26.8357,"longitude":75.75594,"name":"Hotel The Blackstone EV charger","stations":[{"id":800909,"outlets":[{"connector":1,"id":2300258,"kilowatts":null,"power":0,"status":null}]},{"id":800910,"outlets":[{"connector":7,"id":2300259,"kilowatts":null,"power":0,"status":null}]}],"url":"http://api.plugshare.com/view/location/339386"},{"access":1,"address":"84, Veer Teja Colony Mahamandir, Dadhich Nagar, Mahadev Nagar, Jodhpur, Rajasthan 342001, India","icon":"https://assets.plugshare.com/icons/G.png","icon_type":"G","id":359045,"latitude":26.310867,"longitude":73.051937,"name":"Teja Colony Bolt Wall Charger","stations":[{"id":856835,"outlets":[{"connector":9,"id":2383269,"kilowatts":null,"power":0,"status":null}]}],"url":"http://api.plugshare.com/view/location/359045"},{"access":1,"address":"8-N - 12 , CIDCO, Rauza Bagh, Rauza Baug, N 2, Cidco, Aurangabad, Maharashtra 431003, India","icon":"https://assets.plugshare.com/icons/G.png","icon_type":"G","id":306807,"latitude":19.907603,"longitude":75.346464,"name":"Vivanta Hotel Wall Charger","stations":[{"id":712247,"outlets":[{"connector":9,"id":2143578,"kilowatts":null,"power":0,"status":null}]}],"url":"http://api.plugshare.com/view/location/306807"},{"access":1,"address":"88, Mumbai - Agra National Hwy, next to Hotel Gateway, MIDC Ambad, Nashik, Maharashtra 422010, India","icon":"https://assets.plugshare.com/icons/G.png","icon_type":"G","id":304666,"latitude":19.955315,"longitude":73.753886,"name":"MG Motors AC FC","stations":[{"id":707367,"outlets":[{"connector":7,"id":2134073,"kilowatts":null,"power":0,"status":null}]}],"url":"http://api.plugshare.com/view/location/304666"},{"access":1,"address":"Gopalpur, Jaipur, 302015, Rajasthan, India","icon":"https://assets.plugshare.com/icons/G.png","icon_type":"G","id":213948,"latitude":26.875861,"longitude":75.787271,"name":"chik","stations":[{"id":460573,"outlets":[{"connector":2,"id":971588,"kilowatts":null,"power":0,"status":null},{"connector":1,"id":971589,"kilowatts":null,"power":0,"status":null}]},{"id":460574,"outlets":[{"connector":1,"id":971590,"kilowatts":null,"power":0,"status":null}]}],"url":"http://api.plugshare.com/view/location/213948"},{"access":1,"address":"A-2, Tilak Marg, C Scheme, Ashok Nagar, Jaipur, Rajasthan 302005, India","icon":"https://assets.plugshare.com/icons/YR.png","icon_type":"YR","id":313365,"latitude":26.902283,"longitude":75.799059,"name":"Udyog Bhavan Chargegrid FC (Coming Soon)","stations":[{"id":730295,"outlets":[{"connector":3,"id":2194763,"kilowatts":null,"power":0,"status":null},{"connector":13,"id":2194764,"kilowatts":null,"power":0,"status":null}]},{"id":730296,"outlets":[{"connector":7,"id":2194765,"kilowatts":null,"power":0,"status":null}]}],"url":"http://api.plugshare.com/view/location/313365"},{"access":1,"address":"5, Laxmi Society Ln, Mithakhali, Ahmedabad, Gujarat 380006, India","icon":"https://assets.plugshare.com/icons/Y.png","icon_type":"Y","id":306811,"latitude":23.029365,"longitude":72.561464,"name":"Westside Tata Power FC","stations":[{"id":712261,"outlets":[{"connector":3,"id":2143594,"kilowatts":null,"power":0,"status":null},{"connector":13,"id":2143595,"kilowatts":null,"power":0,"status":null}]}],"url":"http://api.plugshare.com/view/location/306811"},{"access":1,"address":"Hazira Rd, Kavas, Limla, Gujarat 394510, India","icon":"https://assets.plugshare.com/icons/Y.png","icon_type":"Y","id":341468,"latitude":21.16784,"longitude":72.73598,"name":"MG showroom Fortum Charge And Drive","stations":[{"id":807398,"outlets":[{"connector":13,"id":2308543,"kilowatts":null,"power":0,"status":null}]}],"url":"http://api.plugshare.com/view/location/341468"},{"access":1,"address":"SG highway ","icon":"https://assets.plugshare.com/icons/Y.png","icon_type":"Y","id":303539,"latitude":22.996648,"longitude":72.498259,"name":"MG Dealership Fortum FC","stations":[{"id":704680,"outlets":[{"connector":3,"id":2128689,"kilowatts":null,"power":0,"status":null},{"connector":13,"id":2128690,"kilowatts":null,"power":0,"status":null}]}],"url":"http://api.plugshare.com/view/location/303539"},{"access":1,"address":"NH160, Sakori, Maharashtra 423107, India","icon":"https://assets.plugshare.com/icons/G.png","icon_type":"G","id":337055,"latitude":19.738412,"longitude":74.477031,"name":"TML Kopargaon Wall Charger","stations":[{"id":794970,"outlets":[{"connector":9,"id":2292457,"kilowatts":null,"power":0,"status":null}]}],"url":"http://api.plugshare.com/view/location/337055"},{"access":1,"address":"60, Pani Tanki Rd, Ambalal Park, Opposite H.P. Petrol Pump, Jay Santoshi Nagar 2, Karelibagh, Vadodara, Gujarat 390002, India","icon":"https://assets.plugshare.com/icons/Y.png","icon_type":"Y","id":269921,"latitude":22.320606,"longitude":73.204035,"name":"HP COMCO","stations":[{"id":594949,"outlets":[{"connector":3,"id":2303901,"kilowatts":null,"power":0,"status":null},{"connector":3,"id":2303902,"kilowatts":null,"power":0,"status":null}]}],"url":"http://api.plugshare.com/view/location/269921"},{"access":1,"address":"Galaxy Apartment, Sector 15 Part 2, Sector 15, Gurugram, Haryana 122001, India","icon":"https://assets.plugshare.com/icons/Y.png","icon_type":"Y","id":316742,"latitude":28.462268,"longitude":77.048537,"name":"MG Gurgaon Sector 15 Fortum FC","stations":[{"id":739115,"outlets":[{"connector":3,"id":2218798,"kilowatts":null,"power":0,"status":null},{"connector":13,"id":2218799,"kilowatts":null,"power":0,"status":null}]}],"url":"http://api.plugshare.com/view/location/316742"},{"access":1,"address":"A17, Rupsagar, Udaipur, Rajasthan 313001, India","icon":"https://assets.plugshare.com/icons/G.png","icon_type":"G","id":339125,"latitude":24.604032,"longitude":73.720794,"name":"Kyoto Resort Udaipur Wall Charger","stations":[{"id":800336,"outlets":[{"connector":9,"id":2299490,"kilowatts":null,"power":0,"status":null}]}],"url":"http://api.plugshare.com/view/location/339125"},{"access":1,"address":"106, Daman Rd, Above ICICI Bank, Chala, Vapi, Gujarat 396191, India","icon":"https://assets.plugshare.com/icons/G.png","icon_type":"G","id":307472,"latitude":20.385191,"longitude":72.901439,"name":"Jodhpur Sweets ElectroEco Bolt SC","stations":[{"id":714007,"outlets":[{"connector":9,"id":2147099,"kilowatts":null,"power":0,"status":null}]}],"url":"http://api.plugshare.com/view/location/307472"},{"access":1,"address":"12, Gota, Ahmedabad, Gujarat 382481, India","icon":"https://assets.plugshare.com/icons/G.png","icon_type":"G","id":307859,"latitude":23.098832,"longitude":72.532242,"name":"OM EV Shop No 3 Bolt SC","stations":[{"id":715056,"outlets":[{"connector":9,"id":2149086,"kilowatts":null,"power":0,"status":null}]}],"url":"http://api.plugshare.com/view/location/307859"},{"access":1,"address":"410 Vithal peth old jalgaon ","icon":"https://assets.plugshare.com/icons/G.png","icon_type":"G","id":337084,"latitude":21.006815,"longitude":75.572023,"name":"Tejas Bhavsar","stations":[{"id":795009,"network_id":1,"outlets":[{"connector":10,"id":2292512,"kilowatts":null,"power":0,"status":null}]}],"url":"http://api.plugshare.com/view/location/337084"},{"access":1,"address":"531, Sohna Rd, Islampur Village, Sector 33, Gurugram, Haryana 122005, India","icon":"https://assets.plugshare.com/icons/G.png","icon_type":"G","id":350036,"latitude":28.433584,"longitude":77.034919,"name":"JMD Garden Statiq Type-2","stations":[{"id":832550,"outlets":[{"connector":7,"id":2350779,"kilowatts":null,"power":0,"status":null}]},{"id":832551,"outlets":[{"connector":9,"id":2350780,"kilowatts":null,"power":0,"status":null}]}],"url":"http://api.plugshare.com/view/location/350036"},{"access":1,"address":"near MIT college . beed bypass","icon":"https://assets.plugshare.com/icons/G.png","icon_type":"G","id":336132,"latitude":19.849829,"longitude":75.364497,"name":"metro gym","stations":[{"id":792655,"outlets":[{"connector":1,"id":2289385,"kilowatts":null,"power":0,"status":null}]},{"id":792654,"outlets":[{"connector":9,"id":2289384,"kilowatts":null,"power":0,"status":null}]}],"url":"http://api.plugshare.com/view/location/336132"},{"access":1,"address":"3, Tonk Rd, Chaudhary Charan Singh Park, Pratap Nagar, Jaipur, Rajasthan 302018, India","icon":"https://assets.plugshare.com/icons/Y.png","icon_type":"Y","id":332398,"latitude":26.8332,"longitude":75.794318,"name":"MG GPS Automobiles Tata Power FC","stations":[{"id":782506,"outlets":[{"connector":3,"id":2276363,"kilowatts":null,"power":0,"status":null},{"connector":13,"id":2276364,"kilowatts":null,"power":0,"status":null}]}],"url":"http://api.plugshare.com/view/location/332398"},{"access":1,"address":"City Square, Tonk Rd, Kirti Nagar, Vasundhara Colony, Gopal Pura Mode, Jaipur, Rajasthan 302018, India","icon":"https://assets.plugshare.com/icons/Y.png","icon_type":"Y","id":332292,"latitude":26.864811,"longitude":75.795923,"name":"Hotel Four Points by Sheraton Tata Power FC","stations":[{"id":782508,"outlets":[{"connector":7,"id":2276369,"kilowatts":null,"power":0,"status":null}]},{"id":782249,"network_id":1,"outlets":[{"connector":13,"id":2276051,"kilowatts":null,"power":0,"status":null}]},{"id":782250,"network_id":1,"outlets":[{"connector":3,"id":2276052,"kilowatts":null,"power":0,"status":null}]}],"url":"http://api.plugshare.com/view/location/332292"},{"access":1,"address":"Near Dev Kutir Bunglows, Opp. Bopal BRTS Bus Stop,, Iscon - Bopal Road, Ambli,, Ambli, Ahmedabad, Gujarat 380058, India","icon":"https://assets.plugshare.com/icons/Y.png","icon_type":"Y","id":304696,"latitude":23.025542,"longitude":72.479916,"name":"Renault Karnavati West","stations":[{"id":707411,"outlets":[{"connector":3,"id":2134162,"kilowatts":null,"power":0,"status":null},{"connector":13,"id":2134163,"kilowatts":null,"power":0,"status":null}]}],"url":"http://api.plugshare.com/view/location/304696"},{"access":1,"address":"Unnamed Road, Binola, Haryana 122414, India","icon":"https://assets.plugshare.com/icons/G.png","icon_type":"G","id":337207,"latitude":28.310516,"longitude":76.872927,"name":"Private - OVN Test Charger Tata Power AC Type-2","stations":[{"id":795239,"outlets":[{"connector":7,"id":2292798,"kilowatts":null,"power":0,"status":null}]}],"url":"http://api.plugshare.com/view/location/337207"},{"access":1,"address":"Opp Divya Bhaskar Press,S.G.Highway, Ahmedabad Ahmedabad","icon":"https://assets.plugshare.com/icons/G.png","icon_type":"G","id":59648,"latitude":23.001112,"longitude":72.499487,"name":"Shital Motors","stations":[{"id":82457,"outlets":[{"connector":2,"id":181236,"kilowatts":null,"power":0,"status":null}]}],"url":"http://api.plugshare.com/view/location/59648"},{"access":1,"address":"735, Jalna Road, MIDC Industrial Area, Chilkalthana, Aurangabad, Maharashtra 431001, India","icon":"https://assets.plugshare.com/icons/G.png","icon_type":"G","id":326594,"latitude":19.868856,"longitude":75.399531,"name":"IOCL Pump Tata Power Type 2","stations":[{"id":766305,"outlets":[{"connector":7,"id":2254953,"kilowatts":null,"power":0,"status":null}]}],"url":"http://api.plugshare.com/view/location/326594"},{"access":1,"address":"Shop no 1, gail tower, Anand Mahal Rd, Adajan, Surat, Gujarat 395009, India","icon":"https://assets.plugshare.com/icons/G.png","icon_type":"G","id":307866,"latitude":21.206564,"longitude":72.793737,"name":"Hindustan E Motocorp Bolt SC","stations":[{"id":715063,"outlets":[{"connector":9,"id":2149093,"kilowatts":null,"power":0,"status":null}]}],"url":"http://api.plugshare.com/view/location/307866"},{"access":1,"address":"plot no 18, Ajalkar Nagar, Dhule, Maharashtra 424001, India","icon":"https://assets.plugshare.com/icons/G.png","icon_type":"G","id":327395,"latitude":20.888824,"longitude":74.753599,"name":"Mahindra First Choice","stations":[{"id":768706,"outlets":[{"connector":9,"id":2258273,"kilowatts":null,"power":0,"status":null}]}],"url":"http://api.plugshare.com/view/location/327395"},{"access":1,"address":"29, Sahakar Nagar, Snehlataganj, Indore, Madhya Pradesh 452003, India","icon":"https://assets.plugshare.com/icons/Y.png","icon_type":"Y","id":326229,"latitude":22.729022,"longitude":75.863533,"name":"IOCL Pump Tata Power FC","stations":[{"id":765385,"outlets":[{"connector":3,"id":2253805,"kilowatts":null,"power":0,"status":null},{"connector":13,"id":2253806,"kilowatts":null,"power":0,"status":null}]}],"url":"http://api.plugshare.com/view/location/326229"},{"access":1,"address":"Ashram Road, Satyawadi Society, Usman Pura, Satyawadi Society, Usmanpura, Ahmedabad, Gujarat 380013, India","icon":"https://assets.plugshare.com/icons/Y.png","icon_type":"Y","id":339808,"latitude":23.052211,"longitude":72.571102,"name":"Fairfield By Marriott Ahmedabad Tata Power FC","stations":[{"id":802021,"outlets":[{"connector":3,"id":2301843,"kilowatts":null,"power":0,"status":null},{"connector":13,"id":2301844,"kilowatts":null,"power":0,"status":null}]},{"id":802022,"outlets":[{"connector":7,"id":2301845,"kilowatts":null,"power":0,"status":null}]}],"url":"http://api.plugshare.com/view/location/339808"},{"access":1,"address":"M 902, Indraprasth Tower, Drive In Rd, Nilmani Society, Thaltej, Ahmedabad, Gujarat 380052, India","icon":"https://assets.plugshare.com/icons/Y.png","icon_type":"Y","id":304698,"latitude":23.047373,"longitude":72.530673,"name":"Hotel Ginger Tata Power FC","stations":[{"id":707413,"outlets":[{"connector":3,"id":2134166,"kilowatts":null,"power":0,"status":null},{"connector":13,"id":2134167,"kilowatts":null,"power":0,"status":null}]}],"url":"http://api.plugshare.com/view/location/304698"},{"access":1,"address":"Sarvam Complex, Aurobindo Ghosh Rd, Roshan Nagar, Ram Wadi, Vadodara, Gujarat 390024, India","icon":"https://assets.plugshare.com/icons/Y.png","icon_type":"Y","id":326228,"latitude":22.335771,"longitude":73.173815,"name":"TML SP Motors","stations":[{"id":765384,"outlets":[{"connector":3,"id":2253803,"kilowatts":null,"power":0,"status":null},{"connector":13,"id":2253804,"kilowatts":null,"power":0,"status":null}]}],"url":"http://api.plugshare.com/view/location/326228"},{"access":1,"address":"I.O.C. Petrol Pump, Subhanpura, Vadodara, Gujarat 390023, India","icon":"https://assets.plugshare.com/icons/Y.png","icon_type":"Y","id":340249,"latitude":22.321399,"longitude":73.154993,"name":"IOCL Pump","stations":[{"id":803159,"outlets":[{"connector":3,"id":2303395,"kilowatts":null,"power":0,"status":null},{"connector":13,"id":2303396,"kilowatts":null,"power":0,"status":null}]}],"url":"http://api.plugshare.com/view/location/340249"},{"access":1,"address":"V8VH+HMJ, Himayat Bagh, Aurangabad, Maharashtra 431004, India","icon":"https://assets.plugshare.com/icons/Y.png","icon_type":"Y","id":359182,"latitude":19.894125,"longitude":75.328649,"name":"AURANGABAD SMART CITY DEVELOPMENT CORPORATIONS","stations":[{"id":857127,"outlets":[{"connector":13,"id":2383627,"kilowatts":null,"power":0,"status":null}]}],"url":"http://api.plugshare.com/view/location/359182"},{"access":1,"address":"Sarkhej - Gandhinagar Hwy, Patel Society, Bhaikakanagar, Thaltej, Ahmedabad, Gujarat 380058, India","icon":"https://assets.plugshare.com/icons/G.png","icon_type":"G","id":142580,"latitude":23.050751,"longitude":72.518611,"name":"Thaltej","stations":[{"id":269448,"outlets":[{"connector":2,"id":536730,"kilowatts":null,"power":0,"status":null}]},{"id":269447,"outlets":[{"connector":2,"id":536729,"kilowatts":null,"power":0,"status":null}]}],"url":"http://api.plugshare.com/view/location/142580"},{"access":1,"address":"43, DLF Galleria Rd, DLF Phase IV, Sector 28, Gurugram, Haryana 122009, India","icon":"https://assets.plugshare.com/icons/Y.png","icon_type":"Y","id":313482,"latitude":28.467616,"longitude":77.081708,"name":"Galleria Statiq FC Charger","score":9.0,"stations":[{"id":730543,"outlets":[{"connector":13,"id":2195571,"kilowatts":null,"power":0,"status":null}]}],"url":"http://api.plugshare.com/view/location/313482"},{"access":1,"address":"RIICO Jaipur","icon":"https://assets.plugshare.com/icons/G.png","icon_type":"G","id":347986,"latitude":27.030712,"longitude":75.89048,"name":"Hotel Fairmont Jaipur","stations":[{"id":826492,"outlets":[{"connector":7,"id":2333870,"kilowatts":null,"power":0,"status":null}]},{"id":826493,"outlets":[{"connector":7,"id":2333871,"kilowatts":null,"power":0,"status":null}]}],"url":"http://api.plugshare.com/view/location/347986"},{"access":1,"address":"Patidar Colony, Burhanpur, SH-27, Station Road, Burhanpur, patidar colony, Burhanpur, Madhya Pradesh 450331, India","icon":"https://assets.plugshare.com/icons/G.png","icon_type":"G","id":359050,"latitude":21.31543,"longitude":76.228291,"name":"Sahaj Bolt Wall Charger","stations":[{"id":856841,"outlets":[{"connector":9,"id":2383276,"kilowatts":null,"power":0,"status":null}]}],"url":"http://api.plugshare.com/view/location/359050"},{"access":1,"address":"1st Floor, Unit No. 11/1 & 11/2,City Mall, Near Rajpath Club, Sarkhej - Gandhinagar Road, Bodakdev, Bodakdev, Ahmedabad, Gujarat 380054, India","icon":"https://assets.plugshare.com/icons/Y.png","icon_type":"Y","id":304697,"latitude":23.035263,"longitude":72.509576,"name":"TML Riya Autolink","stations":[{"id":707412,"outlets":[{"connector":3,"id":2134164,"kilowatts":null,"power":0,"status":null},{"connector":13,"id":2134165,"kilowatts":null,"power":0,"status":null}]}],"url":"http://api.plugshare.com/view/location/304697"},{"access":1,"address":"Ambli Road, Thaltej Road Hebatpur, Village, Thaltej, Ahmedabad, Gujarat 380058, India","icon":"https://assets.plugshare.com/icons/Y.png","icon_type":"Y","id":352585,"latitude":23.05333,"longitude":72.493884,"name":"Ambli Road Railway Station","stations":[{"id":839714,"outlets":[{"connector":13,"id":2359706,"kilowatts":null,"power":0,"status":null}]}],"url":"http://api.plugshare.com/view/location/352585"},{"access":1,"address":"Dhule - Malegaon Rd, Dhule, Maharashtra 424001, India","icon":"https://assets.plugshare.com/icons/G.png","icon_type":"G","id":335892,"latitude":20.892677,"longitude":74.773699,"name":"Hotel Ganpati Palace","stations":[{"id":792028,"outlets":[{"connector":9,"id":2288564,"kilowatts":null,"power":0,"status":null}]}],"url":"http://api.plugshare.com/view/location/335892"},{"access":1,"address":"64, Satyam, Vishwas City 1, Sola, Ahmedabad, Gujarat 380081, India","icon":"https://assets.plugshare.com/icons/G.png","icon_type":"G","id":352512,"latitude":23.079129,"longitude":72.526785,"name":"satyam 64 emergency use","stations":[{"id":839568,"outlets":[{"connector":9,"id":2359520,"kilowatts":null,"power":0,"status":null}]}],"url":"http://api.plugshare.com/view/location/352512"},{"access":1,"address":"XQ68+W44, Chetana nagar, Rane Nagar, Nashik, Maharashtra 422010, India","icon":"https://assets.plugshare.com/icons/Y.png","icon_type":"Y","id":356122,"latitude":19.962341,"longitude":73.765217,"name":"Click Hotel Tata Power FC","stations":[{"id":848984,"outlets":[{"connector":13,"id":2372408,"kilowatts":null,"power":0,"status":null}]}],"url":"http://api.plugshare.com/view/location/356122"},{"access":1,"address":"Sabar Flats, Narayan Nagar Society, Narayan Nagar, Ahmedabad, Gujarat 380007, India","icon":"https://assets.plugshare.com/icons/G.png","icon_type":"G","id":350027,"latitude":22.998898,"longitude":72.559394,"name":"Mindra Crispy Culture Statiq Type-2","stations":[{"id":832538,"outlets":[{"connector":7,"id":2350764,"kilowatts":null,"power":0,"status":null},{"connector":7,"id":2350765,"kilowatts":null,"power":0,"status":null}]},{"id":832539,"outlets":[{"connector":7,"id":2350766,"kilowatts":null,"power":0,"status":null}]}],"url":"http://api.plugshare.com/view/location/350027"},{"access":1,"address":"Garkheda Road , Udyog shree ","icon":"https://assets.plugshare.com/icons/G.png","icon_type":"G","id":341437,"latitude":19.861017,"longitude":75.346354,"name":"Mrignayani Bar & Restaurant","stations":[{"id":807329,"outlets":[{"connector":9,"id":2308465,"kilowatts":null,"power":0,"status":null}]}],"url":"http://api.plugshare.com/view/location/341437"},{"access":1,"address":"PB No. 4032, Petroleum House, Behind Memnagar Fire Station, Navrangpura, Ahmedabad, Gujarat 380009, India","icon":"https://assets.plugshare.com/icons/G.png","icon_type":"G","id":329830,"latitude":23.045712,"longitude":72.550098,"name":"HP Retail RO Chargegrid Type2","stations":[{"id":775462,"outlets":[{"connector":7,"id":2267141,"kilowatts":null,"power":0,"status":null}]},{"id":775463,"outlets":[{"connector":7,"id":2267142,"kilowatts":null,"power":0,"status":null}]},{"id":775464,"outlets":[{"connector":7,"id":2267143,"kilowatts":null,"power":0,"status":null}]},{"id":775465,"outlets":[{"connector":7,"id":2267144,"kilowatts":null,"power":0,"status":null}]}],"url":"http://api.plugshare.com/view/location/329830"},{"access":1,"address":"SG Hwy Service Rd, Prahlad Nagar, Ahmedabad, Gujarat 380015, India","icon":"https://assets.plugshare.com/icons/Y.png","icon_type":"Y","id":337476,"latitude":23.01439,"longitude":72.503977,"name":"TML Progressive Cars Tata Power FC","stations":[{"id":795970,"outlets":[{"connector":3,"id":2293716,"kilowatts":null,"power":0,"status":null},{"connector":13,"id":2293717,"kilowatts":null,"power":0,"status":null}]}],"url":"http://api.plugshare.com/view/location/337476"},{"access":1,"address":"55, Mehrauli-Gurgaon Rd, Block H, DLF Phase 1, Sector 26, Gurugram, Haryana 122002, India","icon":"https://assets.plugshare.com/icons/GR.png","icon_type":"GR","id":334260,"latitude":28.481155,"longitude":77.093403,"name":"Sikandarpur Metro Station","stations":[{"id":787361,"outlets":[{"connector":7,"id":2282741,"kilowatts":null,"power":0,"status":null}]}],"url":"http://api.plugshare.com/view/location/334260"},{"access":1,"address":"105, Dhule Moghan Rd, Mohadi Upnagar, Dhule, Maharashtra 424006, India","icon":"https://assets.plugshare.com/icons/G.png","icon_type":"G","id":341148,"latitude":20.869447,"longitude":74.770666,"name":"Hotel Jhankar Dhule Wall Charger","stations":[{"id":806451,"outlets":[{"connector":9,"id":2307294,"kilowatts":null,"power":0,"status":null}]}],"url":"http://api.plugshare.com/view/location/341148"},{"access":1,"address":"A B Rd, MIDC Avdhan, Dhule, Maharashtra 424006, India","icon":"https://assets.plugshare.com/icons/G.png","icon_type":"G","id":337053,"latitude":20.853992,"longitude":74.764374,"name":"TML Ujwal Automotives Slow Charger","stations":[{"id":794965,"outlets":[{"connector":9,"id":2292452,"kilowatts":null,"power":0,"status":null}]}],"url":"http://api.plugshare.com/view/location/337053"},{"access":1,"address":"MANIDHAR CORNER BESIDE HEMEOPATHIC COLLEGE Nr. Navjivan Circle, Udhana - Magdalla Rd, Janta Nagar, Swaminagar Society, Bhatar, Athwa, Surat, Gujarat 395017, India","icon":"https://assets.plugshare.com/icons/GR.png","icon_type":"GR","id":307868,"latitude":21.166837,"longitude":72.819118,"name":"ACUBE BattRe Showroom","stations":[{"id":715065,"outlets":[{"connector":9,"id":2149095,"kilowatts":null,"power":0,"status":null}]}],"url":"http://api.plugshare.com/view/location/307868"},{"access":1,"address":"Time Square Complex, 502-504, VIP Rd, near New Alka Restaurant, Tower C,IOC Petrol Pump Fatehgunj, Fatehgunj, Vadodara, Gujarat 390002, India","icon":"https://assets.plugshare.com/icons/G.png","icon_type":"G","id":356086,"latitude":22.323372,"longitude":73.187794,"name":"Four Points By Sheraton","stations":[{"id":848911,"outlets":[{"connector":9,"id":2372329,"kilowatts":null,"power":0,"status":null}]}],"url":"http://api.plugshare.com/view/location/356086"},{"access":1,"address":"Genex Beauty Studio, Shop No. 9 , Sector 5 ,Shopping Centre Near Tuti Puliya, Jawahar Nagar, Jaipur, Rajasthan 302007","icon":"https://assets.plugshare.com/icons/G.png","icon_type":"G","id":359878,"latitude":26.886779,"longitude":75.827943,"name":"Fleely EV Charging Station, Jaipur","stations":[{"id":859048,"network_id":1012,"outlets":[{"connector":7,"id":2386256,"kilowatts":null,"power":0,"status":null}]}],"url":"http://api.plugshare.com/view/location/359878"},{"access":1,"address":"142, 142, Sola Rd, Visharam Nagar, Ghatlodiya, Memnagar, Ahmedabad, Gujarat 380052, India","icon":"https://assets.plugshare.com/icons/Y.png","icon_type":"Y","id":354619,"latitude":23.063206,"longitude":72.531881,"name":"Hindustan Petroleum","stations":[{"id":844973,"network_id":1012,"outlets":[{"connector":13,"id":2367317,"kilowatts":null,"power":0,"status":null}]}],"url":"http://api.plugshare.com/view/location/354619"},{"access":1,"address":"5, Mahadev Estate Part-3, Cellulose Mill Compound, CTM - Ramol Rd, Janta Nagar, Ahmedabad, Gujarat 382449, India","icon":"https://assets.plugshare.com/icons/G.png","icon_type":"G","id":307861,"latitude":22.990188,"longitude":72.642697,"name":"Kcon Shop 36 Bolt SC","stations":[{"id":715058,"outlets":[{"connector":9,"id":2149088,"kilowatts":null,"power":0,"status":null}]}],"url":"http://api.plugshare.com/view/location/307861"},{"access":1,"address":"13/20, DLF Phase 2, Sector 25, Gurugram, Haryana 122002, India","icon":"https://assets.plugshare.com/icons/G.png","icon_type":"G","id":350035,"latitude":28.482379,"longitude":77.076605,"name":"Heritage City Statiq Type-2","stations":[{"id":832549,"outlets":[{"connector":7,"id":2350777,"kilowatts":null,"power":0,"status":null},{"connector":7,"id":2350778,"kilowatts":null,"power":0,"status":null}]}],"url":"http://api.plugshare.com/view/location/350035"},{"access":1,"address":"23/583, Wazirpura Rd, Sanjay Palace, Wazirpura, Sanjay Place, Civil Lines, Agra, Uttar Pradesh 282005, India","icon":"https://assets.plugshare.com/icons/Y.png","icon_type":"Y","id":325533,"latitude":27.200912,"longitude":78.008839,"name":"TML Ashok Auto Ssles","stations":[{"id":763194,"outlets":[{"connector":13,"id":2250689,"kilowatts":null,"power":0,"status":null}]},{"id":763193,"outlets":[{"connector":13,"id":2250688,"kilowatts":null,"power":0,"status":null}]}],"url":"http://api.plugshare.com/view/location/325533"},{"access":1,"address":"Ireo Uptown A-Block, Badshahpur, Sector 66, Gurugram, Haryana 122102, India","icon":"https://assets.plugshare.com/icons/G.png","icon_type":"G","id":341863,"latitude":28.395861,"longitude":77.05934,"name":"Ireo Uptown Statiq Type-2","stations":[{"id":808363,"outlets":[{"connector":7,"id":2309847,"kilowatts":null,"power":0,"status":null}]}],"url":"http://api.plugshare.com/view/location/341863"},{"access":1,"address":"Reach Comercia, Sector 68, Gurugram, Haryana 122103, India","icon":"https://assets.plugshare.com/icons/G.png","icon_type":"G","id":309553,"latitude":28.383052,"longitude":77.052357,"name":"Airia Mall Tata Power FC","stations":[{"id":719568,"outlets":[{"connector":7,"id":2292794,"kilowatts":null,"power":0,"status":null},{"connector":7,"id":2158880,"kilowatts":null,"power":0,"status":null}]},{"id":730546,"outlets":[{"connector":7,"id":2292797,"kilowatts":null,"power":0,"status":null}]}],"url":"http://api.plugshare.com/view/location/309553"},{"access":1,"address":"TOWER-A, 4,Vraj Vihar -6 B/H, Prernatirth Derasar Rd, Satellite, Ahmedabad, Gujarat 380015, India","icon":"https://assets.plugshare.com/icons/G.png","icon_type":"G","id":350028,"latitude":23.013977,"longitude":72.51787,"name":"Polar International Mrinda Statiq Type-2","stations":[{"id":832540,"outlets":[{"connector":7,"id":2350767,"kilowatts":null,"power":0,"status":null},{"connector":7,"id":2350768,"kilowatts":null,"power":0,"status":null}]}],"url":"http://api.plugshare.com/view/location/350028"},{"access":1,"address":"8/238, Sector 8, Malviya Nagar, Jaipur, Rajasthan 302017, India","icon":"https://assets.plugshare.com/icons/G.png","icon_type":"G","id":338018,"latitude":26.84322,"longitude":75.803753,"name":"Ather Grid Charging Point ( ELECTRIC VEHICLE CHARGING POINT)","stations":[{"id":797424,"outlets":[{"connector":9,"id":2295696,"kilowatts":null,"power":0,"status":null}]},{"id":797425,"outlets":[{"connector":1,"id":2295697,"kilowatts":null,"power":0,"status":null}]}],"url":"http://api.plugshare.com/view/location/338018"},{"access":1,"address":"Unnamed Road, Moth, Rajasthan 314036, India","icon":"https://assets.plugshare.com/icons/G.png","icon_type":"G","id":337187,"latitude":23.921191,"longitude":73.840485,"name":"Hdhd","stations":[{"id":795202,"network_id":5,"outlets":[{"connector":4,"id":2292752,"kilowatts":null,"power":0,"status":null}]}],"url":"http://api.plugshare.com/view/location/337187"},{"access":1,"address":"Arya Samaj Rd, Shankar Tekri, Jamnagar, Gujarat 361005, India","icon":"https://assets.plugshare.com/icons/G.png","icon_type":"G","id":307862,"latitude":22.458432,"longitude":70.069314,"name":"E Bike Bazaar Bolt SC","stations":[{"id":715059,"outlets":[{"connector":9,"id":2149089,"kilowatts":null,"power":0,"status":null}]}],"url":"http://api.plugshare.com/view/location/307862"},{"access":1,"address":"44, jai bhawani nagar, Chinkara Colony, Ganesh Colony, Khatipura, Jaipur, Rajasthan 302032, India","icon":"https://assets.plugshare.com/icons/G.png","icon_type":"G","id":319599,"latitude":26.927469,"longitude":75.753282,"name":"Xobolt EV Charging Station","stations":[{"id":746619,"outlets":[{"connector":7,"id":2228898,"kilowatts":null,"power":0,"status":"UNKNOWN"}]}],"url":"http://api.plugshare.com/view/location/319599"},{"access":1,"address":"433, Manohara Marg, Wazirabad, Sector 52, Gurugram, Haryana 122003, India","icon":"https://assets.plugshare.com/icons/Y.png","icon_type":"Y","id":360071,"latitude":28.432415,"longitude":77.080455,"name":"Alektrify (15kw)","stations":[{"id":859525,"outlets":[{"connector":13,"id":2386996,"kilowatts":null,"power":0,"status":null},{"connector":3,"id":2386995,"kilowatts":null,"power":0,"status":null}]},{"id":859522,"outlets":[{"connector":13,"id":2386991,"kilowatts":null,"power":0,"status":null}]},{"id":859523,"outlets":[{"connector":13,"id":2386992,"kilowatts":null,"power":0,"status":null}]},{"id":859524,"outlets":[{"connector":7,"id":2386993,"kilowatts":null,"power":0,"status":null},