[{"access":1,"address":"8-2-120/86/9, Road Number 2, Road No 2, Banjara Hills, Hyderabad, 500034, Telangana, India","icon":"https://assets.plugshare.com/icons/Y.png","icon_type":"Y","id":223408,"latitude":17.424028,"longitude":78.430218,"name":"FORTUM DC Fast Charing Station","stations":[{"id":488112,"outlets":[{"connector":3,"id":1179671,"kilowatts":null,"power":0,"status":null},{"connector":13,"id":1179672,"kilowatts":null,"power":0,"status":null}]}],"url":"http://api.plugshare.com/view/location/223408"},{"access":1,"address":"Raj Vihar Road, Dharma Pet, Kurnool, Andhra Pradesh 518001, India","icon":"https://assets.plugshare.com/icons/G.png","icon_type":"G","id":307701,"latitude":15.828941,"longitude":78.041014,"name":"MSRE Auto & Bikes Bolt SC","stations":[{"id":714650,"outlets":[{"connector":9,"id":2148314,"kilowatts":null,"power":0,"status":null}]}],"url":"http://api.plugshare.com/view/location/307701"},{"access":1,"address":"Unnamed Road, Shaniwar Peth, Karad, Maharashtra 415110, India","icon":"https://assets.plugshare.com/icons/Y.png","icon_type":"Y","id":180555,"latitude":17.275123,"longitude":74.182895,"name":"Netra Station","stations":[{"id":372565,"outlets":[{"connector":3,"id":666002,"kilowatts":null,"power":0,"status":null}]},{"id":372566,"outlets":[{"connector":3,"id":666003,"kilowatts":null,"power":0,"status":null}]},{"id":372567,"outlets":[{"connector":1,"id":666004,"kilowatts":null,"power":0,"status":null}]}],"url":"http://api.plugshare.com/view/location/180555"},{"access":1,"address":"TATA Motors, Dasnapur, Sapthagiri Colony, chaitanyapuri, Adilabad(U), Telangana 504001","icon":"https://assets.plugshare.com/icons/Y.png","icon_type":"Y","id":355642,"latitude":19.664062,"longitude":78.532011,"name":"TATA Motors Adilabad (25kw)","stations":[{"id":847501,"outlets":[{"connector":13,"id":2370594,"kilowatts":null,"power":0,"status":null}]}],"url":"http://api.plugshare.com/view/location/355642"},{"access":1,"address":"11, near CANARA BANK - GENERAL BRANCH, MIDC, Satpur Colony, Nashik, Maharashtra 422007, India","icon":"https://assets.plugshare.com/icons/G.png","icon_type":"G","id":303947,"latitude":19.99089,"longitude":73.738775,"name":"ibis Nashik Wall Charger","stations":[{"id":705706,"outlets":[{"connector":9,"id":2130551,"kilowatts":null,"power":0,"status":null}]}],"url":"http://api.plugshare.com/view/location/303947"},{"access":1,"address":"Nizamabad - Hyderabad Road, Rode, opposite TATA Motors, Madhavanagar, Pangra, Telangana 503230, India","icon":"https://assets.plugshare.com/icons/Y.png","icon_type":"Y","id":355868,"latitude":18.656429,"longitude":78.123708,"name":"TML Sree Venkateswara Motors Tata Power FC(25KW)","stations":[{"id":848397,"network_id":1012,"outlets":[{"connector":13,"id":2371655,"kilowatts":null,"power":0,"status":null}]}],"url":"http://api.plugshare.com/view/location/355868"},{"access":1,"address":"Divya Jyoti School Rd, Banda, Maharashtra 416511, India","icon":"https://assets.plugshare.com/icons/G.png","icon_type":"G","id":303956,"latitude":15.825694,"longitude":73.873756,"name":"High Valley Jungle Resort Wall Charger","stations":[{"id":705721,"outlets":[{"connector":9,"id":2130575,"kilowatts":null,"power":0,"status":null}]}],"url":"http://api.plugshare.com/view/location/303956"},{"access":1,"address":"Rahul complex, Pandharkawada, Maharashtra 445302, India","icon":"https://assets.plugshare.com/icons/G.png","icon_type":"G","id":339232,"latitude":20.02966,"longitude":78.547662,"name":"Hotel Rahul","stations":[{"id":800553,"outlets":[{"connector":9,"id":2299777,"kilowatts":null,"power":0,"status":null}]}],"url":"http://api.plugshare.com/view/location/339232"},{"access":1,"address":"G1,Brindawan Park, Hotgi Rd, Hoti Road, Solapur, Maharashtra 413003, India","icon":"https://assets.plugshare.com/icons/G.png","icon_type":"G","id":307522,"latitude":17.641318,"longitude":75.916034,"name":"Siddheshwar motors EV Bolt SC","stations":[{"id":714176,"outlets":[{"connector":9,"id":2147466,"kilowatts":null,"power":0,"status":null}]}],"url":"http://api.plugshare.com/view/location/307522"},{"access":1,"address":"CG8P+F78, Latur MIDC, MIDC, Latur, Maharashtra 413531, India","icon":"https://assets.plugshare.com/icons/Y.png","icon_type":"Y","id":355112,"latitude":18.416106,"longitude":76.535591,"name":"AB Infra Ltd MIDC Latur Tata Power FC","stations":[{"id":846147,"network_id":1012,"outlets":[{"connector":13,"id":2368806,"kilowatts":null,"power":0,"status":null}]}],"url":"http://api.plugshare.com/view/location/355112"},{"access":1,"address":"C/o Devki Sadan Bhavsar Nagar, Nanded Malegaon Rd, Ashtvinayak Nagar, Nanded, Maharashtra 431605, India","icon":"https://assets.plugshare.com/icons/G.png","icon_type":"G","id":337624,"latitude":19.190332,"longitude":77.299373,"name":"Vinayak EV Wall Charger","stations":[{"id":796395,"outlets":[{"connector":9,"id":2294299,"kilowatts":null,"power":0,"status":null}]}],"url":"http://api.plugshare.com/view/location/337624"},{"access":1,"address":"LifeOn Industries, D-298, T.T.C. Industrial Area, Turbhe, Navi Mumbai, Maharashtra 400705","icon":"https://assets.plugshare.com/icons/G.png","icon_type":"G","id":156021,"latitude":19.068721,"longitude":73.022564,"name":"Magenta EV Charging - 3 | Turbhe | Car Charging Station","stations":[{"id":302740,"outlets":[{"connector":14,"id":582705,"kilowatts":null,"power":0,"status":null}]},{"id":302741,"outlets":[{"connector":1,"id":576567,"kilowatts":null,"power":0,"status":null}]}],"url":"http://api.plugshare.com/view/location/156021"},{"access":1,"address":"Majalagaon Dist Beed Maharashtra Pin: 431131","icon":"https://assets.plugshare.com/icons/Y.png","icon_type":"Y","id":361409,"latitude":19.177881,"longitude":76.168026,"name":"Majalagaon Dist Beed","stations":[{"id":863353,"outlets":[{"connector":13,"id":2392569,"kilowatts":null,"power":0,"status":null},{"connector":13,"id":2392570,"kilowatts":null,"power":0,"status":null},{"connector":3,"id":2392571,"kilowatts":null,"power":0,"status":null}]}],"url":"http://api.plugshare.com/view/location/361409"},{"access":1,"address":"Plot No E35 MIDC Area, Chikalthana Near Prozone Mall, MIDC Industrial Area, Chilkalthana, Aurangabad, Maharashtra 431006, India","icon":"https://assets.plugshare.com/icons/Y.png","icon_type":"Y","id":304059,"latitude":19.880472,"longitude":75.372491,"name":"Satish Motors Tata Power FC","stations":[{"id":706021,"outlets":[{"connector":13,"id":2131025,"kilowatts":null,"power":0,"status":null}]}],"url":"http://api.plugshare.com/view/location/304059"},{"access":1,"address":"Kasara Dumala Rd, Kasarwadi, Sangamner, Maharashtra 422605, India","icon":"https://assets.plugshare.com/icons/G.png","icon_type":"G","id":303955,"latitude":19.561169,"longitude":74.199436,"name":"Malpani Palace Wall Charger","stations":[{"id":705720,"outlets":[{"connector":9,"id":2130571,"kilowatts":null,"power":0,"status":null}]}],"url":"http://api.plugshare.com/view/location/303955"},{"access":1,"address":"26V8+J2 Jath, Maharashtra, India","icon":"https://assets.plugshare.com/icons/G.png","icon_type":"G","id":359041,"latitude":17.044048,"longitude":75.215111,"name":"Shivkrupa Bolt Wall Charger","stations":[{"id":856831,"outlets":[{"connector":9,"id":2383265,"kilowatts":null,"power":0,"status":null}]}],"url":"http://api.plugshare.com/view/location/359041"},{"access":1,"address":"Unnamed Road, Raipalle, Telangana 509340, India","icon":"https://assets.plugshare.com/icons/G.png","icon_type":"G","id":321956,"latitude":16.833459,"longitude":78.149505,"name":"ETO Motors Bolt SC","stations":[{"id":753201,"outlets":[{"connector":9,"id":2237482,"kilowatts":null,"power":0,"status":"UNKNOWN"}]},{"id":753202,"outlets":[{"connector":9,"id":2237483,"kilowatts":null,"power":0,"status":"UNKNOWN"}]},{"id":753203,"outlets":[{"connector":9,"id":2237484,"kilowatts":null,"power":0,"status":"UNKNOWN"}]},{"id":753204,"outlets":[{"connector":9,"id":2237485,"kilowatts":null,"power":0,"status":"UNKNOWN"}]}],"url":"http://api.plugshare.com/view/location/321956"},{"access":1,"address":"1337c, Sahyadri Nagar, Shanti Nagar, Nachane, Maharashtra 415639, India","icon":"https://assets.plugshare.com/icons/G.png","icon_type":"G","id":305421,"latitude":16.995719,"longitude":73.33413,"name":"Maratha Residency Wall charger","stations":[{"id":709012,"outlets":[{"connector":9,"id":2137374,"kilowatts":null,"power":0,"status":null}]},{"id":852618,"outlets":[{"connector":1,"id":2377248,"kilowatts":null,"power":0,"status":null}]}],"url":"http://api.plugshare.com/view/location/305421"},{"access":1,"address":"Maladagudda - Kowtal Rd, Kowthal, Karnataka 584120, India","icon":"https://assets.plugshare.com/icons/G.png","icon_type":"G","id":336968,"latitude":16.056471,"longitude":76.826495,"name":"Edala Home KTL","stations":[{"id":853875,"outlets":[{"connector":7,"id":2379031,"kilowatts":null,"power":0,"status":null}]}],"url":"http://api.plugshare.com/view/location/336968"},{"access":1,"address":"Hpcl Retail Outlet Sy.no.76/e/4, 76/E/5 & 76/B/1, Mandal Secunderabad, Aurangabad, Telangana 502113, India","icon":"https://assets.plugshare.com/icons/G.png","icon_type":"G","id":331755,"latitude":18.076213,"longitude":78.281473,"name":"HPCL Fuel Pump Chargegrid Type-2","stations":[{"id":780887,"outlets":[{"connector":7,"id":2274301,"kilowatts":null,"power":0,"status":null}]}],"url":"http://api.plugshare.com/view/location/331755"},{"access":1,"address":"7757+Q4 Sale, Maharashtra, India","icon":"https://assets.plugshare.com/icons/Y.png","icon_type":"Y","id":349471,"latitude":18.259396,"longitude":73.262765,"name":"Coming Soon - Hotel Open Umbrella Statiq 60KW FC","stations":[{"id":831283,"outlets":[{"connector":13,"id":2349138,"kilowatts":null,"power":0,"status":null},{"connector":13,"id":2366384,"kilowatts":null,"power":0,"status":null}]}],"url":"http://api.plugshare.com/view/location/349471"},{"access":1,"address":"NH 66, Tilore, Maharashtra 402104, India","icon":"https://assets.plugshare.com/icons/G.png","icon_type":"G","id":303920,"latitude":18.265601,"longitude":73.258354,"name":"Mangaon Petrolpump PUC Wall Charger","stations":[{"id":705637,"outlets":[{"connector":9,"id":2130439,"kilowatts":null,"power":0,"status":null}]}],"url":"http://api.plugshare.com/view/location/303920"},{"access":1,"address":"Belwandi Phata Bus Stop, MH SH 27, Maharashtra 414302, India","icon":"https://assets.plugshare.com/icons/G.png","icon_type":"G","id":305017,"latitude":18.84691,"longitude":74.405937,"name":"Om Sai Traders Wall Charger","stations":[{"id":708146,"outlets":[{"connector":9,"id":2135634,"kilowatts":null,"power":0,"status":null}]}],"url":"http://api.plugshare.com/view/location/305017"},{"access":1,"address":"Mantha Road , Jalna , Maharashtra ","icon":"https://assets.plugshare.com/icons/G.png","icon_type":"G","id":343009,"latitude":19.843815,"longitude":75.922004,"name":"Hotel Shreeji , Jalna , Maharashtra","stations":[{"id":811432,"outlets":[{"connector":9,"id":2313913,"kilowatts":null,"power":0,"status":null}]}],"url":"http://api.plugshare.com/view/location/343009"},{"access":1,"address":"Sadguru Furniture Mall, Nashik - Pune Hwy, Bhorwadi, Maharashtra 410504, India","icon":"https://assets.plugshare.com/icons/Y.png","icon_type":"Y","id":309292,"latitude":19.138772,"longitude":74.016778,"name":"Sadguru Furniture Mall","stations":[{"id":721286,"outlets":[{"connector":13,"id":2191322,"kilowatts":null,"power":0,"status":null},{"connector":13,"id":2163599,"kilowatts":null,"power":0,"status":null}]}],"url":"http://api.plugshare.com/view/location/309292"},{"access":1,"address":"Pandharpur Road Miraj","icon":"https://assets.plugshare.com/icons/G.png","icon_type":"G","id":305928,"latitude":16.836664,"longitude":74.648619,"name":"Suraj Fuel Injection Service","stations":[{"id":710148,"outlets":[{"connector":7,"id":2139573,"kilowatts":null,"power":0,"status":null}]}],"url":"http://api.plugshare.com/view/location/305928"},{"access":1,"address":"Amrai Hotel and Resort, Shendre, Satara, Maharashtra","icon":"https://assets.plugshare.com/icons/Y.png","icon_type":"Y","id":305714,"latitude":17.637983,"longitude":74.012113,"name":"Amrai Resort Tata Power FC(25KW)","score":10.0,"stations":[{"id":709672,"outlets":[{"connector":7,"id":2138560,"kilowatts":null,"power":0,"status":null}]},{"id":709673,"outlets":[{"connector":13,"id":2138562,"kilowatts":null,"power":0,"status":null},{"connector":3,"id":2138561,"kilowatts":null,"power":0,"status":null}]}],"url":"http://api.plugshare.com/view/location/305714"},{"access":1,"address":"main road","icon":"https://assets.plugshare.com/icons/G.png","icon_type":"G","id":356970,"latitude":16.748917,"longitude":77.410123,"name":"Anpoor","stations":[{"id":851200,"outlets":[{"connector":7,"id":2375361,"kilowatts":null,"power":0,"status":null}]}],"url":"http://api.plugshare.com/view/location/356970"},{"access":1,"address":"Unnamed Road, Gavhe, Maharashtra 415712, India","icon":"https://assets.plugshare.com/icons/G.png","icon_type":"G","id":305146,"latitude":17.740611,"longitude":73.165092,"name":"Fern Samali Resort","stations":[{"id":708452,"outlets":[{"connector":9,"id":2136234,"kilowatts":null,"power":0,"status":null}]}],"url":"http://api.plugshare.com/view/location/305146"},{"access":1,"address":"Unnamed Road, Maharashtra 413305, India","icon":"https://assets.plugshare.com/icons/G.png","icon_type":"G","id":359767,"latitude":17.424444,"longitude":75.286336,"name":"SG's Farm","stations":[{"id":858760,"outlets":[{"connector":9,"id":2385899,"kilowatts":null,"power":0,"status":null}]}],"url":"http://api.plugshare.com/view/location/359767"},{"access":1,"address":"Adharsha Nagar 1st Cross Rd, Aadarsh Nagar, Kurul, Alibag, Maharashtra 402209, India","icon":"https://assets.plugshare.com/icons/G.png","icon_type":"G","id":305025,"latitude":18.647772,"longitude":72.892008,"name":"Mountain View Cottage Wall Charger","stations":[{"id":708159,"outlets":[{"connector":9,"id":2135656,"kilowatts":null,"power":0,"status":null}]}],"url":"http://api.plugshare.com/view/location/305025"},{"access":1,"address":"7QF5+32 Madanwadi, Maharashtra, India","icon":"https://assets.plugshare.com/icons/Y.png","icon_type":"Y","id":355553,"latitude":18.272735,"longitude":74.757553,"name":"Coming Soon - Ujani Fish Bhigwan - Statiq FC","stations":[{"id":847285,"outlets":[{"connector":13,"id":2370285,"kilowatts":null,"power":0,"status":null}]},{"id":847286,"outlets":[{"connector":7,"id":2370286,"kilowatts":null,"power":0,"status":null}]}],"url":"http://api.plugshare.com/view/location/355553"},{"access":1,"address":"Karhati Boundary, Karhati -Supe Rd, Maharashtra 412204, India","icon":"https://assets.plugshare.com/icons/G.png","icon_type":"G","id":359036,"latitude":18.290157,"longitude":74.40214,"name":"PP Home Bolt Wall Charger","stations":[{"id":856826,"outlets":[{"connector":9,"id":2383259,"kilowatts":null,"power":0,"status":null}]}],"url":"http://api.plugshare.com/view/location/359036"},{"access":1,"address":"MGRW+Q5G, Talegaon, Igatpuri, Maharashtra 422402, India","icon":"https://assets.plugshare.com/icons/G.png","icon_type":"G","id":352730,"latitude":19.69166,"longitude":73.545622,"name":"Rakabi Fern Hotel Igatpuri Wall Charger","stations":[{"id":840160,"outlets":[{"connector":9,"id":2360316,"kilowatts":null,"power":0,"status":null}]}],"url":"http://api.plugshare.com/view/location/352730"},{"access":1,"address":"36QX+M75, Nashik, Maharashtra 422305, India","icon":"https://assets.plugshare.com/icons/G.png","icon_type":"G","id":352670,"latitude":20.088195,"longitude":74.249279,"name":"Shree Datta Petroleum HP E Charge","stations":[{"id":840035,"outlets":[{"connector":7,"id":2360134,"kilowatts":null,"power":0,"status":null},{"connector":24,"id":2360135,"kilowatts":null,"power":0,"status":null}]}],"url":"http://api.plugshare.com/view/location/352670"},{"access":1,"address":"Mumbai Hwy, Maharashtra 413104, India","icon":"https://assets.plugshare.com/icons/G.png","icon_type":"G","id":326922,"latitude":18.231416,"longitude":74.772977,"name":"Hotel Shree Tata Power Type 2","stations":[{"id":767368,"outlets":[{"connector":7,"id":2256349,"kilowatts":null,"power":0,"status":null}]}],"url":"http://api.plugshare.com/view/location/326922"},{"access":1,"address":"PF86+QV Tarapur, Maharashtra, India","icon":"https://assets.plugshare.com/icons/G.png","icon_type":"G","id":359037,"latitude":17.716879,"longitude":75.462186,"name":"Sahyadri Bolt Wall Charger","stations":[{"id":856827,"outlets":[{"connector":9,"id":2383260,"kilowatts":null,"power":0,"status":null}]}],"url":"http://api.plugshare.com/view/location/359037"},{"access":1,"address":"Unnamed Road, Diveagar, Maharashtra 402404, India","icon":"https://assets.plugshare.com/icons/G.png","icon_type":"G","id":304113,"latitude":18.170002,"longitude":72.98981,"name":"Dr. Wad's Anandvan Breakfast House Wall Charger","stations":[{"id":706200,"outlets":[{"connector":9,"id":2131351,"kilowatts":null,"power":0,"status":null}]}],"url":"http://api.plugshare.com/view/location/304113"},{"access":1,"address":"Baliram Singh Rd, Bamane, Maharashtra 421601, India","icon":"https://assets.plugshare.com/icons/G.png","icon_type":"G","id":305014,"latitude":19.446231,"longitude":73.347207,"name":"Cibco Escape Resort Wall Charger","stations":[{"id":708143,"outlets":[{"connector":9,"id":2135631,"kilowatts":null,"power":0,"status":null}]}],"url":"http://api.plugshare.com/view/location/305014"},{"access":1,"address":"Unnamed Road, Maharashtra 423701, India","icon":"https://assets.plugshare.com/icons/G.png","icon_type":"G","id":328688,"latitude":19.801546,"longitude":74.881573,"name":"Bhau Enterprises Chargegrid Type 2","stations":[{"id":772088,"outlets":[{"connector":7,"id":2262711,"kilowatts":null,"power":0,"status":null}]}],"url":"http://api.plugshare.com/view/location/328688"},{"access":1,"address":"2835+HCP, Shenale, Maharashtra 415203, India","icon":"https://assets.plugshare.com/icons/G.png","icon_type":"G","id":347389,"latitude":18.003805,"longitude":73.308231,"name":"Nanu Krupa Farms","stations":[{"id":825050,"outlets":[{"connector":9,"id":2331932,"kilowatts":null,"power":0,"status":null}]}],"url":"http://api.plugshare.com/view/location/347389"},{"access":1,"address":"Palpanur Bus Stop, SH 17, Palapnoor, Telangana 502296, India","icon":"https://assets.plugshare.com/icons/G.png","icon_type":"G","id":331756,"latitude":17.65939,"longitude":78.175694,"name":"HPCL Fuel Pump Chargegrid Type-2","stations":[{"id":780888,"outlets":[{"connector":7,"id":2274302,"kilowatts":null,"power":0,"status":null}]}],"url":"http://api.plugshare.com/view/location/331756"},{"access":1,"address":"PG Regency Resort , Mumbai-Goa Highway Mahad, Maharashtra 402301, India","icon":"https://assets.plugshare.com/icons/Y.png","icon_type":"Y","id":357804,"latitude":18.085697,"longitude":73.43266,"name":"P.G REGENCY MAHAD Statiq 30KW F.C","stations":[{"id":853537,"outlets":[{"connector":13,"id":2378562,"kilowatts":null,"power":0,"status":null}]}],"url":"http://api.plugshare.com/view/location/357804"},{"access":1,"address":"MWM5+GW7, Haloli, Maharashtra 401404, India","icon":"https://assets.plugshare.com/icons/G.png","icon_type":"G","id":347661,"latitude":19.685009,"longitude":72.90873,"name":"Shree Saikrupa Dhabha Bolt Wall Charger","stations":[{"id":825811,"outlets":[{"connector":9,"id":2332959,"kilowatts":null,"power":0,"status":null}]}],"url":"http://api.plugshare.com/view/location/347661"},{"access":1,"address":"XHPG+3C7, Kamargaon, Maharashtra 414301, India","icon":"https://assets.plugshare.com/icons/Y.png","icon_type":"Y","id":334408,"latitude":18.985231,"longitude":74.576013,"name":"Hotel Smile Stone","score":6.2,"stations":[{"id":787746,"outlets":[{"connector":7,"id":2283265,"kilowatts":null,"power":0,"status":null}]},{"id":787745,"outlets":[{"connector":3,"id":2283263,"kilowatts":null,"power":0,"status":null},{"connector":13,"id":2283264,"kilowatts":null,"power":0,"status":null}]}],"url":"http://api.plugshare.com/view/location/334408"},{"access":1,"address":"Roha - Kolad Rd, Roha, Maharashtra 402109, India","icon":"https://assets.plugshare.com/icons/G.png","icon_type":"G","id":328697,"latitude":18.436689,"longitude":73.142891,"name":"HPCL Pump Chargegrid Type2","stations":[{"id":772101,"outlets":[{"connector":7,"id":2262727,"kilowatts":null,"power":0,"status":null}]}],"url":"http://api.plugshare.com/view/location/328697"},{"access":1,"address":"Sangam Hotel St, Shaniwar Peth, Karad, Maharashtra 415110, India","icon":"https://assets.plugshare.com/icons/Y.png","icon_type":"Y","id":303908,"latitude":17.273833,"longitude":74.180312,"name":"Hotel Sangam(25KW)","score":10.0,"stations":[{"id":705615,"outlets":[{"connector":3,"id":2130392,"kilowatts":null,"power":0,"status":null},{"connector":13,"id":2130393,"kilowatts":null,"power":0,"status":null}]},{"id":705616,"outlets":[{"connector":7,"id":2130394,"kilowatts":null,"power":0,"status":null}]}],"url":"http://api.plugshare.com/view/location/303908"},{"access":1,"address":"Unnamed Road, Khaire Nagad, Maharashtra 412218, India","icon":"https://assets.plugshare.com/icons/G.png","icon_type":"G","id":357130,"latitude":18.818439,"longitude":74.095693,"name":"Sagars Place","stations":[{"id":851649,"outlets":[{"connector":9,"id":2375923,"kilowatts":null,"power":0,"status":null}]}],"url":"http://api.plugshare.com/view/location/357130"},{"access":1,"address":"JW92+C7H, Nagaon, Maharashtra 402204, India","icon":"https://assets.plugshare.com/icons/Y.png","icon_type":"Y","id":354360,"latitude":18.618676,"longitude":72.900579,"name":"Nandavan Nagaon Statiq","stations":[{"id":844314,"outlets":[{"connector":13,"id":2366389,"kilowatts":30.0,"power":0,"status":null}]},{"id":844315,"outlets":[{"connector":7,"id":2366390,"kilowatts":null,"power":0,"status":null}]},{"id":844316,"outlets":[{"connector":9,"id":2366391,"kilowatts":null,"power":0,"status":null}]}],"url":"http://api.plugshare.com/view/location/354360"},{"access":1,"address":"Borawakenagar Rd, Shrirampur, Maharashtra 413709, India","icon":"https://assets.plugshare.com/icons/G.png","icon_type":"G","id":307524,"latitude":19.620816,"longitude":74.674803,"name":"Famous Cafe","stations":[{"id":714178,"outlets":[{"connector":9,"id":2147472,"kilowatts":null,"power":0,"status":null}]}],"url":"http://api.plugshare.com/view/location/307524"},{"access":1,"address":"Loni-Shrirampur Rd, Loni Kh., Maharashtra 413713, India","icon":"https://assets.plugshare.com/icons/G.png","icon_type":"G","id":307525,"latitude":19.591985,"longitude":74.485164,"name":"Jai Mata Di Auto Bolt SC","stations":[{"id":714179,"outlets":[{"connector":9,"id":2147477,"kilowatts":null,"power":0,"status":null}]}],"url":"http://api.plugshare.com/view/location/307525"},{"access":1,"address":"Hyderabad Raichur Road, Gudebellur, Telangana 509352, India","icon":"https://assets.plugshare.com/icons/G.png","icon_type":"G","id":337940,"latitude":16.396877,"longitude":77.365957,"name":"RAJENDRA B","stations":[{"id":797275,"outlets":[{"connector":9,"id":2295493,"kilowatts":null,"power":0,"status":null}]}],"url":"http://api.plugshare.com/view/location/337940"},{"access":1,"address":"NH60, Narayangaon, Maharashtra 410504, India","icon":"https://assets.plugshare.com/icons/G.png","icon_type":"G","id":305016,"latitude":19.09896,"longitude":73.968911,"name":"KvK Narayangaon Wall Charger","stations":[{"id":708145,"outlets":[{"connector":9,"id":2135633,"kilowatts":null,"power":0,"status":null}]}],"url":"http://api.plugshare.com/view/location/305016"},{"access":1,"address":"R3RM+6G, Kedarpur, Maharashtra, India","icon":"https://assets.plugshare.com/icons/G.png","icon_type":"G","id":350643,"latitude":19.840823,"longitude":74.083932,"name":"Sameer Avhad","stations":[{"id":834634,"network_id":1,"outlets":[{"connector":9,"id":2353633,"kilowatts":null,"power":0,"status":null}]}],"url":"http://api.plugshare.com/view/location/350643"},{"access":1,"address":"Revdanda - Murud Rd, Donde Tarf Nandgaon, Maharashtra 402401, India","icon":"https://assets.plugshare.com/icons/G.png","icon_type":"G","id":347418,"latitude":18.409755,"longitude":72.911334,"name":"Neel Garden Restaurant And Cottages","stations":[{"id":825087,"outlets":[{"connector":9,"id":2331984,"kilowatts":null,"power":0,"status":null}]}],"url":"http://api.plugshare.com/view/location/347418"},{"access":1,"address":"Maharashtra State Highway 17, Maharashtra 422202, India","icon":"https://assets.plugshare.com/icons/Y.png","icon_type":"Y","id":348437,"latitude":20.169345,"longitude":73.825561,"name":"Vrundavan Garden Statiq FC","stations":[{"id":827896,"outlets":[{"connector":13,"id":2344369,"kilowatts":null,"power":0,"status":null},{"connector":13,"id":2350763,"kilowatts":null,"power":0,"status":null}]}],"url":"http://api.plugshare.com/view/location/348437"},{"access":1,"address":"Rui Shiv Rd, Shirdi, Maharashtra 423109, India","icon":"https://assets.plugshare.com/icons/G.png","icon_type":"G","id":311278,"latitude":19.772366,"longitude":74.480588,"name":"St Laurn Resort Shirdi Wall Charger","stations":[{"id":724458,"outlets":[{"connector":9,"id":2173531,"kilowatts":null,"power":0,"status":null}]}],"url":"http://api.plugshare.com/view/location/311278"},{"access":1,"address":"QPCR+JX Sawaleshwar, Maharashtra, India","icon":"https://assets.plugshare.com/icons/Y.png","icon_type":"Y","id":355554,"latitude":17.771506,"longitude":75.742414,"name":"Coming Soon - Royal Inn Mohol - Statiq FC","stations":[{"id":847287,"outlets":[{"connector":13,"id":2370287,"kilowatts":null,"power":0,"status":null}]},{"id":847288,"outlets":[{"connector":7,"id":2370288,"kilowatts":null,"power":0,"status":null}]}],"url":"http://api.plugshare.com/view/location/355554"},{"access":1,"address":"National Highway 65 Yavat, Uruli Kanchan, Maharashtra 412202, India","icon":"https://assets.plugshare.com/icons/Y.png","icon_type":"Y","id":337689,"latitude":18.487555,"longitude":74.146223,"name":"Sonaee Veg Family Restaurant Tata Power FC","score":8.3,"stations":[{"id":798279,"outlets":[{"connector":3,"id":2296773,"kilowatts":null,"power":0,"status":null},{"connector":13,"id":2296774,"kilowatts":null,"power":0,"status":null}]}],"url":"http://api.plugshare.com/view/location/337689"},{"access":1,"address":"Tamhini Ghat Rd, Varak, Maharashtra 412108, India","icon":"https://assets.plugshare.com/icons/G.png","icon_type":"G","id":303944,"latitude":18.46586,"longitude":73.466458,"name":"Encore Resort Wall Charger","stations":[{"id":705703,"outlets":[{"connector":9,"id":2130546,"kilowatts":null,"power":0,"status":null}]}],"url":"http://api.plugshare.com/view/location/303944"},{"access":1,"address":"XWRV+J25, Patilwada, Manchar, Maharashtra 410503, India","icon":"https://assets.plugshare.com/icons/Y.png","icon_type":"Y","id":346008,"latitude":18.991524,"longitude":73.942613,"name":"Rama Automobile Manchar","score":9.0,"stations":[{"id":821616,"outlets":[{"connector":13,"id":2326930,"kilowatts":null,"power":0,"status":null}]}],"url":"http://api.plugshare.com/view/location/346008"},{"access":1,"address":"Nashik - Pune Hwy, Waki Kh., Maharashtra 410501, India","icon":"https://assets.plugshare.com/icons/Y.png","icon_type":"Y","id":303907,"latitude":18.779135,"longitude":73.871364,"name":"TML Sridhar Motors TATA Power FC","stations":[{"id":705614,"outlets":[{"connector":3,"id":2130388,"kilowatts":null,"power":0,"status":null},{"connector":13,"id":2130389,"kilowatts":null,"power":0,"status":null}]}],"url":"http://api.plugshare.com/view/location/303907"},{"access":1,"address":"Kopargaon - Shirdi - Ahmednagar - Pune Hwy, Gajanan Colony, MIDC, Ahmednagar, Maharashtra 414111, India","icon":"https://assets.plugshare.com/icons/Y.png","icon_type":"Y","id":303990,"latitude":19.157331,"longitude":74.703751,"name":"Max Motors Tata Power FC","score":6.9,"stations":[{"id":705770,"outlets":[{"connector":3,"id":2130656,"kilowatts":null,"power":0,"status":null},{"connector":13,"id":2130657,"kilowatts":null,"power":0,"status":null}]}],"url":"http://api.plugshare.com/view/location/303990"},{"access":1,"address":"Ahmednagar - Aurangabad Rd, Pandharichapool, Maharashtra 414106, India","icon":"https://assets.plugshare.com/icons/Y.png","icon_type":"Y","id":303991,"latitude":19.264813,"longitude":74.826965,"name":"Lilium Park","stations":[{"id":705774,"outlets":[{"connector":13,"id":2130661,"kilowatts":null,"power":0,"status":null}]}],"url":"http://api.plugshare.com/view/location/303991"},{"access":1,"address":"Mahabaleshwar, Mahabaleshwar, Maharashtra 412806, India","icon":"https://assets.plugshare.com/icons/Y.png","icon_type":"Y","id":314607,"latitude":17.924588,"longitude":73.655094,"name":"Hotel Dreamland Mahabaleshwar Tata Power FC(25KW)","stations":[{"id":733465,"outlets":[{"connector":3,"id":2206266,"kilowatts":null,"power":0,"status":null},{"connector":13,"id":2206267,"kilowatts":null,"power":0,"status":null}]},{"id":733466,"outlets":[{"connector":7,"id":2206268,"kilowatts":null,"power":0,"status":null}]}],"url":"http://api.plugshare.com/view/location/314607"},{"access":1,"address":"Wai-Panchgani Rd, Dhandeghar, Panchgani, Maharashtra 412805, India","icon":"https://assets.plugshare.com/icons/Y.png","icon_type":"Y","id":303948,"latitude":17.9337,"longitude":73.815661,"name":"Zostel Pachgani Tata Power FC(25KW)","score":9.0,"stations":[{"id":705707,"network_id":1012,"outlets":[{"connector":9,"id":2130555,"kilowatts":null,"power":0,"status":null}]},{"id":793081,"network_id":1012,"outlets":[{"connector":3,"id":2289979,"kilowatts":null,"power":0,"status":null},{"connector":13,"id":2289980,"kilowatts":null,"power":0,"status":null}]},{"id":841979,"network_id":1012,"outlets":[{"connector":7,"id":2363103,"kilowatts":null,"power":0,"status":null}]},{"id":841980,"network_id":1012,"outlets":[{"connector":9,"id":2363104,"kilowatts":null,"power":0,"status":null}]},{"id":841981,"network_id":1012,"outlets":[{"connector":9,"id":2363105,"kilowatts":null,"power":0,"status":null}]}],"url":"http://api.plugshare.com/view/location/303948"},{"access":1,"address":"Pune - Satara Rd, Maharashtra 412205, India","icon":"https://assets.plugshare.com/icons/G.png","icon_type":"G","id":356164,"latitude":18.217892,"longitude":73.925133,"name":"Hotel Choudhary Palace Bolt Wall Charger","stations":[{"id":851652,"network_id":1,"outlets":[{"connector":9,"id":2383257,"kilowatts":null,"power":0,"status":null}]}],"url":"http://api.plugshare.com/view/location/356164"},{"access":1,"address":"X547+573, Ariwali, Maharashtra 410221, India","icon":"https://assets.plugshare.com/icons/Y.png","icon_type":"Y","id":355293,"latitude":18.955836,"longitude":73.162782,"name":"HPCL Tata power FC","stations":[{"id":846577,"outlets":[{"connector":13,"id":2369382,"kilowatts":null,"power":0,"status":null}]}],"url":"http://api.plugshare.com/view/location/355293"},{"access":1,"address":"B - 5, Electronic Estate, MIDC, Bhosari, Pimpri-Chinchwad, Maharashtra 411026, India","icon":"https://assets.plugshare.com/icons/Y.png","icon_type":"Y","id":295859,"latitude":18.621839,"longitude":73.824921,"name":"Northway Motorsport Fast Charging Station","stations":[{"id":652066,"outlets":[{"connector":13,"id":2062937,"kilowatts":null,"power":0,"status":null}]}],"url":"http://api.plugshare.com/view/location/295859"},{"access":1,"address":"Satara Rd, Mahabaleshwar, Maharashtra 412806, India","icon":"https://assets.plugshare.com/icons/G.png","icon_type":"G","id":304373,"latitude":17.922955,"longitude":73.664185,"name":"Hotel Girivihar Slow Charger","stations":[{"id":706724,"outlets":[{"connector":9,"id":2132654,"kilowatts":null,"power":0,"status":null}]}],"url":"http://api.plugshare.com/view/location/304373"},{"access":1,"address":"NH60, Peth, Maharashtra 410512, India","icon":"https://assets.plugshare.com/icons/G.png","icon_type":"G","id":305010,"latitude":18.919703,"longitude":73.920097,"name":"Peth Wall Charger","stations":[{"id":708136,"outlets":[{"connector":9,"id":2135622,"kilowatts":null,"power":0,"status":null}]}],"url":"http://api.plugshare.com/view/location/305010"},{"access":1,"address":"Tikona Peth Internal Rd, Tikona Peth, Maharashtra 412108, India","icon":"https://assets.plugshare.com/icons/G.png","icon_type":"G","id":303919,"latitude":18.643232,"longitude":73.507115,"name":"Pawana Lake Wall Slow Charger","stations":[{"id":705635,"outlets":[{"connector":9,"id":2130420,"kilowatts":null,"power":0,"status":null}]}],"url":"http://api.plugshare.com/view/location/303919"},{"access":1,"address":"F3PP+3G Nimgaon Kh., Maharashtra, India","icon":"https://assets.plugshare.com/icons/G.png","icon_type":"G","id":359035,"latitude":19.485245,"longitude":74.086282,"name":"Bolt Wall Charger","stations":[{"id":856825,"outlets":[{"connector":9,"id":2383258,"kilowatts":null,"power":0,"status":null}]}],"url":"http://api.plugshare.com/view/location/359035"},{"access":1,"address":"DABHOL SHIPYARD ROAD, Dabhol, Maharashtra 415706, India","icon":"https://assets.plugshare.com/icons/G.png","icon_type":"G","id":359235,"latitude":17.590516,"longitude":73.190541,"name":"Devashi Resort","stations":[{"id":857250,"outlets":[{"connector":9,"id":2383778,"kilowatts":null,"power":0,"status":null}]}],"url":"http://api.plugshare.com/view/location/359235"},{"access":1,"address":"Sai International Yellor Phata, Maharashtra 416302, India","icon":"https://assets.plugshare.com/icons/Y.png","icon_type":"Y","id":304378,"latitude":16.953462,"longitude":74.275366,"name":"Hotel Sai International","score":10.0,"stations":[{"id":706733,"network_id":1012,"outlets":[{"connector":3,"id":2132670,"kilowatts":25.0,"power":0,"status":null},{"connector":13,"id":2132671,"kilowatts":25.0,"power":0,"status":null}]},{"id":706734,"network_id":1012,"outlets":[{"connector":7,"id":2132672,"kilowatts":null,"power":0,"status":null}]},{"id":706735,"network_id":1012,"outlets":[{"connector":7,"id":2132673,"kilowatts":null,"power":0,"status":null}]}],"url":"http://api.plugshare.com/view/location/304378"},{"access":1,"address":"Hotel Sai Samrat Food Mall ","icon":"https://assets.plugshare.com/icons/Y.png","icon_type":"Y","id":314414,"latitude":17.074875,"longitude":74.222706,"name":"Hotel Sai Samrat Statiq FC(30KW)","score":9.0,"stations":[{"id":732985,"outlets":[{"connector":13,"id":2204828,"kilowatts":30.0,"power":0,"status":null}]}],"url":"http://api.plugshare.com/view/location/314414"},{"access":1,"address":"SH 134, Sulgaon, Maharashtra 416505, India","icon":"https://assets.plugshare.com/icons/G.png","icon_type":"G","id":338859,"latitude":16.145094,"longitude":74.214772,"name":"Hotel Paradise Ajara Wall Charger","stations":[{"id":852614,"outlets":[{"connector":1,"id":2377242,"kilowatts":null,"power":0,"status":null}]},{"id":799615,"outlets":[{"connector":9,"id":2298575,"kilowatts":null,"power":0,"status":null}]}],"url":"http://api.plugshare.com/view/location/338859"},{"access":1,"address":"3 & 4 Rajprabha, Landmark building, No. 6, Sativali Rd, near Range Office, Golani Naka, Vasai East, Vasai-Virar, Maharashtra 401208, India","icon":"https://assets.plugshare.com/icons/YR.png","icon_type":"YR","id":304005,"latitude":19.406249,"longitude":72.860984,"name":"Suryoday Tata Motors","stations":[{"id":705790,"network_id":1012,"outlets":[{"connector":13,"id":2130710,"kilowatts":null,"power":0,"status":null}]}],"url":"http://api.plugshare.com/view/location/304005"},{"access":1,"address":"NH 48, Achchhad, Maharashtra 401606, India","icon":"https://assets.plugshare.com/icons/Y.png","icon_type":"Y","id":337073,"latitude":20.221033,"longitude":72.881452,"name":"Hotel Sahyadri Talasari Charge Zone FC","score":10.0,"stations":[{"id":794993,"outlets":[{"connector":13,"id":2292485,"kilowatts":null,"power":0,"status":null},{"connector":13,"id":2292486,"kilowatts":null,"power":0,"status":null}]}],"url":"http://api.plugshare.com/view/location/337073"},{"access":1,"address":"Ellora Heritage Resort Rd, Maharashtra 431102, India","icon":"https://assets.plugshare.com/icons/G.png","icon_type":"G","id":336775,"latitude":20.02067,"longitude":75.169485,"name":"Ellora Heritage Resort","stations":[{"id":794299,"outlets":[{"connector":9,"id":2291645,"kilowatts":null,"power":0,"status":null}]}],"url":"http://api.plugshare.com/view/location/336775"},{"access":1,"address":"MH SH 99, Shrivardhan, Maharashtra 402110, India","icon":"https://assets.plugshare.com/icons/G.png","icon_type":"G","id":304239,"latitude":18.049309,"longitude":73.01678,"name":"Dr. Todkar Wall Point","stations":[{"id":706473,"outlets":[{"connector":9,"id":2132013,"kilowatts":null,"power":0,"status":null}]}],"url":"http://api.plugshare.com/view/location/304239"},{"access":1,"address":"Auarangabad Nagpur highway ,Karmad ,","icon":"https://assets.plugshare.com/icons/G.png","icon_type":"G","id":338534,"latitude":19.866484,"longitude":75.519707,"name":"Monika Garden Restaurant","stations":[{"id":798763,"outlets":[{"connector":9,"id":2297515,"kilowatts":null,"power":0,"status":null}]}],"url":"http://api.plugshare.com/view/location/338534"},{"access":1,"address":"Bengaluru - Mumbai Hwy, Bengrutwadi, Maharashtra 412802, India","icon":"https://assets.plugshare.com/icons/G.png","icon_type":"G","id":305005,"latitude":18.030254,"longitude":74.021808,"name":"Hotel Vishram Wall Charger","stations":[{"id":708131,"outlets":[{"connector":9,"id":2135615,"kilowatts":null,"power":0,"status":null}]}],"url":"http://api.plugshare.com/view/location/305005"},{"access":1,"address":"Gat.No.30. Sinhagad Road , Gorhe Budruk .Tal- Haveli Next To Savali Resort , Off Sinhagad Road . Village Gorhe . Pune - 411025. Nearest Land-Mark - 3 km Far From Khadakwasla Dam Towards, Girinagar, Maharashtra 411025, India","icon":"https://assets.plugshare.com/icons/Y.png","icon_type":"Y","id":325872,"latitude":18.423401,"longitude":73.754553,"name":"Datson Electronics Tata Power FC","score":3.2,"stations":[{"id":764232,"outlets":[{"connector":13,"id":2252139,"kilowatts":null,"power":0,"status":null},{"connector":3,"id":2252138,"kilowatts":null,"power":0,"status":null}]}],"url":"http://api.plugshare.com/view/location/325872"},{"access":1,"address":"Ahmadnagar - Pune Rd, Palwe Kh., Maharashtra 414301, India","icon":"https://assets.plugshare.com/icons/G.png","icon_type":"G","id":306864,"latitude":18.929092,"longitude":74.488099,"name":"Shri Samartha Petrol Pump Wall Charger","stations":[{"id":712414,"outlets":[{"connector":9,"id":2143866,"kilowatts":null,"power":0,"status":null}]}],"url":"http://api.plugshare.com/view/location/306864"},{"access":1,"address":"GOGTE PLAZA, KIADB INDUSTRIAL AREA, Kakati, Belagavi, Karnataka 591113, India","icon":"https://assets.plugshare.com/icons/Y.png","icon_type":"Y","id":343415,"latitude":15.928462,"longitude":74.529029,"name":"Gogte Plaza Belgaum","score":10.0,"stations":[{"id":860176,"network_id":1012,"outlets":[{"connector":3,"id":2387790,"kilowatts":25.0,"power":0,"status":null},{"connector":13,"id":2387789,"kilowatts":25.0,"power":0,"status":null}]},{"id":812552,"network_id":1012,"outlets":[{"connector":3,"id":2387787,"kilowatts":null,"power":0,"status":null},{"connector":7,"id":2387788,"kilowatts":null,"power":0,"status":null},{"connector":13,"id":2315457,"kilowatts":null,"power":0,"status":null}]}],"url":"http://api.plugshare.com/view/location/343415"},{"access":1,"address":"No 691, Bemciel Industrial Estate Khanapur Road, NH4 A, Udyambag, next to Bemco, Udyambag Industrial Area, Udyambag, Belagavi, Karnataka 590008, India","icon":"https://assets.plugshare.com/icons/Y.png","icon_type":"Y","id":337097,"latitude":15.818485,"longitude":74.4921,"name":"TML Manickbag(25Kw)","score":10.0,"stations":[{"id":795048,"network_id":1012,"outlets":[{"connector":3,"id":2292560,"kilowatts":25.0,"power":0,"status":null},{"connector":13,"id":2292561,"kilowatts":25.0,"power":0,"status":null}]}],"url":"http://api.plugshare.com/view/location/337097"},{"access":1,"address":"Aamby Valley, Lonavala","icon":"https://assets.plugshare.com/icons/G.png","icon_type":"G","id":310551,"latitude":18.612489,"longitude":73.389675,"name":"Aamby Valley Wall Charger","stations":[{"id":722666,"outlets":[{"connector":9,"id":2168008,"kilowatts":null,"power":0,"status":null}]}],"url":"http://api.plugshare.com/view/location/310551"},{"access":1,"address":"NH60, Maharashtra 422102, India","icon":"https://assets.plugshare.com/icons/G.png","icon_type":"G","id":347421,"latitude":19.905731,"longitude":73.913032,"name":"Nashik Stud Farm","stations":[{"id":825094,"outlets":[{"connector":9,"id":2331991,"kilowatts":null,"power":0,"status":null}]}],"url":"http://api.plugshare.com/view/location/347421"},{"access":1,"address":"Aurangabad, Puna, Jikthan, Maharashtra 431133, India","icon":"https://assets.plugshare.com/icons/G.png","icon_type":"G","id":331504,"latitude":19.75375,"longitude":75.151118,"name":"Hotel Shrushti Tata Power Type-2 AC","stations":[{"id":780081,"outlets":[{"connector":7,"id":2273257,"kilowatts":null,"power":0,"status":null}]}],"url":"http://api.plugshare.com/view/location/331504"},{"access":1,"address":"Jhankar Studio Mira Road, Miragaon, Mira Road, Mira Bhayandar, Maharashtra 401107, India","icon":"https://assets.plugshare.com/icons/Y.png","icon_type":"Y","id":299281,"latitude":19.278029,"longitude":72.880365,"name":"Indrajit Tata Power FC","score":7.2,"stations":[{"id":678692,"outlets":[{"connector":13,"id":2093539,"kilowatts":null,"power":0,"status":null},{"connector":3,"id":2130699,"kilowatts":null,"power":0,"status":null}]}],"url":"http://api.plugshare.com/view/location/299281"},{"access":1,"address":"128/3/1, DSK Vishwa, Dhayari, Pune, Maharashtra 411024, India","icon":"https://assets.plugshare.com/icons/G.png","icon_type":"G","id":305013,"latitude":18.449493,"longitude":73.798644,"name":"Acumen Modular Furniture Wall Charger","stations":[{"id":708142,"outlets":[{"connector":9,"id":2135630,"kilowatts":null,"power":0,"status":null}]}],"url":"http://api.plugshare.com/view/location/305013"},{"access":1,"address":"PQV9+2XM, Khalumbre, Maharashtra 412109, India","icon":"https://assets.plugshare.com/icons/Y.png","icon_type":"Y","id":360813,"latitude":18.742735,"longitude":73.770566,"name":"Jopadevi Petroleum Tata Power FC","stations":[{"id":861682,"network_id":1012,"outlets":[{"connector":13,"id":2390322,"kilowatts":null,"power":0,"status":null}]},{"id":861683,"network_id":1012,"outlets":[{"connector":7,"id":2390323,"kilowatts":null,"power":0,"status":null}]}],"url":"http://api.plugshare.com/view/location/360813"},{"access":1,"address":"Padgha, Maharashtra 421302, India","icon":"https://assets.plugshare.com/icons/G.png","icon_type":"G","id":329772,"latitude":19.355045,"longitude":73.152972,"name":"Bhagat Tarachand Hotel Wall Charger","stations":[{"id":775331,"outlets":[{"connector":9,"id":2266985,"kilowatts":null,"power":0,"status":null}]}],"url":"http://api.plugshare.com/view/location/329772"},{"access":1,"address":"W66M+Q5C, Pradnyapuri, Maharashtra 431002, India","icon":"https://assets.plugshare.com/icons/Y.png","icon_type":"Y","id":334407,"latitude":19.912005,"longitude":75.232959,"name":"TML Satish Motors Tata Power FC","stations":[{"id":787744,"outlets":[{"connector":3,"id":2283261,"kilowatts":null,"power":0,"status":null},{"connector":13,"id":2283262,"kilowatts":null,"power":0,"status":null}]}],"url":"http://api.plugshare.com/view/location/334407"},{"access":1,"address":"Ketki, Maharashtra 415605, India","icon":"https://assets.plugshare.com/icons/G.png","icon_type":"G","id":347422,"latitude":17.567647,"longitude":73.445183,"name":"Aranyak Homestay","stations":[{"id":825095,"outlets":[{"connector":9,"id":2331992,"kilowatts":null,"power":0,"status":null}]}],"url":"http://api.plugshare.com/view/location/347422"},{"access":1,"address":"36 SV Road Santosh nagar bandra","icon":"https://assets.plugshare.com/icons/Y.png","icon_type":"Y","id":305102,"latitude":19.051507,"longitude":72.837979,"name":"IOCL kini Causway Bandra Charging Station","stations":[{"id":708317,"outlets":[{"connector":3,"id":2135934,"kilowatts":null,"power":0,"status":null},{"connector":13,"id":2135935,"kilowatts":null,"power":0,"status":null}]}],"url":"http://api.plugshare.com/view/location/305102"},{"access":1,"address":"VV57+FG Akhade, Maharashtra, India","icon":"https://assets.plugshare.com/icons/G.png","icon_type":"G","id":359034,"latitude":17.858656,"longitude":73.863808,"name":"Bhagvan Pisal Bolt Wall Charger","stations":[{"id":856824,"outlets":[{"connector":9,"id":2383256,"kilowatts":null,"power":0,"status":null}]}],"url":"http://api.plugshare.com/view/location/359034"},{"access":1,"address":"Unnamed Road, Valane, Maharashtra 412108, India","icon":"https://assets.plugshare.com/icons/G.png","icon_type":"G","id":327257,"latitude":18.541263,"longitude":73.512735,"name":"Man Vs Miles Resort Wall Charger","stations":[{"id":768344,"outlets":[{"connector":9,"id":2257794,"kilowatts":null,"power":0,"status":null}]}],"url":"http://api.plugshare.com/view/location/327257"},{"access":1,"address":"Kushaiguda Rd, Sai Nagar Colony, ECIL, Cherlapalli, Secunderabad, Telangana 500062, India","icon":"https://assets.plugshare.com/icons/Y.png","icon_type":"Y","id":307840,"latitude":17.480869,"longitude":78.577174,"name":"TML ECIL Tata Power FC","stations":[{"id":714991,"outlets":[{"connector":3,"id":2148996,"kilowatts":null,"power":0,"status":null},{"connector":13,"id":2148997,"kilowatts":null,"power":0,"status":null}]}],"url":"http://api.plugshare.com/view/location/307840"},{"access":1,"address":"MXQM+438, Pezari, Maharashtra 402108, India","icon":"https://assets.plugshare.com/icons/G.png","icon_type":"G","id":359032,"latitude":18.687788,"longitude":72.982821,"name":"Green Orbit Motors Bolt Wall Charger","stations":[{"id":856822,"outlets":[{"connector":9,"id":2383254,"kilowatts":null,"power":0,"status":null}]}],"url":"http://api.plugshare.com/view/location/359032"},{"access":1,"address":"Deep-Pradeep Engg.Works, NH166, Ram Nagar, Sangli, Maharashtra 416416, India","icon":"https://assets.plugshare.com/icons/G.png","icon_type":"G","id":325364,"latitude":16.841328,"longitude":74.563576,"name":"TML JV Motors Tata Power Type-2","stations":[{"id":762734,"outlets":[{"connector":7,"id":2250117,"kilowatts":null,"power":0,"status":null}]}],"url":"http://api.plugshare.com/view/location/325364"},{"access":1,"address":"H 25 avenue, Evershine Globle City, Dongarpada, Rustomjee Global City, Opposite Rustomjee International School, Virar West, Virar, Maharashtra 401303, India","icon":"https://assets.plugshare.com/icons/G.png","icon_type":"G","id":303971,"latitude":19.474483,"longitude":72.807781,"name":"Speedway Automobile","score":9.0,"stations":[{"id":705748,"outlets":[{"connector":9,"id":2130676,"kilowatts":null,"power":0,"status":null}]}],"url":"http://api.plugshare.com/view/location/303971"},{"access":1,"address":"1-9-1088/40/12 & 13, Osmania University Rd, Vidya Nagar, Adikmet, Hyderabad, Telangana 500044, India","icon":"https://assets.plugshare.com/icons/Y.png","icon_type":"Y","id":236818,"latitude":17.402187,"longitude":78.509275,"name":"Indian oil Rajkumar Petrol Pump","stations":[{"id":512793,"outlets":[{"connector":13,"id":1282900,"kilowatts":null,"power":0,"status":null}]}],"url":"http://api.plugshare.com/view/location/236818"},{"access":1,"address":"NH4 Old Mumbai Pune Highway, Village chowk Near HPCL Dingorkar Petrol Pump Tal- Khalapur, Dist, Chouk, Maharashtra 410206, India","icon":"https://assets.plugshare.com/icons/G.png","icon_type":"G","id":331084,"latitude":18.901763,"longitude":73.234318,"name":"Chowk Highway Service Tata Power Type-2","stations":[{"id":779032,"outlets":[{"connector":7,"id":2271844,"kilowatts":null,"power":0,"status":null}]}],"url":"http://api.plugshare.com/view/location/331084"},{"access":1,"address":"Megapolis, Phase 3 Hinjawadi, Maharashtra 411057, India","icon":"https://assets.plugshare.com/icons/G.png","icon_type":"G","id":327703,"latitude":18.574202,"longitude":73.67998,"name":"Rahul@Megapolis","stations":[{"id":769396,"outlets":[{"connector":9,"id":2259114,"kilowatts":null,"power":0,"status":null}]}],"url":"http://api.plugshare.com/view/location/327703"},{"access":1,"address":"Near ahmednagar-Aurangabad highway near Ashoka tool naka","icon":"https://assets.plugshare.com/icons/G.png","icon_type":"G","id":360826,"latitude":19.203656,"longitude":74.783084,"name":"Hotel orange valley","stations":[{"id":861713,"network_id":1060,"outlets":[{"connector":7,"id":2390357,"kilowatts":null,"power":0,"status":null}]}],"url":"http://api.plugshare.com/view/location/360826"},{"access":1,"address":"Gaurkamat Rd, Maharashtra 410201, India","icon":"https://assets.plugshare.com/icons/G.png","icon_type":"G","id":326707,"latitude":18.914813,"longitude":73.378964,"name":"Red house karjat","stations":[{"id":766675,"outlets":[{"connector":9,"id":2255402,"kilowatts":null,"power":0,"status":null}]},{"id":766676,"outlets":[{"connector":9,"id":2256179,"kilowatts":null,"power":0,"status":null}]}],"url":"http://api.plugshare.com/view/location/326707"},{"access":1,"address":"Nipani Ajra Link Rd, Maharashtra 416220, India","icon":"https://assets.plugshare.com/icons/G.png","icon_type":"G","id":334886,"latitude":16.25626,"longitude":74.283335,"name":"Rasika Garden Wall Charger","stations":[{"id":788820,"outlets":[{"connector":9,"id":2284689,"kilowatts":null,"power":0,"status":null}]},{"id":852615,"outlets":[{"connector":1,"id":2377245,"kilowatts":null,"power":0,"status":null}]}],"url":"http://api.plugshare.com/view/location/334886"},{"access":1,"address":"Outpost\u00a0Alibaug, Chorande, Mapgaon, Alibaug","icon":"https://assets.plugshare.com/icons/G.png","icon_type":"G","id":327709,"latitude":18.716928,"longitude":72.901793,"name":"Outpost@Alibaug Wall Charger","stations":[{"id":769405,"outlets":[{"connector":9,"id":2259128,"kilowatts":null,"power":0,"status":null}]}],"url":"http://api.plugshare.com/view/location/327709"},{"access":1,"address":"Jarsheshwar Rd, Mandvi Bk., Maharashtra 412107, India","icon":"https://assets.plugshare.com/icons/G.png","icon_type":"G","id":343451,"latitude":18.416767,"longitude":73.687073,"name":"IHCL Ama Stays Sangrun Tata Power Type2","stations":[{"id":812643,"outlets":[{"connector":7,"id":2315563,"kilowatts":null,"power":0,"status":null}]}],"url":"http://api.plugshare.com/view/location/343451"},{"access":1,"address":"DPS Rd, Bachupally, Hyderabad, Telangana 500090, India","icon":"https://assets.plugshare.com/icons/G.png","icon_type":"G","id":331759,"latitude":17.54688,"longitude":78.390466,"name":"HPCL Fuel Pump Chargegrid Type-2","stations":[{"id":780891,"outlets":[{"connector":7,"id":2274305,"kilowatts":null,"power":0,"status":null}]}],"url":"http://api.plugshare.com/view/location/331759"},{"access":1,"address":"B 01, Service Rd, MIDC, Shiroli, Maharashtra 416122, India","icon":"https://assets.plugshare.com/icons/Y.png","icon_type":"Y","id":303911,"latitude":16.753083,"longitude":74.279133,"name":"MG Unique Showroom TATA Power FC(25KW)","score":10.0,"stations":[{"id":705619,"outlets":[{"connector":3,"id":2130397,"kilowatts":null,"power":0,"status":null},{"connector":13,"id":2130398,"kilowatts":null,"power":0,"status":null}]}],"url":"http://api.plugshare.com/view/location/303911"},{"access":1,"address":"McDonald's, Pune Bangalore Highway NH48, Kolhapur","icon":"https://assets.plugshare.com/icons/Y.png","icon_type":"Y","id":354003,"latitude":16.686948,"longitude":74.272534,"name":"LionCharge(24KW) McDonalds Kolhapur","score":9.0,"stations":[{"id":843374,"outlets":[{"connector":13,"id":2364998,"kilowatts":null,"power":0,"status":null}]}],"url":"http://api.plugshare.com/view/location/354003"},{"access":1,"address":"Trambakeshwar Rd, Belgaon Dhaga, Nashik, Maharashtra 422007, India","icon":"https://assets.plugshare.com/icons/Y.png","icon_type":"Y","id":304720,"latitude":19.971846,"longitude":73.681268,"name":"Hotel Sanskruti","score":9.0,"stations":[{"id":707455,"outlets":[{"connector":3,"id":2134272,"kilowatts":25.0,"power":0,"status":null},{"connector":13,"id":2134273,"kilowatts":25.0,"power":0,"status":null}]}],"url":"http://api.plugshare.com/view/location/304720"},{"access":1,"address":"Royaloak Furniture (Attapur), Sai Hills Colony, Rambagh Colony, Hyderabad, Telangana 500030, India","icon":"https://assets.plugshare.com/icons/Y.png","icon_type":"Y","id":309647,"latitude":17.359175,"longitude":78.426286,"name":"Croma Attapur Tata Power FC","score":6.9,"stations":[{"id":719938,"outlets":[{"connector":3,"id":2159648,"kilowatts":null,"power":0,"status":null},{"connector":13,"id":2159649,"kilowatts":null,"power":0,"status":null}]}],"url":"http://api.plugshare.com/view/location/309647"},{"access":1,"address":"602, Sarjaa Rd, Sahil Park, Sanewadi, Aundh, Pune, Maharashtra 411007, India","icon":"https://assets.plugshare.com/icons/Y.png","icon_type":"Y","id":303918,"latitude":18.553671,"longitude":73.806945,"name":"Croma Aundh TATA Power FC","score":7.8,"stations":[{"id":705634,"outlets":[{"connector":3,"id":2130416,"kilowatts":null,"power":0,"status":null},{"connector":13,"id":2130417,"kilowatts":null,"power":0,"status":null}]}],"url":"http://api.plugshare.com/view/location/303918"},{"access":1,"address":"NH 48, Taloja, Navi Mumbai, Maharashtra 410210, India","icon":"https://assets.plugshare.com/icons/Y.png","icon_type":"Y","id":344882,"latitude":19.087329,"longitude":73.079555,"name":"Jio-bp pulse EV Charging","score":8.3,"stations":[{"id":816322,"outlets":[{"connector":13,"id":2320567,"kilowatts":null,"power":0,"status":null}]},{"id":816323,"outlets":[{"connector":13,"id":2320568,"kilowatts":null,"power":0,"status":null}]}],"url":"http://api.plugshare.com/view/location/344882"},{"access":1,"address":"Wable Wasti, Sai Satyam Park, Wagholi, Pune, Maharashtra 412207, India","icon":"https://assets.plugshare.com/icons/Y.png","icon_type":"Y","id":303993,"latitude":18.573907,"longitude":73.959055,"name":"TML Rudra Motors TATA Power FC","stations":[{"id":705776,"outlets":[{"connector":3,"id":2130664,"kilowatts":null,"power":0,"status":null},{"connector":13,"id":2130665,"kilowatts":null,"power":0,"status":null}]}],"url":"http://api.plugshare.com/view/location/303993"},{"access":1,"address":"Shop no 5, Perier Chsl, opp D-Mart, Bhabola, Husaini Colony, Vasai West, Vasai-Virar, Maharashtra 401202, India","icon":"https://assets.plugshare.com/icons/G.png","icon_type":"G","id":317383,"latitude":19.364073,"longitude":72.814306,"name":"MRE Bikes & Solar Bolt SC","stations":[{"id":740622,"outlets":[{"connector":9,"id":2220851,"kilowatts":null,"power":0,"status":null}]}],"url":"http://api.plugshare.com/view/location/317383"},{"access":1,"address":"7th floor, Parakh House, 1, Boat Club Rd, Bund Garden, Sangamvadi, Pune, Maharashtra 411001, India","icon":"https://assets.plugshare.com/icons/G.png","icon_type":"G","id":304671,"latitude":18.540381,"longitude":73.882654,"name":"MG Motors AC FC","stations":[{"id":707373,"outlets":[{"connector":7,"id":2134086,"kilowatts":null,"power":0,"status":null}]}],"url":"http://api.plugshare.com/view/location/304671"},{"access":1,"address":"Hitech City Main Rd, Ayyappa Society, Siddhi Vinayak Nagar, Kohtaguda, Telangana 500081, India","icon":"https://assets.plugshare.com/icons/Y.png","icon_type":"Y","id":307835,"latitude":17.453532,"longitude":78.383313,"name":"TML Tejaswi Automobiles Tata Power FC","stations":[{"id":714981,"outlets":[{"connector":3,"id":2148980,"kilowatts":null,"power":0,"status":null},{"connector":13,"id":2148981,"kilowatts":null,"power":0,"status":null}]}],"url":"http://api.plugshare.com/view/location/307835"},{"access":1,"address":"Pannalal Nagar, Maharashtra State Highway 30, Samadhan Colony, Konkanwadi, Aurangabad, Maharashtra 431005, India","icon":"https://assets.plugshare.com/icons/Y.png","icon_type":"Y","id":304672,"latitude":19.873011,"longitude":75.318196,"name":"MG Motors Tata Power FC","stations":[{"id":707374,"outlets":[{"connector":3,"id":2256345,"kilowatts":null,"power":0,"status":null},{"connector":13,"id":2256346,"kilowatts":null,"power":0,"status":null}]}],"url":"http://api.plugshare.com/view/location/304672"},{"access":1,"address":"426, C4 Level, Amanora Chambers, Amanora Park Town, Hadapsar, Pune, Maharashtra 411028, India","icon":"https://assets.plugshare.com/icons/Y.png","icon_type":"Y","id":303915,"latitude":18.519108,"longitude":73.936373,"name":"Amanora Mall TATA Power FC","score":5.1,"stations":[{"id":705631,"outlets":[{"connector":7,"id":2130410,"kilowatts":null,"power":0,"status":null}]},{"id":705630,"outlets":[{"connector":13,"id":2130409,"kilowatts":null,"power":0,"status":null}]}],"url":"http://api.plugshare.com/view/location/303915"},{"access":1,"address":"8th Block, Prajay Apartments, NCL Colony, Jaibery Colony, Kompally, Hyderabad, Telangana 500014, India","icon":"https://assets.plugshare.com/icons/Y.png","icon_type":"Y","id":316992,"latitude":17.531474,"longitude":78.486433,"name":"Croma Kompally","stations":[{"id":739654,"network_id":1012,"outlets":[{"connector":3,"id":2219566,"kilowatts":null,"power":0,"status":null},{"connector":13,"id":2219567,"kilowatts":null,"power":0,"status":null}]}],"url":"http://api.plugshare.com/view/location/316992"},{"access":1,"address":"Ground floor, Opp Grill 9 hotel, Karkhana Road, Vikrampuri, R & D Colony, Karkhana, Secunderabad, Telangana 500015, India","icon":"https://assets.plugshare.com/icons/Y.png","icon_type":"Y","id":322831,"latitude":17.45853,"longitude":78.50019,"name":"TML Orange Auto Tata Power FC","stations":[{"id":755531,"outlets":[{"connector":3,"id":2240547,"kilowatts":null,"power":0,"status":null},{"connector":13,"id":2240548,"kilowatts":null,"power":0,"status":null}]}],"url":"http://api.plugshare.com/view/location/322831"},{"access":1,"address":"Agarkar Nagar, Pune 411001","icon":"https://assets.plugshare.com/icons/Y.png","icon_type":"Y","id":321753,"latitude":18.526907,"longitude":73.865775,"name":"IOCL Coco Agarkar Nagar Tata Power FC","score":7.2,"stations":[{"id":752676,"outlets":[{"connector":3,"id":2236737,"kilowatts":null,"power":0,"status":"UNKNOWN"},{"connector":13,"id":2236738,"kilowatts":null,"power":0,"status":"UNKNOWN"}]}],"url":"http://api.plugshare.com/view/location/321753"},{"access":1,"address":"Unnamed Road, Pimpri, Maharashtra 412108, India","icon":"https://assets.plugshare.com/icons/G.png","icon_type":"G","id":332737,"latitude":18.497246,"longitude":73.427396,"name":"One Earth Retreat Resort Wall Socket","stations":[{"id":783513,"outlets":[{"connector":9,"id":2277669,"kilowatts":null,"power":0,"status":null}]}],"url":"http://api.plugshare.com/view/location/332737"},{"access":1,"address":"Adonis wing, Raheja Acropolis II CHS Ltd, Deonar","icon":"https://assets.plugshare.com/icons/Y.png","icon_type":"Y","id":328868,"latitude":19.047824,"longitude":72.917213,"name":"GreenShift (60KW)","stations":[{"id":772546,"outlets":[{"connector":13,"id":2263283,"kilowatts":null,"power":0,"status":null},{"connector":13,"id":2263284,"kilowatts":null,"power":0,"status":null}]}],"url":"http://api.plugshare.com/view/location/328868"},{"access":1,"address":"Nageshwar Awas Rd, Bodani, Maharashtra 402201, India","icon":"https://assets.plugshare.com/icons/G.png","icon_type":"G","id":345019,"latitude":18.76014,"longitude":72.882408,"name":"Nine Palms Ama Stay Tata Power AC Type-2","stations":[{"id":817483,"outlets":[{"connector":7,"id":2321822,"kilowatts":null,"power":0,"status":null}]}],"url":"http://api.plugshare.com/view/location/345019"},{"access":1,"address":"I.B.P. Pump, Kharabwadi, Maharashtra 410501, India","icon":"https://assets.plugshare.com/icons/G.png","icon_type":"G","id":329496,"latitude":18.759613,"longitude":73.82845,"name":"Pooja Castings, Chakan Wall Charger","stations":[{"id":774571,"outlets":[{"connector":9,"id":2265950,"kilowatts":null,"power":0,"status":null}]},{"id":774572,"outlets":[{"connector":9,"id":2265951,"kilowatts":null,"power":0,"status":null}]},{"id":774573,"outlets":[{"connector":9,"id":2265952,"kilowatts":null,"power":0,"status":null}]}],"url":"http://api.plugshare.com/view/location/329496"},{"access":1,"address":"Reliable Spaces P Ltd","icon":"https://assets.plugshare.com/icons/Y.png","icon_type":"Y","id":328704,"latitude":19.170139,"longitude":73.001351,"name":"GreenShift CP400708001","stations":[{"id":772112,"outlets":[{"connector":13,"id":2262742,"kilowatts":null,"power":0,"status":null},{"connector":13,"id":2262743,"kilowatts":null,"power":0,"status":null},{"connector":3,"id":2262744,"kilowatts":null,"power":0,"status":null}]}],"url":"http://api.plugshare.com/view/location/328704"},{"access":1,"address":"#16ABC, Mini Industrial estate, Hafeezpet, Telangana 500049","icon":"https://assets.plugshare.com/icons/Y.png","icon_type":"Y","id":327383,"latitude":17.49028,"longitude":78.354588,"name":"TATA POWER DC FC at Orange Tata Motors Service Hafeezpet","stations":[{"id":768677,"outlets":[{"connector":3,"id":2258233,"kilowatts":null,"power":0,"status":null},{"connector":13,"id":2258234,"kilowatts":null,"power":0,"status":null}]}],"url":"http://api.plugshare.com/view/location/327383"},{"access":1,"address":"Rameshwaram Darshan, Manpada cross road, near Agarwal hall, Ayodhya nagari, Dombivli East, Dombivli, Maharashtra 421201, India","icon":"https://assets.plugshare.com/icons/G.png","icon_type":"G","id":355251,"latitude":19.209337,"longitude":73.096159,"name":"Rameshwaram","stations":[{"id":846443,"outlets":[{"connector":7,"id":2369219,"kilowatts":null,"power":0,"status":null}]}],"url":"http://api.plugshare.com/view/location/355251"},{"access":1,"address":"C-101, Siddharth Nagar, Borivali East, Mumbai, Maharashtra 400066, India","icon":"https://assets.plugshare.com/icons/Y.png","icon_type":"Y","id":337133,"latitude":19.218042,"longitude":72.871036,"name":"Coming Soon - Garden State Charge Zone FC","stations":[{"id":795104,"outlets":[{"connector":13,"id":2292629,"kilowatts":null,"power":0,"status":null},{"connector":13,"id":2292630,"kilowatts":null,"power":0,"status":null}]}],"url":"http://api.plugshare.com/view/location/337133"},{"access":1,"address":"Javan Tungi Rd, Maharashtra 412108, India","icon":"https://assets.plugshare.com/icons/G.png","icon_type":"G","id":330113,"latitude":18.624244,"longitude":73.4609,"name":"Hilton Shillim Resort Wall Charger","stations":[{"id":776340,"outlets":[{"connector":9,"id":2268199,"kilowatts":null,"power":0,"status":null}]}],"url":"http://api.plugshare.com/view/location/330113"},{"access":1,"address":"Unnamed Road, Kondhale, Maharashtra 421312, India","icon":"https://assets.plugshare.com/icons/G.png","icon_type":"G","id":360025,"latitude":19.526288,"longitude":73.139202,"name":"Kondhale, Tal Wada,","stations":[{"id":859447,"outlets":[{"connector":9,"id":2386895,"kilowatts":null,"power":0,"status":null}]}],"url":"http://api.plugshare.com/view/location/360025"},{"access":1,"address":"Aditya Casa Grande Hyderabad Telangana 500075","icon":"https://assets.plugshare.com/icons/Y.png","icon_type":"Y","id":355143,"latitude":17.385151,"longitude":78.326136,"name":"Aditya Casa Grande Hyderabad Telangana","stations":[{"id":846213,"outlets":[{"connector":13,"id":2368880,"kilowatts":null,"power":0,"status":null}]}],"url":"http://api.plugshare.com/view/location/355143"},{"access":1,"address":"23/24, Chandrashekhar Agashe Path, Pulachi Wadi, Narayan Peth, Pune, Maharashtra 411030, India","icon":"https://assets.plugshare.com/icons/G.png","icon_type":"G","id":307872,"latitude":18.51663,"longitude":73.847862,"name":"KEV Bolt SC","stations":[{"id":715069,"outlets":[{"connector":9,"id":2149099,"kilowatts":null,"power":0,"status":null}]}],"url":"http://api.plugshare.com/view/location/307872"},{"access":1,"address":"Ambad, MIDC Ambad, Nashik, Maharashtra 422010, India","icon":"https://assets.plugshare.com/icons/Y.png","icon_type":"Y","id":328612,"latitude":19.950417,"longitude":73.748787,"name":"MG JITENDER Wheels Tata Power FC","score":9.0,"stations":[{"id":771951,"outlets":[{"connector":3,"id":2262538,"kilowatts":null,"power":0,"status":null},{"connector":13,"id":2262539,"kilowatts":null,"power":0,"status":null}]}],"url":"http://api.plugshare.com/view/location/328612"},{"access":1,"address":"nxt to tulja bhawani mandir, Akurdi Gaothan, Vivek Nagar, Akurdi, Pimpri-Chinchwad, Maharashtra 411035, India","icon":"https://assets.plugshare.com/icons/G.png","icon_type":"G","id":307869,"latitude":18.652387,"longitude":73.783034,"name":"JAAR Electric Station Shop No 8 Bolt SC","stations":[{"id":715066,"outlets":[{"connector":9,"id":2149096,"kilowatts":null,"power":0,"status":null}]}],"url":"http://api.plugshare.com/view/location/307869"},{"access":1,"address":"G.k.Saitej Bungalow Met Gutad Mahableshwar., opp. Grand legancy and Saj Hotel, Avakali, Maharashtra 412806, India","icon":"https://assets.plugshare.com/icons/Y.png","icon_type":"Y","id":345406,"latitude":17.925896,"longitude":73.696238,"name":"The Grand Legacy Tata Power FC","stations":[{"id":857333,"network_id":1012,"outlets":[{"connector":13,"id":2383902,"kilowatts":null,"power":0,"status":null}]},{"id":856896,"network_id":1012,"outlets":[{"connector":13,"id":2383347,"kilowatts":null,"power":0,"status":null}]},{"id":819995,"network_id":1012,"outlets":[{"connector":7,"id":2324689,"kilowatts":null,"power":0,"status":null}]}],"url":"http://api.plugshare.com/view/location/345406"},{"access":1,"address":"Plot B-104, Nerul East, Sector 28, Nerul, Navi Mumbai, Maharashtra 400706, India","icon":"https://assets.plugshare.com/icons/G.png","icon_type":"G","id":236362,"latitude":19.02136,"longitude":73.018017,"name":"Grand Central Mall Parking","stations":[{"id":511540,"outlets":[{"connector":11,"id":1278752,"kilowatts":null,"power":0,"status":null}]},{"id":511541,"outlets":[{"connector":11,"id":1278753,"kilowatts":null,"power":0,"status":null}]},{"id":511542,"outlets":[{"connector":11,"id":1278754,"kilowatts":null,"power":0,"status":null}]}],"url":"http://api.plugshare.com/view/location/236362"},{"access":1,"address":"Azad Ln, Ganga Vihar, Andheri West, Mumbai, Maharashtra 400058","icon":"https://assets.plugshare.com/icons/G.png","icon_type":"G","id":84943,"latitude":19.113523,"longitude":72.839406,"name":"405 D square vile Parle west","stations":[{"id":125596,"outlets":[{"connector":2,"id":321168,"kilowatts":null,"power":0,"status":null}]}],"url":"http://api.plugshare.com/view/location/84943"},{"access":1,"address":"Chinchoti Anjur Phata Rd, Deodal, Maharashtra 401208, India","icon":"https://assets.plugshare.com/icons/G.png","icon_type":"G","id":306313,"latitude":19.3673,"longitude":72.902083,"name":"Kaman Tatapower Nexon Home charging point","stations":[{"id":711030,"outlets":[{"connector":9,"id":2141190,"kilowatts":null,"power":0,"status":null}]}],"url":"http://api.plugshare.com/view/location/306313"},{"access":1,"address":"Chhatrapati Shivaji Maharaj Terminus, Chhatrapati Shivaji Maharaj Terminus, Chhatrapati Shivaji Terminus Area, Fort, Mumbai, Maharashtra 400001, India","icon":"https://assets.plugshare.com/icons/Y.png","icon_type":"Y","id":306320,"latitude":18.945352,"longitude":72.838277,"name":"CSMT Station Tata Power FC","stations":[{"id":711051,"outlets":[{"connector":3,"id":2141213,"kilowatts":null,"power":0,"status":null},{"connector":13,"id":2141214,"kilowatts":null,"power":0,"status":null}]}],"url":"http://api.plugshare.com/view/location/306320"},{"access":1,"address":"Lloyds Centre Point, Appasaheb Marathe Marg, Century Bazaar, Prabhadevi, Mumbai, Maharashtra 400025, India","icon":"https://assets.plugshare.com/icons/Y.png","icon_type":"Y","id":306323,"latitude":19.01294,"longitude":72.826491,"name":"TML Puneet Motors Tata Power FC","stations":[{"id":711057,"outlets":[{"connector":3,"id":2141220,"kilowatts":null,"power":0,"status":null},{"connector":13,"id":2141221,"kilowatts":null,"power":0,"status":null}]}],"url":"http://api.plugshare.com/view/location/306323"},{"access":1,"address":"Shivneri Building, Hedgewar Path, Indrayani Nagar, Nakhate Nagar, Thergaon, Pimpri-Chinchwad, Maharashtra 411017, India","icon":"https://assets.plugshare.com/icons/Y.png","icon_type":"Y","id":303906,"latitude":18.611077,"longitude":73.783115,"name":"Saibaba Autowheels TATA Power FC","stations":[{"id":705613,"outlets":[{"connector":13,"id":2130382,"kilowatts":null,"power":0,"status":null}]}],"url":"http://api.plugshare.com/view/location/303906"},{"access":1,"address":"11, Aurangabad - Phulambri - Sillod Rd, Hudco, Yadav Nagar, N 11, Cidco, Aurangabad, Maharashtra 431003, India","icon":"https://assets.plugshare.com/icons/Y.png","icon_type":"Y","id":357427,"latitude":19.911735,"longitude":75.348437,"name":"Click Hotel Cidco Tata Power FC","stations":[{"id":852311,"network_id":1012,"outlets":[{"connector":13,"id":2376785,"kilowatts":null,"power":0,"status":null}]}],"url":"http://api.plugshare.com/view/location/357427"},{"access":1,"address":"Old Agra Rd, Matoshree Nagar, Nashik, Maharashtra 422011, India","icon":"https://assets.plugshare.com/icons/Y.png","icon_type":"Y","id":304725,"latitude":19.993005,"longitude":73.78292,"name":"TML Sterling Motors Tata Power FC","stations":[{"id":768086,"outlets":[{"connector":7,"id":2257395,"kilowatts":null,"power":0,"status":null}]},{"id":707468,"outlets":[{"connector":3,"id":2134288,"kilowatts":null,"power":0,"status":null},{"connector":13,"id":2134289,"kilowatts":null,"power":0,"status":null}]}],"url":"http://api.plugshare.com/view/location/304725"},{"access":1,"address":"Satpur, Trambakeshwar Rd, MIDC, Satpur Colony, Nashik, Maharashtra 422007, India","icon":"https://assets.plugshare.com/icons/Y.png","icon_type":"Y","id":304723,"latitude":19.991498,"longitude":73.744094,"name":"Ginger Hotel","score":9.0,"stations":[{"id":707464,"outlets":[{"connector":3,"id":2134283,"kilowatts":null,"power":0,"status":null},{"connector":13,"id":2134284,"kilowatts":null,"power":0,"status":null}]},{"id":766299,"outlets":[{"connector":7,"id":2254946,"kilowatts":null,"power":0,"status":null}]}],"url":"http://api.plugshare.com/view/location/304723"},{"access":1,"address":"2X3V+2V5, Maharashtra 415536, India","icon":"https://assets.plugshare.com/icons/G.png","icon_type":"G","id":345407,"latitude":18.002579,"longitude":73.994674,"name":"Hotel Aram Regency Tata Power Type-2","score":9.0,"stations":[{"id":841984,"network_id":1012,"outlets":[{"connector":9,"id":2363108,"kilowatts":null,"power":0,"status":null}]},{"id":819996,"network_id":1012,"outlets":[{"connector":7,"id":2324690,"kilowatts":null,"power":0,"status":null}]},{"id":841982,"network_id":1012,"outlets":[{"connector":9,"id":2363106,"kilowatts":null,"power":0,"status":null}]},{"id":841983,"network_id":1012,"outlets":[{"connector":9,"id":2363107,"kilowatts":null,"power":0,"status":null}]}],"url":"http://api.plugshare.com/view/location/345407"},{"access":1,"address":"2, Inner Ring Rd, Sai Nagar, Nagole, Hyderabad, Telangana 500068, India","icon":"https://assets.plugshare.com/icons/Y.png","icon_type":"Y","id":307841,"latitude":17.364907,"longitude":78.557355,"name":"TML Select Cars Alkapuri Tata Power FC","stations":[{"id":714993,"outlets":[{"connector":3,"id":2148999,"kilowatts":null,"power":0,"status":null},{"connector":13,"id":2149000,"kilowatts":null,"power":0,"status":null}]}],"url":"http://api.plugshare.com/view/location/307841"},{"access":1,"address":"460, Central Rd N, behind Alfa Lava lRabale, T.T.C. Industrial Area, Rabale, Navi Mumbai, Maharashtra 400701, India","icon":"https://assets.plugshare.com/icons/G.png","icon_type":"G","id":354328,"latitude":19.13578,"longitude":73.018597,"name":"Anaheeta Enterprises","stations":[{"id":844248,"outlets":[{"connector":9,"id":2366299,"kilowatts":null,"power":0,"status":null}]}],"url":"http://api.plugshare.com/view/location/354328"},{"access":1,"address":"Guru Da Dhaba, Solapur - Pune Hwy, Manjri Bk, Maharashtra 412307, India","icon":"https://assets.plugshare.com/icons/Y.png","icon_type":"Y","id":314606,"latitude":18.49581,"longitude":73.978975,"name":"Ace Kudale Cycles Manjri Tata Power FC","stations":[{"id":733463,"network_id":1012,"outlets":[{"connector":3,"id":2206263,"kilowatts":null,"power":0,"status":null},{"connector":13,"id":2206264,"kilowatts":null,"power":0,"status":null}]},{"id":733464,"network_id":1012,"outlets":[{"connector":7,"id":2206265,"kilowatts":null,"power":0,"status":null}]},{"id":841972,"network_id":1012,"outlets":[{"connector":9,"id":2363096,"kilowatts":null,"power":0,"status":null}]},{"id":841973,"network_id":1012,"outlets":[{"connector":9,"id":2363097,"kilowatts":null,"power":0,"status":null}]},{"id":841974,"network_id":1012,"outlets":[{"connector":9,"id":2363098,"kilowatts":null,"power":0,"status":null}]}],"url":"http://api.plugshare.com/view/location/314606"},{"access":1,"address":"Rd Number 2, Financial District, Gachibowli, Hyderabad, Telangana 500032","icon":"https://assets.plugshare.com/icons/Y.png","icon_type":"Y","id":324363,"latitude":17.423759,"longitude":78.347385,"name":"Fairfield by Marriott Hyderabad Tata Power FC","stations":[{"id":759288,"outlets":[{"connector":3,"id":2245651,"kilowatts":null,"power":0,"status":null},{"connector":13,"id":2245652,"kilowatts":null,"power":0,"status":null}]},{"id":774066,"outlets":[{"connector":7,"id":2265307,"kilowatts":null,"power":0,"status":null}]}],"url":"http://api.plugshare.com/view/location/324363"},{"access":1,"address":"8-N - 12 , CIDCO, Rauza Bagh, Rauza Baug, N 2, Cidco, Aurangabad, Maharashtra 431003, India","icon":"https://assets.plugshare.com/icons/G.png","icon_type":"G","id":306807,"latitude":19.907603,"longitude":75.346464,"name":"Vivanta Hotel Wall Charger","stations":[{"id":712247,"outlets":[{"connector":9,"id":2143578,"kilowatts":null,"power":0,"status":null}]}],"url":"http://api.plugshare.com/view/location/306807"},{"access":1,"address":"Meena Apartment Panch Pakhadi Thane West, Dandekar Colony, Panch Pakhdi, Thane West, Thane, Maharashtra 400602, India","icon":"https://assets.plugshare.com/icons/Y.png","icon_type":"Y","id":303326,"latitude":19.1972,"longitude":72.963065,"name":"Tata Motors Heritage Thane FC","score":5.6,"stations":[{"id":703926,"outlets":[{"connector":3,"id":2127427,"kilowatts":null,"power":0,"status":null},{"connector":13,"id":2127428,"kilowatts":null,"power":0,"status":null}]}],"url":"http://api.plugshare.com/view/location/303326"},{"access":1,"address":"88, Mumbai - Agra National Hwy, next to Hotel Gateway, MIDC Ambad, Nashik, Maharashtra 422010, India","icon":"https://assets.plugshare.com/icons/G.png","icon_type":"G","id":304666,"latitude":19.955315,"longitude":73.753886,"name":"MG Motors AC FC","stations":[{"id":707367,"outlets":[{"connector":7,"id":2134073,"kilowatts":null,"power":0,"status":null}]}],"url":"http://api.plugshare.com/view/location/304666"},{"access":1,"address":"Mahindra Car showroom, Late Dhodiba Detter Patil Marg, Kalbhor Nagar, MIDC, Chinchwad, Pimpri-Chinchwad, Maharashtra 411019, India","icon":"https://assets.plugshare.com/icons/Y.png","icon_type":"Y","id":313091,"latitude":18.648617,"longitude":73.798875,"name":"TML Panchjanya Motors Tata Power FC","stations":[{"id":729431,"outlets":[{"connector":3,"id":2192308,"kilowatts":null,"power":0,"status":null},{"connector":13,"id":2192309,"kilowatts":null,"power":0,"status":null}]}],"url":"http://api.plugshare.com/view/location/313091"},{"access":1,"address":"Mina Complex A, Factory Rd, Khadki Bazar, Khadki, Pune, Maharashtra 411003, India","icon":"https://assets.plugshare.com/icons/G.png","icon_type":"G","id":328299,"latitude":18.565351,"longitude":73.850844,"name":"Vilux Theater Khadki Tata Power Type 2","stations":[{"id":771250,"outlets":[{"connector":7,"id":2261576,"kilowatts":null,"power":0,"status":null}]}],"url":"http://api.plugshare.com/view/location/328299"},{"access":1,"address":"Maker Tower 1 Wing-B, MAKER TOWER-1, Cuffe Parade, Mumbai, Maharashtra 400005, India","icon":"https://assets.plugshare.com/icons/G.png","icon_type":"G","id":347526,"latitude":18.917149,"longitude":72.816581,"name":"Maker Tower A&B Tata Power Type-2","stations":[{"id":825432,"outlets":[{"connector":7,"id":2332422,"kilowatts":null,"power":0,"status":null},{"connector":7,"id":2332423,"kilowatts":null,"power":0,"status":null}]}],"url":"http://api.plugshare.com/view/location/347526"},{"access":1,"address":"NH160, Sakori, Maharashtra 423107, India","icon":"https://assets.plugshare.com/icons/G.png","icon_type":"G","id":337055,"latitude":19.738412,"longitude":74.477031,"name":"TML Kopargaon Wall Charger","stations":[{"id":794970,"outlets":[{"connector":9,"id":2292457,"kilowatts":null,"power":0,"status":null}]}],"url":"http://api.plugshare.com/view/location/337055"},{"access":1,"address":"Magzine, Swaraj Colony, Shri Ganesh Colony, Dighi, Pimpri-Chinchwad, Maharashtra 411015, India","icon":"https://assets.plugshare.com/icons/G.png","icon_type":"G","id":329388,"latitude":18.633183,"longitude":73.874265,"name":"Hotel Pragati","stations":[{"id":774259,"outlets":[{"connector":14,"id":2265524,"kilowatts":null,"power":0,"status":null}]}],"url":"http://api.plugshare.com/view/location/329388"},{"access":1,"address":"Survey No 33, NH, Road No. 7, Sri Sai Enclave, Old Bowenpally, Hyderabad, Telangana 500011, India","icon":"https://assets.plugshare.com/icons/Y.png","icon_type":"Y","id":333846,"latitude":17.478508,"longitude":78.473808,"name":"TML Malik Cars Tata Power FC","stations":[{"id":786388,"outlets":[{"connector":13,"id":2281483,"kilowatts":null,"power":0,"status":null}]}],"url":"http://api.plugshare.com/view/location/333846"},{"access":1,"address":"Magenta TTC, Haribaba Sadhu Gaikwad Marg, Turbhe MIDC, Turbhe, Navi Mumbai, Maharashtra 400705, India","icon":"https://assets.plugshare.com/icons/Y.png","icon_type":"Y","id":328198,"latitude":19.068737,"longitude":73.022985,"name":"Magenta TTC Chargegrid FC","score":10.0,"stations":[{"id":770902,"outlets":[{"connector":13,"id":2261088,"kilowatts":null,"power":0,"status":null},{"connector":3,"id":2334845,"kilowatts":null,"power":0,"status":null}]},{"id":827212,"outlets":[{"connector":13,"id":2334843,"kilowatts":null,"power":0,"status":null},{"connector":13,"id":2334844,"kilowatts":null,"power":0,"status":null}]}],"url":"http://api.plugshare.com/view/location/328198"},{"access":1,"address":"D-232, Mumbai - Pune Hwy, MIDC Industrial Area, Shiravane, Nerul, Navi Mumbai, Maharashtra 400614, India","icon":"https://assets.plugshare.com/icons/Y.png","icon_type":"Y","id":304000,"latitude":19.036467,"longitude":73.029714,"name":"Fortune Cars TATA Power FC (25kW)","score":10.0,"stations":[{"id":705783,"network_id":1012,"outlets":[{"connector":3,"id":2130684,"kilowatts":null,"power":0,"status":null},{"connector":13,"id":2130685,"kilowatts":null,"power":0,"status":null}]}],"url":"http://api.plugshare.com/view/location/304000"},{"access":1,"address":"Unit - 2 & 3,Ground floor, Plot survey No.46, opposite Megha Women's Degree College, Pragathi Nagar, Habsiguda, Hyderabad, Telangana 500013, India","icon":"https://assets.plugshare.com/icons/Y.png","icon_type":"Y","id":307839,"latitude":17.400354,"longitude":78.542147,"name":"Croma Ramanthapur Tata Power FC","stations":[{"id":714990,"outlets":[{"connector":3,"id":2148992,"kilowatts":null,"power":0,"status":null},{"connector":13,"id":2148993,"kilowatts":null,"power":0,"status":null}]}],"url":"http://api.plugshare.com/view/location/307839"},{"access":1,"address":"near MIT college . beed bypass","icon":"https://assets.plugshare.com/icons/G.png","icon_type":"G","id":336132,"latitude":19.849829,"longitude":75.364497,"name":"metro gym","stations":[{"id":792655,"outlets":[{"connector":1,"id":2289385,"kilowatts":null,"power":0,"status":null}]},{"id":792654,"outlets":[{"connector":9,"id":2289384,"kilowatts":null,"power":0,"status":null}]}],"url":"http://api.plugshare.com/view/location/336132"},{"access":1,"address":"10-1-124, Mehdipatnam - Banjara Hills Rd, Castle Hills, Venkatadri Colony, Masab Tank, Hyderabad, Telangana 500028","icon":"https://assets.plugshare.com/icons/Y.png","icon_type":"Y","id":359241,"latitude":17.404402,"longitude":78.453788,"name":"The golkonda hotel","stations":[{"id":857265,"network_id":1,"outlets":[{"connector":13,"id":2383803,"kilowatts":null,"power":0,"status":null}]},{"id":857266,"outlets":[{"connector":7,"id":2383804,"kilowatts":null,"power":0,"status":null}]}],"url":"http://api.plugshare.com/view/location/359241"},{"access":1,"address":"Panvel Complex, Service Rd, Old Panvel, Panvel, Navi Mumbai, Maharashtra 410206, India","icon":"https://assets.plugshare.com/icons/G.png","icon_type":"G","id":335831,"latitude":18.981592,"longitude":73.115569,"name":"Hotel Pravin Tata Power AC Type 2","score":9.0,"stations":[{"id":791915,"outlets":[{"connector":7,"id":2288418,"kilowatts":null,"power":0,"status":null}]}],"url":"http://api.plugshare.com/view/location/335831"},{"access":1,"address":"33W9+G58, Sardewadi, Maharashtra 413106, India","icon":"https://assets.plugshare.com/icons/G.png","icon_type":"G","id":357429,"latitude":18.095987,"longitude":75.068116,"name":"Hotel Swamiraj Executive Tata Power Type-2","stations":[{"id":852313,"network_id":1012,"outlets":[{"connector":7,"id":2376787,"kilowatts":null,"power":0,"status":null}]}],"url":"http://api.plugshare.com/view/location/357429"},{"access":1,"address":"Sayli Restaurant, Pashan, Pune, Maharashtra 411021, India","icon":"https://assets.plugshare.com/icons/G.png","icon_type":"G","id":307871,"latitude":18.541471,"longitude":73.777881,"name":"eSakhi EV Bolt SC","stations":[{"id":715068,"outlets":[{"connector":9,"id":2149098,"kilowatts":null,"power":0,"status":null}]}],"url":"http://api.plugshare.com/view/location/307871"},{"access":1,"address":"Prem Sagar Building, Baner - Balewadi Rd, Baner, Pune, Maharashtra 411045, India","icon":"https://assets.plugshare.com/icons/G.png","icon_type":"G","id":307870,"latitude":18.571187,"longitude":73.781169,"name":"Bolt SC","stations":[{"id":715067,"outlets":[{"connector":9,"id":2149097,"kilowatts":null,"power":0,"status":null}]}],"url":"http://api.plugshare.com/view/location/307870"},{"access":1,"address":"Della Enclave Rd, Kune Village, Khandala, Kune N.m., Maharashtra 410405, India","icon":"https://assets.plugshare.com/icons/G.png","icon_type":"G","id":326876,"latitude":18.779394,"longitude":73.388002,"name":"Della Resort  Khandala Slow Charger","stations":[{"id":767243,"outlets":[{"connector":9,"id":2256178,"kilowatts":null,"power":0,"status":null}]}],"url":"http://api.plugshare.com/view/location/326876"},{"access":1,"address":"735, Jalna Road, MIDC Industrial Area, Chilkalthana, Aurangabad, Maharashtra 431001, India","icon":"https://assets.plugshare.com/icons/G.png","icon_type":"G","id":326594,"latitude":19.868856,"longitude":75.399531,"name":"IOCL Pump Tata Power Type 2","stations":[{"id":766305,"outlets":[{"connector":7,"id":2254953,"kilowatts":null,"power":0,"status":null}]}],"url":"http://api.plugshare.com/view/location/326594"},{"access":1,"address":"Plot C-68, G Block BKC, Bandra Kurla Complex, Bandra East, Mumbai, Maharashtra 400051, India","icon":"https://assets.plugshare.com/icons/Y.png","icon_type":"Y","id":306324,"latitude":19.059969,"longitude":72.864764,"name":"IOCL COCO BKC Tata Power FC","stations":[{"id":711058,"outlets":[{"connector":3,"id":2141222,"kilowatts":null,"power":0,"status":null},{"connector":13,"id":2141223,"kilowatts":null,"power":0,"status":null}]}],"url":"http://api.plugshare.com/view/location/306324"},{"access":1,"address":"Tata Motors Cars Showroom - Sree Venkateswara Motors, No 1, 4/1A, Hyderabad Rd, Borgaon, Madhavanagar, Nizamabad, Telangana 503230","icon":"https://assets.plugshare.com/icons/Y.png","icon_type":"Y","id":355556,"latitude":17.337437,"longitude":78.570132,"name":"TATA FC @ Tata Motors Cars Showroom","stations":[{"id":847290,"outlets":[{"connector":13,"id":2370290,"kilowatts":null,"power":0,"status":null}]}],"url":"http://api.plugshare.com/view/location/355556"},{"access":1,"address":"Nagaon Bandar Rd, Revdanda, Maharashtra 402204, India","icon":"https://assets.plugshare.com/icons/G.png","icon_type":"G","id":333512,"latitude":18.591667,"longitude":72.9064,"name":"Kapil's Beach Resort","stations":[{"id":785395,"outlets":[{"connector":9,"id":2288286,"kilowatts":null,"power":0,"status":null}]}],"url":"http://api.plugshare.com/view/location/333512"},{"access":1,"address":"Shop Number 1,Mittapalli Estate, Shankarsheth Road Near 7 Loves Chowk, opposite Central Bank of India, Gultekadi, Pune, Maharashtra 411037, India","icon":"https://assets.plugshare.com/icons/Y.png","icon_type":"Y","id":330786,"latitude":18.499432,"longitude":73.868065,"name":"Mahati Industries Ltd Tata Power FC","stations":[{"id":778200,"outlets":[{"connector":3,"id":2270727,"kilowatts":null,"power":0,"status":null},{"connector":13,"id":2270728,"kilowatts":null,"power":0,"status":null}]}],"url":"http://api.plugshare.com/view/location/330786"},{"access":1,"address":"B-6, Cross Road B J B Nagar, Bhim Nagar, Andheri East, Mumbai, Maharashtra 400069, India","icon":"https://assets.plugshare.com/icons/Y.png","icon_type":"Y","id":306326,"latitude":19.115699,"longitude":72.868275,"name":"Zenith Chemical MIDC Marol Tata Power FC","stations":[{"id":711060,"outlets":[{"connector":3,"id":2141225,"kilowatts":null,"power":0,"status":null},{"connector":13,"id":2141226,"kilowatts":null,"power":0,"status":null}]}],"url":"http://api.plugshare.com/view/location/306326"},{"access":1,"address":"2, Alpha Garden, Plot 26, Sector 14, Kopar Khairane, Navi Mumbai, Maharashtra 400709, India","icon":"https://assets.plugshare.com/icons/G.png","icon_type":"G","id":156017,"latitude":19.09619,"longitude":73.003023,"name":"Magenta EV Charging - 1 | Kopar Khairane | Bike & Car Charging Station","stations":[{"id":302734,"outlets":[{"connector":7,"id":576561,"kilowatts":null,"power":0,"status":null}]},{"id":302737,"outlets":[{"connector":1,"id":576563,"kilowatts":null,"power":0,"status":null}]}],"url":"http://api.plugshare.com/view/location/156017"},{"access":1,"address":"Old Mumbai - Pune Hwy, Khandala, Kune N.m., Maharashtra 410301, India","icon":"https://assets.plugshare.com/icons/G.png","icon_type":"G","id":332568,"latitude":18.759085,"longitude":73.370602,"name":"Smoky Mountains Wall Charger","stations":[{"id":783030,"outlets":[{"connector":9,"id":2277043,"kilowatts":null,"power":0,"status":null}]}],"url":"http://api.plugshare.com/view/location/332568"},{"access":1,"address":"Unit No. 4&5, Building No.5 Square Industrial Park, Tungar Phata, Western Express Hwy, near Hotel Rudra Shelter International, Vasai East, Maharashtra 401208","icon":"https://assets.plugshare.com/icons/G.png","icon_type":"G","id":349248,"latitude":19.412421,"longitude":72.879214,"name":"Max Laser Metal Works","stations":[{"id":830179,"outlets":[{"connector":9,"id":2347726,"kilowatts":null,"power":0,"status":null}]}],"url":"http://api.plugshare.com/view/location/349248"},{"access":1,"address":"G- 1104 , Abhiman Homes, Shirgaon, Maharashtra 410506, India","icon":"https://assets.plugshare.com/icons/G.png","icon_type":"G","id":359052,"latitude":18.683141,"longitude":73.687111,"name":"Abhiman Homes Shirgaon Bolt Wall Charger","stations":[{"id":856843,"outlets":[{"connector":9,"id":2383278,"kilowatts":null,"power":0,"status":null}]}],"url":"http://api.plugshare.com/view/location/359052"},{"access":1,"address":"Clue Hunt Andheri, KL Walawalkar Marg, Sahayog Nagar, Bhudargarh Colony, Andheri West, Mumbai, Maharashtra 400102, India","icon":"https://assets.plugshare.com/icons/Y.png","icon_type":"Y","id":306329,"latitude":19.130521,"longitude":72.830562,"name":"Tata Power Versova FC","stations":[{"id":711063,"outlets":[{"connector":3,"id":2141229,"kilowatts":null,"power":0,"status":null},{"connector":13,"id":2141230,"kilowatts":null,"power":0,"status":null}]}],"url":"http://api.plugshare.com/view/location/306329"},{"access":1,"address":"A, Amrut Building, 502, High Street, Hiranandani Gardens, Powai, Hiranandani Gardens, Powai, Mumbai, Maharashtra 400076, India","icon":"https://assets.plugshare.com/icons/Y.png","icon_type":"Y","id":326633,"latitude":19.11627,"longitude":72.910874,"name":"Brookfield Spectra Tata Power FC","stations":[{"id":766498,"outlets":[{"connector":3,"id":2255169,"kilowatts":null,"power":0,"status":null},{"connector":13,"id":2255170,"kilowatts":null,"power":0,"status":null}]}],"url":"http://api.plugshare.com/view/location/326633"},{"access":1,"address":"SEP-2, B- East Pirojshanagar,, 3, Vikhroli Village Rd, Pirojshanagar, Vikhroli East, Mumbai, Maharashtra 400079, India","icon":"https://assets.plugshare.com/icons/Y.png","icon_type":"Y","id":125922,"latitude":19.094964,"longitude":72.926241,"name":"Tata Power Vikhroli","score":8.6,"stations":[{"id":225455,"network_id":1012,"outlets":[{"connector":7,"id":474050,"kilowatts":null,"power":0,"status":null}]},{"id":503291,"network_id":1012,"outlets":[{"connector":3,"id":1242963,"kilowatts":null,"power":0,"status":null},{"connector":13,"id":1242964,"kilowatts":null,"power":0,"status":null}]},{"id":795112,"network_id":1012,"outlets":[{"connector":7,"id":2292638,"kilowatts":null,"power":0,"status":null}]}],"url":"http://api.plugshare.com/view/location/125922"},{"access":1,"address":"5, RTO Colony, Mumbai Central, Mumbai, Maharashtra 400011, India","icon":"https://assets.plugshare.com/icons/G.png","icon_type":"G","id":306321,"latitude":18.979747,"longitude":72.825484,"name":"Raheja Viverea Private Captive Type 2 FC","stations":[{"id":711052,"outlets":[{"connector":7,"id":2141215,"kilowatts":null,"power":0,"status":null}]},{"id":711053,"outlets":[{"connector":7,"id":2141216,"kilowatts":null,"power":0,"status":null}]}],"url":"http://api.plugshare.com/view/location/306321"},{"access":1,"address":"43, near Sridevi Theater, Jawahar Colony, Chanda Nagar, Hyderabad, Telangana 500133, India","icon":"https://assets.plugshare.com/icons/G.png","icon_type":"G","id":354985,"latitude":17.498347,"longitude":78.317361,"name":"Sri Devi theatre 3.3kW EVRE Charging","stations":[{"id":845891,"outlets":[{"connector":9,"id":2368487,"kilowatts":null,"power":0,"status":null}]}],"url":"http://api.plugshare.com/view/location/354985"},{"access":1,"address":"QF2R+8HM, Malavli, Maharashtra 410405, India","icon":"https://assets.plugshare.com/icons/G.png","icon_type":"G","id":344366,"latitude":18.750905,"longitude":73.491446,"name":"Guest Only - Om Sai Bungalow Malavli Wall Charger","stations":[{"id":815047,"outlets":[{"connector":9,"id":2318897,"kilowatts":null,"power":0,"status":null}]}],"url":"http://api.plugshare.com/view/location/344366"},{"access":1,"address":"Palm Meadows Rd, Laxmi Nagar Colony, Kompally Hyderabad Telangana 500100","icon":"https://assets.plugshare.com/icons/Y.png","icon_type":"Y","id":355144,"latitude":17.556367,"longitude":78.481118,"name":"Palm Meadows Park","stations":[{"id":846214,"outlets":[{"connector":13,"id":2368881,"kilowatts":null,"power":0,"status":null}]}],"url":"http://api.plugshare.com/view/location/355144"},{"access":1,"address":"Maharashtra 415712, India","icon":"https://assets.plugshare.com/icons/G.png","icon_type":"G","id":338903,"latitude":17.719082,"longitude":73.151961,"name":"SKYi County Ladghar Wall Charger","stations":[{"id":799735,"outlets":[{"connector":9,"id":2298723,"kilowatts":null,"power":0,"status":null}]}],"url":"http://api.plugshare.com/view/location/338903"},{"access":1,"address":"Bhose - Mahabaleshwar Rd, Maharashtra 412806, India","icon":"https://assets.plugshare.com/icons/G.png","icon_type":"G","id":305147,"latitude":17.928723,"longitude":73.69263,"name":"Saj Resort Club Mahindra","stations":[{"id":708453,"outlets":[{"connector":9,"id":2136235,"kilowatts":null,"power":0,"status":null}]}],"url":"http://api.plugshare.com/view/location/305147"},{"access":1,"address":"FCGF+75G, Pragathi Nagar, Moosapet, Hyderabad, Telangana 500072, India","icon":"https://assets.plugshare.com/icons/Y.png","icon_type":"Y","id":358454,"latitude":17.475813,"longitude":78.422887,"name":"Chennai Shopping Mall","stations":[{"id":854977,"outlets":[{"connector":13,"id":2380513,"kilowatts":null,"power":0,"status":null}]}],"url":"http://api.plugshare.com/view/location/358454"},{"access":1,"address":"735, Rd Number 37, Guttala_Begumpet, CBI Colony, Jubilee Hills, Hyderabad, Telangana 500033, India","icon":"https://assets.plugshare.com/icons/Y.png","icon_type":"Y","id":316977,"latitude":17.436042,"longitude":78.400039,"name":"HMR Madhapur Fortum FC","stations":[{"id":776361,"outlets":[{"connector":13,"id":2268222,"kilowatts":null,"power":0,"status":null},{"connector":3,"id":2268221,"kilowatts":null,"power":0,"status":null}]},{"id":739626,"outlets":[{"connector":3,"id":2219532,"kilowatts":null,"power":0,"status":null},{"connector":13,"id":2219533,"kilowatts":null,"power":0,"status":null}]},{"id":776360,"outlets":[{"connector":3,"id":2268219,"kilowatts":null,"power":0,"status":null},{"connector":13,"id":2268220,"kilowatts":null,"power":0,"status":null}]}],"url":"http://api.plugshare.com/view/location/316977"},{"access":1,"address":"V8VH+HMJ, Himayat Bagh, Aurangabad, Maharashtra 431004, India","icon":"https://assets.plugshare.com/icons/Y.png","icon_type":"Y","id":359182,"latitude":19.894125,"longitude":75.328649,"name":"AURANGABAD SMART CITY DEVELOPMENT CORPORATIONS","stations":[{"id":857127,"outlets":[{"connector":13,"id":2383627,"kilowatts":null,"power":0,"status":null}]}],"url":"http://api.plugshare.com/view/location/359182"},{"access":1,"address":"Shree Siddhivinayak Building, Maharashtra Nagar, Mankhurd, Mumbai, Maharashtra 400043, India","icon":"https://assets.plugshare.com/icons/G.png","icon_type":"G","id":337139,"latitude":19.052093,"longitude":72.940277,"name":"Tata Power Mankhurd RSS Tata Power AC Type-2","stations":[{"id":795113,"outlets":[{"connector":7,"id":2292639,"kilowatts":null,"power":0,"status":null}]}],"url":"http://api.plugshare.com/view/location/337139"},{"access":1,"address":"Renault, No 45/142/70/5/B NH 44, Santosh Nagar Road, near APSP 2nd Battalion, Kurnool, Andhra Pradesh 518003","icon":"https://assets.plugshare.com/icons/Y.png","icon_type":"Y","id":354250,"latitude":15.830814,"longitude":78.018442,"name":"TATA FC (30Kw)-Sasya Auto Cars - Renault","stations":[{"id":844031,"outlets":[{"connector":13,"id":2365946,"kilowatts":null,"power":0,"status":null}]}],"url":"http://api.plugshare.com/view/location/354250"},{"access":1,"address":"16a, Service Rd, Manpada, Ghodbunder, Thane, Maharashtra 400607, India","icon":"https://assets.plugshare.com/icons/Y.png","icon_type":"Y","id":220430,"latitude":19.232498,"longitude":72.97593,"name":"MG motors Fortum FC(50KW)","score":6.0,"stations":[{"id":503292,"outlets":[{"connector":13,"id":1242971,"kilowatts":null,"power":0,"status":null},{"connector":3,"id":1242972,"kilowatts":null,"power":0,"status":null}]}],"url":"http://api.plugshare.com/view/location/220430"},{"access":1,"address":"CTS 227, Gupha Tekdi, Western Express Hwy, opposite Bala Saheb Thackrey Hospital, HW, Jogeshwari East, Mumbai, Maharashtra 400063, India","icon":"https://assets.plugshare.com/icons/Y.png","icon_type":"Y","id":220432,"latitude":19.139947,"longitude":72.855338,"name":"MG Motors Fortum FC(50KW)","stations":[{"id":481087,"outlets":[{"connector":13,"id":1187716,"kilowatts":50.0,"power":0,"status":null},{"connector":3,"id":1131840,"kilowatts":50.0,"power":0,"status":null}]}],"url":"http://api.plugshare.com/view/location/220432"},{"access":1,"address":"4/28, Sector 10, MIDC, Bhosari, Pimpri-Chinchwad, Maharashtra 411026, India","icon":"https://assets.plugshare.com/icons/G.png","icon_type":"G","id":304962,"latitude":18.643707,"longitude":73.83178,"name":"Tork Motors Chargegrid FC","stations":[{"id":708061,"outlets":[{"connector":7,"id":2135486,"kilowatts":null,"power":0,"status":null}]}],"url":"http://api.plugshare.com/view/location/304962"},{"access":1,"address":"429, Congress Rd, Shivaji Colony, Tilakwadi, Belagavi, Karnataka 590006, India","icon":"https://assets.plugshare.com/icons/G.png","icon_type":"G","id":359053,"latitude":15.839002,"longitude":74.501903,"name":"DK Auto Traders Bolt Wall Charger","stations":[{"id":856854,"outlets":[{"connector":9,"id":2383289,"kilowatts":null,"power":0,"status":null}]},{"id":856855,"outlets":[{"connector":9,"id":2383290,"kilowatts":null,"power":0,"status":null}]}],"url":"http://api.plugshare.com/view/location/359053"},{"access":1,"address":"Pushpanjali B Law College Road, Kanchan Lane, Pune, Maharashtra 411004, India","icon":"https://assets.plugshare.com/icons/G.png","icon_type":"G","id":347865,"latitude":18.515821,"longitude":73.825358,"name":"CA DHIRAJ OSTWAL","stations":[{"id":826229,"outlets":[{"connector":14,"id":2333546,"kilowatts":null,"power":0,"status":null}]}],"url":"http://api.plugshare.com/view/location/347865"},{"access":1,"address":"RHVP+88 Sangli Miraj Kupwad, Maharashtra, India","icon":"https://assets.plugshare.com/icons/G.png","icon_type":"G","id":350061,"latitude":16.84337,"longitude":74.585862,"name":"Ashnni Pilot Statiq wall charger","stations":[{"id":832615,"outlets":[{"connector":9,"id":2350859,"kilowatts":null,"power":0,"status":null}]}],"url":"http://api.plugshare.com/view/location/350061"},{"access":1,"address":"Chakan - Nanekarwadi - Pune, Century Enka Colony, Bhosari, Pimpri-Chinchwad, Maharashtra 411039, India","icon":"https://assets.plugshare.com/icons/Y.png","icon_type":"Y","id":313090,"latitude":18.615489,"longitude":73.846258,"name":"TML Panchjanya Bhosari Tata Power FC","stations":[{"id":729430,"outlets":[{"connector":3,"id":2192306,"kilowatts":null,"power":0,"status":null},{"connector":13,"id":2192307,"kilowatts":null,"power":0,"status":null}]}],"url":"http://api.plugshare.com/view/location/313090"},{"access":1,"address":"P9XV+3FC, Thombrewadi, Lonavla, Maharashtra 410401, India","icon":"https://assets.plugshare.com/icons/G.png","icon_type":"G","id":353353,"latitude":18.746857,"longitude":73.393967,"name":"Sluice Stays Ama Tata Power Type-2","stations":[{"id":841727,"network_id":1012,"outlets":[{"connector":7,"id":2362697,"kilowatts":null,"power":0,"status":null}]}],"url":"http://api.plugshare.com/view/location/353353"},{"access":1,"address":"Q569+XMM, Asud, Dapoli, Maharashtra 415713, India","icon":"https://assets.plugshare.com/icons/G.png","icon_type":"G","id":347388,"latitude":17.761575,"longitude":73.16662,"name":"Bahar Homestay","stations":[{"id":825049,"outlets":[{"connector":9,"id":2331931,"kilowatts":null,"power":0,"status":null}]}],"url":"http://api.plugshare.com/view/location/347388"},{"access":1,"address":"157, Bhanushankar Yagnik Rd, Behind Petrolium House, Backbay Reclamation, Churchgate, Mumbai, Maharashtra 400020, India","icon":"https://assets.plugshare.com/icons/Y.png","icon_type":"Y","id":350026,"latitude":18.928713,"longitude":72.825448,"name":"HP Station Churchgate Statiq FC","score":5.8,"stations":[{"id":832537,"outlets":[{"connector":3,"id":2350761,"kilowatts":null,"power":0,"status":null},{"connector":13,"id":2350762,"kilowatts":null,"power":0,"status":null}]}],"url":"http://api.plugshare.com/view/location/350026"},{"access":1,"address":"613/4,Ganga Dham Bungalow Society, Bungalow No. 1, Sai Dham,Near Market Yard, Phase 1, Ganga Dham, Pune, Maharashtra 411037, India","icon":"https://assets.plugshare.com/icons/G.png","icon_type":"G","id":337136,"latitude":18.47862,"longitude":73.873765,"name":"Mahati Industries Tata Power AC type-2","stations":[{"id":795107,"outlets":[{"connector":7,"id":2292633,"kilowatts":null,"power":0,"status":null}]}],"url":"http://api.plugshare.com/view/location/337136"},{"access":1,"address":"7-1-25, Ameerpet Rd, Leelanagar, Begumpet","icon":"https://assets.plugshare.com/icons/Y.png","icon_type":"Y","id":356099,"latitude":17.436699,"longitude":78.454341,"name":"LionCharge Charging Station","stations":[{"id":848940,"outlets":[{"connector":13,"id":2372364,"kilowatts":null,"power":0,"status":null}]},{"id":848939,"outlets":[{"connector":7,"id":2372363,"kilowatts":null,"power":0,"status":null}]}],"url":"http://api.plugshare.com/view/location/356099"},