[{"access":1,"address":"2, AB Rd, Anoop Nagar, Indore, Madhya Pradesh 452001, India","icon":"https://assets.plugshare.com/icons/Y.png","icon_type":"Y","id":304447,"latitude":22.730118,"longitude":75.888844,"name":"MG Motors Hriday Tata Power FC","stations":[{"id":706897,"outlets":[{"connector":3,"id":2133058,"kilowatts":null,"power":0,"status":null},{"connector":13,"id":2133059,"kilowatts":null,"power":0,"status":null}]}],"url":"http://api.plugshare.com/view/location/304447"},{"access":1,"address":"Congress Nagar Rd, Maltekdi, Amravati, Maharashtra 444606, India","icon":"https://assets.plugshare.com/icons/G.png","icon_type":"G","id":305140,"latitude":20.928727,"longitude":77.758512,"name":"Jadhav Solar Wall Charger","stations":[{"id":708438,"outlets":[{"connector":9,"id":2136208,"kilowatts":null,"power":0,"status":null}]}],"url":"http://api.plugshare.com/view/location/305140"},{"access":1,"address":"Nawathe Stop, Badnera Rd, Vidhya Vihar Colony, Navathe Nagar, Amravati, Maharashtra 444607, India","icon":"https://assets.plugshare.com/icons/Y.png","icon_type":"Y","id":330618,"latitude":20.909467,"longitude":77.752234,"name":"Hotel Rangoli Pearl Tata Power FC(25kw)","score":9.0,"stations":[{"id":777465,"outlets":[{"connector":3,"id":2269778,"kilowatts":null,"power":0,"status":null},{"connector":13,"id":2269779,"kilowatts":null,"power":0,"status":null}]},{"id":777466,"outlets":[{"connector":7,"id":2269780,"kilowatts":null,"power":0,"status":null}]}],"url":"http://api.plugshare.com/view/location/330618"},{"access":1,"address":"Plot No.5, Samithi School Rd, Patel Nagar, Udhyog Darshan Society, Om Shree Sai Jalaram Nagar, Udhna, Surat, Gujarat 394210, India","icon":"https://assets.plugshare.com/icons/Y.png","icon_type":"Y","id":269920,"latitude":21.16493,"longitude":72.835873,"name":"Chevrolet Service Center","stations":[{"id":594947,"outlets":[{"connector":13,"id":1648557,"kilowatts":null,"power":0,"status":null}]},{"id":594948,"outlets":[{"connector":3,"id":1648558,"kilowatts":null,"power":0,"status":null}]}],"url":"http://api.plugshare.com/view/location/269920"},{"access":1,"address":"J\u0101lgaon\u200e 425003, Maharashtra, Inde","icon":"https://assets.plugshare.com/icons/Y.png","icon_type":"Y","id":119430,"latitude":20.984063,"longitude":75.594443,"name":"MASSTECH Fast Charger","stations":[{"id":209042,"outlets":[{"connector":13,"id":2143966,"kilowatts":null,"power":0,"status":null}]}],"url":"http://api.plugshare.com/view/location/119430"},{"access":1,"address":"11, near CANARA BANK - GENERAL BRANCH, MIDC, Satpur Colony, Nashik, Maharashtra 422007, India","icon":"https://assets.plugshare.com/icons/G.png","icon_type":"G","id":303947,"latitude":19.99089,"longitude":73.738775,"name":"ibis Nashik Wall Charger","stations":[{"id":705706,"outlets":[{"connector":9,"id":2130551,"kilowatts":null,"power":0,"status":null}]}],"url":"http://api.plugshare.com/view/location/303947"},{"access":1,"address":"Nizamabad - Hyderabad Road, Rode, opposite TATA Motors, Madhavanagar, Pangra, Telangana 503230, India","icon":"https://assets.plugshare.com/icons/Y.png","icon_type":"Y","id":355868,"latitude":18.656429,"longitude":78.123708,"name":"TML Sree Venkateswara Motors Tata Power FC(25KW)","stations":[{"id":848397,"network_id":1012,"outlets":[{"connector":13,"id":2371655,"kilowatts":null,"power":0,"status":null}]}],"url":"http://api.plugshare.com/view/location/355868"},{"access":1,"address":"In front of Railyway colony ganj betul 312chhitranjan nagar, near of Agarwal petrol pump, Ganj, Betul, Madhya Pradesh 460001, India","icon":"https://assets.plugshare.com/icons/G.png","icon_type":"G","id":307530,"latitude":21.897102,"longitude":77.901787,"name":"GK Motors Bolt SC","stations":[{"id":714184,"outlets":[{"connector":9,"id":2147482,"kilowatts":null,"power":0,"status":null}]}],"url":"http://api.plugshare.com/view/location/307530"},{"access":1,"address":"C/o Devki Sadan Bhavsar Nagar, Nanded Malegaon Rd, Ashtvinayak Nagar, Nanded, Maharashtra 431605, India","icon":"https://assets.plugshare.com/icons/G.png","icon_type":"G","id":337624,"latitude":19.190332,"longitude":77.299373,"name":"Vinayak EV Wall Charger","stations":[{"id":796395,"outlets":[{"connector":9,"id":2294299,"kilowatts":null,"power":0,"status":null}]}],"url":"http://api.plugshare.com/view/location/337624"},{"access":1,"address":"LifeOn Industries, D-298, T.T.C. Industrial Area, Turbhe, Navi Mumbai, Maharashtra 400705","icon":"https://assets.plugshare.com/icons/G.png","icon_type":"G","id":156021,"latitude":19.068721,"longitude":73.022564,"name":"Magenta EV Charging - 3 | Turbhe | Car Charging Station","stations":[{"id":302740,"outlets":[{"connector":14,"id":582705,"kilowatts":null,"power":0,"status":null}]},{"id":302741,"outlets":[{"connector":1,"id":576567,"kilowatts":null,"power":0,"status":null}]}],"url":"http://api.plugshare.com/view/location/156021"},{"access":1,"address":"RPHX+JC Tikhi, Maharashtra, India","icon":"https://assets.plugshare.com/icons/Y.png","icon_type":"Y","id":354362,"latitude":20.829098,"longitude":74.748613,"name":"Coming Soon - Hotel Bliss County Dhule Statiq 60KW FC","stations":[{"id":844318,"outlets":[{"connector":13,"id":2366393,"kilowatts":null,"power":0,"status":null},{"connector":13,"id":2366394,"kilowatts":null,"power":0,"status":null}]},{"id":844319,"outlets":[{"connector":7,"id":2366395,"kilowatts":null,"power":0,"status":null}]},{"id":844320,"outlets":[{"connector":9,"id":2366396,"kilowatts":null,"power":0,"status":null}]}],"url":"http://api.plugshare.com/view/location/354362"},{"access":1,"address":"Majalagaon Dist Beed Maharashtra Pin: 431131","icon":"https://assets.plugshare.com/icons/Y.png","icon_type":"Y","id":361409,"latitude":19.177881,"longitude":76.168026,"name":"Majalagaon Dist Beed","stations":[{"id":863353,"outlets":[{"connector":13,"id":2392569,"kilowatts":null,"power":0,"status":null},{"connector":13,"id":2392570,"kilowatts":null,"power":0,"status":null},{"connector":3,"id":2392571,"kilowatts":null,"power":0,"status":null}]}],"url":"http://api.plugshare.com/view/location/361409"},{"access":1,"address":"Plot No E35 MIDC Area, Chikalthana Near Prozone Mall, MIDC Industrial Area, Chilkalthana, Aurangabad, Maharashtra 431006, India","icon":"https://assets.plugshare.com/icons/Y.png","icon_type":"Y","id":304059,"latitude":19.880472,"longitude":75.372491,"name":"Satish Motors Tata Power FC","stations":[{"id":706021,"outlets":[{"connector":13,"id":2131025,"kilowatts":null,"power":0,"status":null}]}],"url":"http://api.plugshare.com/view/location/304059"},{"access":1,"address":"National Highway 3, near to Mp Rto Checkpost, Deola, Madhya Pradesh 451449, India","icon":"https://assets.plugshare.com/icons/G.png","icon_type":"G","id":328166,"latitude":21.845008,"longitude":75.196268,"name":"Rajhans Hotel Wall Charger","stations":[{"id":770817,"outlets":[{"connector":9,"id":2260963,"kilowatts":null,"power":0,"status":null}]}],"url":"http://api.plugshare.com/view/location/328166"},{"access":1,"address":"NH 48, Salvav, Vapi, Gujarat 396185, India","icon":"https://assets.plugshare.com/icons/G.png","icon_type":"G","id":303976,"latitude":20.41427,"longitude":72.917256,"name":"Ginger Hotel Wall Charger","stations":[{"id":705753,"outlets":[{"connector":9,"id":2130632,"kilowatts":null,"power":0,"status":null}]}],"url":"http://api.plugshare.com/view/location/303976"},{"access":1,"address":"Patne Market, Ranpise Nagar, opp. Surbhi Hotel, Ranpise Nagar, Akola, Maharashtra 444001, India","icon":"https://assets.plugshare.com/icons/G.png","icon_type":"G","id":328713,"latitude":20.707854,"longitude":77.016955,"name":"Hemant Nawkar Bolt Wall Charger","stations":[{"id":772123,"outlets":[{"connector":9,"id":2262756,"kilowatts":null,"power":0,"status":null}]}],"url":"http://api.plugshare.com/view/location/328713"},{"access":1,"address":"Rama mander road, Raje Sambhaji Nagar, Mirza Nagar, Buldana, Maharashtra 443001, India","icon":"https://assets.plugshare.com/icons/G.png","icon_type":"G","id":328712,"latitude":20.536019,"longitude":76.186203,"name":"Ayodhya Nagar Bolt Wall Charger","stations":[{"id":772122,"outlets":[{"connector":9,"id":2262755,"kilowatts":null,"power":0,"status":null}]}],"url":"http://api.plugshare.com/view/location/328712"},{"access":1,"address":"Ankleshwar - Burhanpur Hwy, Narayan Nagar, Swami Vivekanand Nagar, Shahada, Maharashtra 425409, India","icon":"https://assets.plugshare.com/icons/G.png","icon_type":"G","id":307527,"latitude":21.535057,"longitude":74.473715,"name":"Raj Motors Bolt SC","stations":[{"id":714181,"outlets":[{"connector":9,"id":2147479,"kilowatts":null,"power":0,"status":null}]}],"url":"http://api.plugshare.com/view/location/307527"},{"access":1,"address":"Indore - Bhopal Rd, Guradiya Bada, Madhya Pradesh 466221, India","icon":"https://assets.plugshare.com/icons/Y.png","icon_type":"Y","id":353143,"latitude":22.996811,"longitude":76.554601,"name":"Sol Retreat","stations":[{"id":841268,"outlets":[{"connector":13,"id":2361803,"kilowatts":null,"power":0,"status":null}]}],"url":"http://api.plugshare.com/view/location/353143"},{"access":1,"address":"Unnamed Road, Gujarat 393151, India","icon":"https://assets.plugshare.com/icons/Y.png","icon_type":"Y","id":325433,"latitude":21.885796,"longitude":73.688162,"name":"IOCL Pump Tata Power FC","stations":[{"id":762898,"outlets":[{"connector":13,"id":2250330,"kilowatts":null,"power":0,"status":null},{"connector":3,"id":2250329,"kilowatts":null,"power":0,"status":null}]}],"url":"http://api.plugshare.com/view/location/325433"},{"access":1,"address":"Kasara Dumala Rd, Kasarwadi, Sangamner, Maharashtra 422605, India","icon":"https://assets.plugshare.com/icons/G.png","icon_type":"G","id":303955,"latitude":19.561169,"longitude":74.199436,"name":"Malpani Palace Wall Charger","stations":[{"id":705720,"outlets":[{"connector":9,"id":2130571,"kilowatts":null,"power":0,"status":null}]}],"url":"http://api.plugshare.com/view/location/303955"},{"access":1,"address":"Darwha Rd, Gadhwale Twp, Karanja, Maharashtra 444105, India","icon":"https://assets.plugshare.com/icons/G.png","icon_type":"G","id":328714,"latitude":20.481006,"longitude":77.479553,"name":"Ashwin Auto Services Bolt Wall Charger","stations":[{"id":772124,"outlets":[{"connector":9,"id":2262759,"kilowatts":null,"power":0,"status":null}]}],"url":"http://api.plugshare.com/view/location/328714"},{"access":1,"address":"Belwandi Phata Bus Stop, MH SH 27, Maharashtra 414302, India","icon":"https://assets.plugshare.com/icons/G.png","icon_type":"G","id":305017,"latitude":18.84691,"longitude":74.405937,"name":"Om Sai Traders Wall Charger","stations":[{"id":708146,"outlets":[{"connector":9,"id":2135634,"kilowatts":null,"power":0,"status":null}]}],"url":"http://api.plugshare.com/view/location/305017"},{"access":1,"address":"Mantha Road , Jalna , Maharashtra ","icon":"https://assets.plugshare.com/icons/G.png","icon_type":"G","id":343009,"latitude":19.843815,"longitude":75.922004,"name":"Hotel Shreeji , Jalna , Maharashtra","stations":[{"id":811432,"outlets":[{"connector":9,"id":2313913,"kilowatts":null,"power":0,"status":null}]}],"url":"http://api.plugshare.com/view/location/343009"},{"access":1,"address":"Sadguru Furniture Mall, Nashik - Pune Hwy, Bhorwadi, Maharashtra 410504, India","icon":"https://assets.plugshare.com/icons/Y.png","icon_type":"Y","id":309292,"latitude":19.138772,"longitude":74.016778,"name":"Sadguru Furniture Mall","stations":[{"id":721286,"outlets":[{"connector":13,"id":2191322,"kilowatts":null,"power":0,"status":null},{"connector":13,"id":2163599,"kilowatts":null,"power":0,"status":null}]}],"url":"http://api.plugshare.com/view/location/309292"},{"access":1,"address":"Adharsha Nagar 1st Cross Rd, Aadarsh Nagar, Kurul, Alibag, Maharashtra 402209, India","icon":"https://assets.plugshare.com/icons/G.png","icon_type":"G","id":305025,"latitude":18.647772,"longitude":72.892008,"name":"Mountain View Cottage Wall Charger","stations":[{"id":708159,"outlets":[{"connector":9,"id":2135656,"kilowatts":null,"power":0,"status":null}]}],"url":"http://api.plugshare.com/view/location/305025"},{"access":1,"address":"6V7X+44 Chapda Mal, Madhya Pradesh, India","icon":"https://assets.plugshare.com/icons/G.png","icon_type":"G","id":350929,"latitude":22.212856,"longitude":77.897829,"name":"HP Gupta Fuels Betul Chargegrid Type-2","stations":[{"id":835616,"outlets":[{"connector":7,"id":2354902,"kilowatts":null,"power":0,"status":null}]}],"url":"http://api.plugshare.com/view/location/350929"},{"access":1,"address":"MGRW+Q5G, Talegaon, Igatpuri, Maharashtra 422402, India","icon":"https://assets.plugshare.com/icons/G.png","icon_type":"G","id":352730,"latitude":19.69166,"longitude":73.545622,"name":"Rakabi Fern Hotel Igatpuri Wall Charger","stations":[{"id":840160,"outlets":[{"connector":9,"id":2360316,"kilowatts":null,"power":0,"status":null}]}],"url":"http://api.plugshare.com/view/location/352730"},{"access":1,"address":"36QX+M75, Nashik, Maharashtra 422305, India","icon":"https://assets.plugshare.com/icons/G.png","icon_type":"G","id":352670,"latitude":20.088195,"longitude":74.249279,"name":"Shree Datta Petroleum HP E Charge","stations":[{"id":840035,"outlets":[{"connector":7,"id":2360134,"kilowatts":null,"power":0,"status":null},{"connector":24,"id":2360135,"kilowatts":null,"power":0,"status":null}]}],"url":"http://api.plugshare.com/view/location/352670"},{"access":1,"address":"Hotel Kismat Kathiyawadi, NH 48, Mumbai Ahmedabad Highway, Near Vadalla, Bharuch, Gujarat","icon":"https://assets.plugshare.com/icons/Y.png","icon_type":"Y","id":337728,"latitude":21.750191,"longitude":73.019633,"name":"Hotel Kismat Kathiyawadi","score":9.0,"stations":[{"id":796678,"outlets":[{"connector":3,"id":2294694,"kilowatts":null,"power":0,"status":null},{"connector":13,"id":2294695,"kilowatts":null,"power":0,"status":null}]}],"url":"http://api.plugshare.com/view/location/337728"},{"access":1,"address":"NH 48, Gujarat 391240, India","icon":"https://assets.plugshare.com/icons/Y.png","icon_type":"Y","id":337130,"latitude":22.023883,"longitude":73.117433,"name":"Honest  Restaurant Charge Zone FC","score":9.0,"stations":[{"id":795098,"outlets":[{"connector":13,"id":2292621,"kilowatts":null,"power":0,"status":null},{"connector":13,"id":2292622,"kilowatts":null,"power":0,"status":null}]}],"url":"http://api.plugshare.com/view/location/337130"},{"access":1,"address":"Baliram Singh Rd, Bamane, Maharashtra 421601, India","icon":"https://assets.plugshare.com/icons/G.png","icon_type":"G","id":305014,"latitude":19.446231,"longitude":73.347207,"name":"Cibco Escape Resort Wall Charger","stations":[{"id":708143,"outlets":[{"connector":9,"id":2135631,"kilowatts":null,"power":0,"status":null}]}],"url":"http://api.plugshare.com/view/location/305014"},{"access":1,"address":"Unnamed Road, Maharashtra 423701, India","icon":"https://assets.plugshare.com/icons/G.png","icon_type":"G","id":328688,"latitude":19.801546,"longitude":74.881573,"name":"Bhau Enterprises Chargegrid Type 2","stations":[{"id":772088,"outlets":[{"connector":7,"id":2262711,"kilowatts":null,"power":0,"status":null}]}],"url":"http://api.plugshare.com/view/location/328688"},{"access":1,"address":"Navsari Exit, GIDC Kabilpore, Navsari, Gujarat 396445, India","icon":"https://assets.plugshare.com/icons/Y.png","icon_type":"Y","id":337072,"latitude":20.944351,"longitude":72.963018,"name":"Hotel Fun City","score":10.0,"stations":[{"id":794992,"outlets":[{"connector":13,"id":2292483,"kilowatts":null,"power":0,"status":null},{"connector":13,"id":2292484,"kilowatts":null,"power":0,"status":null}]}],"url":"http://api.plugshare.com/view/location/337072"},{"access":1,"address":"22RW+H27, Barwani, Madhya Pradesh 451556, India","icon":"https://assets.plugshare.com/icons/G.png","icon_type":"G","id":350922,"latitude":22.041473,"longitude":75.04553,"name":"HPCL Anjad Chargegrid Type-2","stations":[{"id":835609,"outlets":[{"connector":7,"id":2354893,"kilowatts":null,"power":0,"status":null}]}],"url":"http://api.plugshare.com/view/location/350922"},{"access":1,"address":"hathikhana,Newr sbi atm,barumal road,dharmpur","icon":"https://assets.plugshare.com/icons/G.png","icon_type":"G","id":352132,"latitude":20.533058,"longitude":73.178886,"name":"Viren Home Charging Station","stations":[{"id":838686,"outlets":[{"connector":9,"id":2358509,"kilowatts":null,"power":0,"status":null}]}],"url":"http://api.plugshare.com/view/location/352132"},{"access":1,"address":"XQWX+XPH, Shiv Aradhna, Kuha, Gujarat 382433, India","icon":"https://assets.plugshare.com/icons/Y.png","icon_type":"Y","id":341273,"latitude":22.997434,"longitude":72.799368,"name":"IOCL Jay Petrol Pump Tata Power FC","stations":[{"id":806813,"outlets":[{"connector":13,"id":2307748,"kilowatts":null,"power":0,"status":null}]}],"url":"http://api.plugshare.com/view/location/341273"},{"access":1,"address":"MWM5+GW7, Haloli, Maharashtra 401404, India","icon":"https://assets.plugshare.com/icons/G.png","icon_type":"G","id":347661,"latitude":19.685009,"longitude":72.90873,"name":"Shree Saikrupa Dhabha Bolt Wall Charger","stations":[{"id":825811,"outlets":[{"connector":9,"id":2332959,"kilowatts":null,"power":0,"status":null}]}],"url":"http://api.plugshare.com/view/location/347661"},{"access":1,"address":"Q499+38 Sannod, Madhya Pradesh, India","icon":"https://assets.plugshare.com/icons/G.png","icon_type":"G","id":350926,"latitude":22.767673,"longitude":76.118333,"name":"Vijay Lakshmi Fuel Pump Chargegrid Type-2","stations":[{"id":835613,"outlets":[{"connector":7,"id":2354897,"kilowatts":null,"power":0,"status":null}]}],"url":"http://api.plugshare.com/view/location/350926"},{"access":1,"address":"XHPG+3C7, Kamargaon, Maharashtra 414301, India","icon":"https://assets.plugshare.com/icons/Y.png","icon_type":"Y","id":334408,"latitude":18.985231,"longitude":74.576013,"name":"Hotel Smile Stone","score":6.2,"stations":[{"id":787746,"outlets":[{"connector":7,"id":2283265,"kilowatts":null,"power":0,"status":null}]},{"id":787745,"outlets":[{"connector":3,"id":2283263,"kilowatts":null,"power":0,"status":null},{"connector":13,"id":2283264,"kilowatts":null,"power":0,"status":null}]}],"url":"http://api.plugshare.com/view/location/334408"},{"access":1,"address":"FP6P+45 Tinchha, Madhya Pradesh, India","icon":"https://assets.plugshare.com/icons/G.png","icon_type":"G","id":350924,"latitude":22.460316,"longitude":75.735465,"name":"Balaji Petrol Pump Chargegrid Type-2","stations":[{"id":835611,"outlets":[{"connector":7,"id":2354895,"kilowatts":null,"power":0,"status":null}]}],"url":"http://api.plugshare.com/view/location/350924"},{"access":1,"address":"Sendhwa, Madhya Pradesh 451666, India","icon":"https://assets.plugshare.com/icons/G.png","icon_type":"G","id":359117,"latitude":21.671767,"longitude":75.084684,"name":"Shree Garden & Resorts","stations":[{"id":857014,"outlets":[{"connector":9,"id":2383481,"kilowatts":null,"power":0,"status":null}]}],"url":"http://api.plugshare.com/view/location/359117"},{"access":1,"address":"Unnamed Road, Khaire Nagad, Maharashtra 412218, India","icon":"https://assets.plugshare.com/icons/G.png","icon_type":"G","id":357130,"latitude":18.818439,"longitude":74.095693,"name":"Sagars Place","stations":[{"id":851649,"outlets":[{"connector":9,"id":2375923,"kilowatts":null,"power":0,"status":null}]}],"url":"http://api.plugshare.com/view/location/357130"},{"access":1,"address":"JW92+C7H, Nagaon, Maharashtra 402204, India","icon":"https://assets.plugshare.com/icons/Y.png","icon_type":"Y","id":354360,"latitude":18.618676,"longitude":72.900579,"name":"Nandavan Nagaon Statiq","stations":[{"id":844314,"outlets":[{"connector":13,"id":2366389,"kilowatts":30.0,"power":0,"status":null}]},{"id":844315,"outlets":[{"connector":7,"id":2366390,"kilowatts":null,"power":0,"status":null}]},{"id":844316,"outlets":[{"connector":9,"id":2366391,"kilowatts":null,"power":0,"status":null}]}],"url":"http://api.plugshare.com/view/location/354360"},{"access":1,"address":"Borawakenagar Rd, Shrirampur, Maharashtra 413709, India","icon":"https://assets.plugshare.com/icons/G.png","icon_type":"G","id":307524,"latitude":19.620816,"longitude":74.674803,"name":"Famous Cafe","stations":[{"id":714178,"outlets":[{"connector":9,"id":2147472,"kilowatts":null,"power":0,"status":null}]}],"url":"http://api.plugshare.com/view/location/307524"},{"access":1,"address":"Loni-Shrirampur Rd, Loni Kh., Maharashtra 413713, India","icon":"https://assets.plugshare.com/icons/G.png","icon_type":"G","id":307525,"latitude":19.591985,"longitude":74.485164,"name":"Jai Mata Di Auto Bolt SC","stations":[{"id":714179,"outlets":[{"connector":9,"id":2147477,"kilowatts":null,"power":0,"status":null}]}],"url":"http://api.plugshare.com/view/location/307525"},{"access":1,"address":"NH60, Narayangaon, Maharashtra 410504, India","icon":"https://assets.plugshare.com/icons/G.png","icon_type":"G","id":305016,"latitude":19.09896,"longitude":73.968911,"name":"KvK Narayangaon Wall Charger","stations":[{"id":708145,"outlets":[{"connector":9,"id":2135633,"kilowatts":null,"power":0,"status":null}]}],"url":"http://api.plugshare.com/view/location/305016"},{"access":1,"address":"R3RM+6G, Kedarpur, Maharashtra, India","icon":"https://assets.plugshare.com/icons/G.png","icon_type":"G","id":350643,"latitude":19.840823,"longitude":74.083932,"name":"Sameer Avhad","stations":[{"id":834634,"network_id":1,"outlets":[{"connector":9,"id":2353633,"kilowatts":null,"power":0,"status":null}]}],"url":"http://api.plugshare.com/view/location/350643"},{"access":1,"address":"Maharashtra State Highway 17, Maharashtra 422202, India","icon":"https://assets.plugshare.com/icons/Y.png","icon_type":"Y","id":348437,"latitude":20.169345,"longitude":73.825561,"name":"Vrundavan Garden Statiq FC","stations":[{"id":827896,"outlets":[{"connector":13,"id":2344369,"kilowatts":null,"power":0,"status":null},{"connector":13,"id":2350763,"kilowatts":null,"power":0,"status":null}]}],"url":"http://api.plugshare.com/view/location/348437"},{"access":1,"address":"Rui Shiv Rd, Shirdi, Maharashtra 423109, India","icon":"https://assets.plugshare.com/icons/G.png","icon_type":"G","id":311278,"latitude":19.772366,"longitude":74.480588,"name":"St Laurn Resort Shirdi Wall Charger","stations":[{"id":724458,"outlets":[{"connector":9,"id":2173531,"kilowatts":null,"power":0,"status":null}]}],"url":"http://api.plugshare.com/view/location/311278"},{"access":1,"address":"D104, Sonanagar, Valsad, Gujarat 396001, India","icon":"https://assets.plugshare.com/icons/G.png","icon_type":"G","id":310694,"latitude":20.589273,"longitude":72.934564,"name":"Dev E Motors Bolt SC","stations":[{"id":723050,"outlets":[{"connector":9,"id":2169327,"kilowatts":null,"power":0,"status":null}]}],"url":"http://api.plugshare.com/view/location/310694"},{"access":1,"address":"National Highway 65 Yavat, Uruli Kanchan, Maharashtra 412202, India","icon":"https://assets.plugshare.com/icons/Y.png","icon_type":"Y","id":337689,"latitude":18.487555,"longitude":74.146223,"name":"Sonaee Veg Family Restaurant Tata Power FC","score":8.3,"stations":[{"id":798279,"outlets":[{"connector":3,"id":2296773,"kilowatts":null,"power":0,"status":null},{"connector":13,"id":2296774,"kilowatts":null,"power":0,"status":null}]}],"url":"http://api.plugshare.com/view/location/337689"},{"access":1,"address":"Tamhini Ghat Rd, Varak, Maharashtra 412108, India","icon":"https://assets.plugshare.com/icons/G.png","icon_type":"G","id":303944,"latitude":18.46586,"longitude":73.466458,"name":"Encore Resort Wall Charger","stations":[{"id":705703,"outlets":[{"connector":9,"id":2130546,"kilowatts":null,"power":0,"status":null}]}],"url":"http://api.plugshare.com/view/location/303944"},{"access":1,"address":"XWRV+J25, Patilwada, Manchar, Maharashtra 410503, India","icon":"https://assets.plugshare.com/icons/Y.png","icon_type":"Y","id":346008,"latitude":18.991524,"longitude":73.942613,"name":"Rama Automobile Manchar","score":9.0,"stations":[{"id":821616,"outlets":[{"connector":13,"id":2326930,"kilowatts":null,"power":0,"status":null}]}],"url":"http://api.plugshare.com/view/location/346008"},{"access":1,"address":"Nashik - Pune Hwy, Waki Kh., Maharashtra 410501, India","icon":"https://assets.plugshare.com/icons/Y.png","icon_type":"Y","id":303907,"latitude":18.779135,"longitude":73.871364,"name":"TML Sridhar Motors TATA Power FC","stations":[{"id":705614,"outlets":[{"connector":3,"id":2130388,"kilowatts":null,"power":0,"status":null},{"connector":13,"id":2130389,"kilowatts":null,"power":0,"status":null}]}],"url":"http://api.plugshare.com/view/location/303907"},{"access":1,"address":"Kopargaon - Shirdi - Ahmednagar - Pune Hwy, Gajanan Colony, MIDC, Ahmednagar, Maharashtra 414111, India","icon":"https://assets.plugshare.com/icons/Y.png","icon_type":"Y","id":303990,"latitude":19.157331,"longitude":74.703751,"name":"Max Motors Tata Power FC","score":6.9,"stations":[{"id":705770,"outlets":[{"connector":3,"id":2130656,"kilowatts":null,"power":0,"status":null},{"connector":13,"id":2130657,"kilowatts":null,"power":0,"status":null}]}],"url":"http://api.plugshare.com/view/location/303990"},{"access":1,"address":"Ahmednagar - Aurangabad Rd, Pandharichapool, Maharashtra 414106, India","icon":"https://assets.plugshare.com/icons/Y.png","icon_type":"Y","id":303991,"latitude":19.264813,"longitude":74.826965,"name":"Lilium Park","stations":[{"id":705774,"outlets":[{"connector":13,"id":2130661,"kilowatts":null,"power":0,"status":null}]}],"url":"http://api.plugshare.com/view/location/303991"},{"access":1,"address":"X547+573, Ariwali, Maharashtra 410221, India","icon":"https://assets.plugshare.com/icons/Y.png","icon_type":"Y","id":355293,"latitude":18.955836,"longitude":73.162782,"name":"HPCL Tata power FC","stations":[{"id":846577,"outlets":[{"connector":13,"id":2369382,"kilowatts":null,"power":0,"status":null}]}],"url":"http://api.plugshare.com/view/location/355293"},{"access":1,"address":"B - 5, Electronic Estate, MIDC, Bhosari, Pimpri-Chinchwad, Maharashtra 411026, India","icon":"https://assets.plugshare.com/icons/Y.png","icon_type":"Y","id":295859,"latitude":18.621839,"longitude":73.824921,"name":"Northway Motorsport Fast Charging Station","stations":[{"id":652066,"outlets":[{"connector":13,"id":2062937,"kilowatts":null,"power":0,"status":null}]}],"url":"http://api.plugshare.com/view/location/295859"},{"access":1,"address":"NH60, Peth, Maharashtra 410512, India","icon":"https://assets.plugshare.com/icons/G.png","icon_type":"G","id":305010,"latitude":18.919703,"longitude":73.920097,"name":"Peth Wall Charger","stations":[{"id":708136,"outlets":[{"connector":9,"id":2135622,"kilowatts":null,"power":0,"status":null}]}],"url":"http://api.plugshare.com/view/location/305010"},{"access":1,"address":"Tikona Peth Internal Rd, Tikona Peth, Maharashtra 412108, India","icon":"https://assets.plugshare.com/icons/G.png","icon_type":"G","id":303919,"latitude":18.643232,"longitude":73.507115,"name":"Pawana Lake Wall Slow Charger","stations":[{"id":705635,"outlets":[{"connector":9,"id":2130420,"kilowatts":null,"power":0,"status":null}]}],"url":"http://api.plugshare.com/view/location/303919"},{"access":1,"address":"8X23+H9J, Amboli, Gujarat 394150, India","icon":"https://assets.plugshare.com/icons/Y.png","icon_type":"Y","id":342114,"latitude":21.301278,"longitude":72.953389,"name":"Hotel Swagat Inn","stations":[{"id":809148,"outlets":[{"connector":13,"id":2310849,"kilowatts":null,"power":0,"status":null}]}],"url":"http://api.plugshare.com/view/location/342114"},{"access":1,"address":"F3PP+3G Nimgaon Kh., Maharashtra, India","icon":"https://assets.plugshare.com/icons/G.png","icon_type":"G","id":359035,"latitude":19.485245,"longitude":74.086282,"name":"Bolt Wall Charger","stations":[{"id":856825,"outlets":[{"connector":9,"id":2383258,"kilowatts":null,"power":0,"status":null}]}],"url":"http://api.plugshare.com/view/location/359035"},{"access":1,"address":"3 & 4 Rajprabha, Landmark building, No. 6, Sativali Rd, near Range Office, Golani Naka, Vasai East, Vasai-Virar, Maharashtra 401208, India","icon":"https://assets.plugshare.com/icons/YR.png","icon_type":"YR","id":304005,"latitude":19.406249,"longitude":72.860984,"name":"Suryoday Tata Motors","stations":[{"id":705790,"network_id":1012,"outlets":[{"connector":13,"id":2130710,"kilowatts":null,"power":0,"status":null}]}],"url":"http://api.plugshare.com/view/location/304005"},{"access":1,"address":"NH 48, Achchhad, Maharashtra 401606, India","icon":"https://assets.plugshare.com/icons/Y.png","icon_type":"Y","id":337073,"latitude":20.221033,"longitude":72.881452,"name":"Hotel Sahyadri Talasari Charge Zone FC","score":10.0,"stations":[{"id":794993,"outlets":[{"connector":13,"id":2292485,"kilowatts":null,"power":0,"status":null},{"connector":13,"id":2292486,"kilowatts":null,"power":0,"status":null}]}],"url":"http://api.plugshare.com/view/location/337073"},{"access":1,"address":"Ellora Heritage Resort Rd, Maharashtra 431102, India","icon":"https://assets.plugshare.com/icons/G.png","icon_type":"G","id":336775,"latitude":20.02067,"longitude":75.169485,"name":"Ellora Heritage Resort","stations":[{"id":794299,"outlets":[{"connector":9,"id":2291645,"kilowatts":null,"power":0,"status":null}]}],"url":"http://api.plugshare.com/view/location/336775"},{"access":1,"address":"Auarangabad Nagpur highway ,Karmad ,","icon":"https://assets.plugshare.com/icons/G.png","icon_type":"G","id":338534,"latitude":19.866484,"longitude":75.519707,"name":"Monika Garden Restaurant","stations":[{"id":798763,"outlets":[{"connector":9,"id":2297515,"kilowatts":null,"power":0,"status":null}]}],"url":"http://api.plugshare.com/view/location/338534"},{"access":1,"address":"Ahmadnagar - Pune Rd, Palwe Kh., Maharashtra 414301, India","icon":"https://assets.plugshare.com/icons/G.png","icon_type":"G","id":306864,"latitude":18.929092,"longitude":74.488099,"name":"Shri Samartha Petrol Pump Wall Charger","stations":[{"id":712414,"outlets":[{"connector":9,"id":2143866,"kilowatts":null,"power":0,"status":null}]}],"url":"http://api.plugshare.com/view/location/306864"},{"access":1,"address":"Aamby Valley, Lonavala","icon":"https://assets.plugshare.com/icons/G.png","icon_type":"G","id":310551,"latitude":18.612489,"longitude":73.389675,"name":"Aamby Valley Wall Charger","stations":[{"id":722666,"outlets":[{"connector":9,"id":2168008,"kilowatts":null,"power":0,"status":null}]}],"url":"http://api.plugshare.com/view/location/310551"},{"access":1,"address":"NH60, Maharashtra 422102, India","icon":"https://assets.plugshare.com/icons/G.png","icon_type":"G","id":347421,"latitude":19.905731,"longitude":73.913032,"name":"Nashik Stud Farm","stations":[{"id":825094,"outlets":[{"connector":9,"id":2331991,"kilowatts":null,"power":0,"status":null}]}],"url":"http://api.plugshare.com/view/location/347421"},{"access":1,"address":"Aurangabad, Puna, Jikthan, Maharashtra 431133, India","icon":"https://assets.plugshare.com/icons/G.png","icon_type":"G","id":331504,"latitude":19.75375,"longitude":75.151118,"name":"Hotel Shrushti Tata Power Type-2 AC","stations":[{"id":780081,"outlets":[{"connector":7,"id":2273257,"kilowatts":null,"power":0,"status":null}]}],"url":"http://api.plugshare.com/view/location/331504"},{"access":1,"address":"Jhankar Studio Mira Road, Miragaon, Mira Road, Mira Bhayandar, Maharashtra 401107, India","icon":"https://assets.plugshare.com/icons/Y.png","icon_type":"Y","id":299281,"latitude":19.278029,"longitude":72.880365,"name":"Indrajit Tata Power FC","score":7.2,"stations":[{"id":678692,"outlets":[{"connector":13,"id":2093539,"kilowatts":null,"power":0,"status":null},{"connector":3,"id":2130699,"kilowatts":null,"power":0,"status":null}]}],"url":"http://api.plugshare.com/view/location/299281"},{"access":1,"address":"128/3/1, DSK Vishwa, Dhayari, Pune, Maharashtra 411024, India","icon":"https://assets.plugshare.com/icons/G.png","icon_type":"G","id":305013,"latitude":18.449493,"longitude":73.798644,"name":"Acumen Modular Furniture Wall Charger","stations":[{"id":708142,"outlets":[{"connector":9,"id":2135630,"kilowatts":null,"power":0,"status":null}]}],"url":"http://api.plugshare.com/view/location/305013"},{"access":1,"address":"111, Surat - Navsari Rd, Kanakpur, Sachin, Surat, Gujarat 394230, India","icon":"https://assets.plugshare.com/icons/G.png","icon_type":"G","id":317386,"latitude":21.077647,"longitude":72.885839,"name":"ND Electric  Vehicle Bolt SC","stations":[{"id":740625,"outlets":[{"connector":9,"id":2220854,"kilowatts":null,"power":0,"status":null}]}],"url":"http://api.plugshare.com/view/location/317386"},{"access":1,"address":"PQV9+2XM, Khalumbre, Maharashtra 412109, India","icon":"https://assets.plugshare.com/icons/Y.png","icon_type":"Y","id":360813,"latitude":18.742735,"longitude":73.770566,"name":"Jopadevi Petroleum Tata Power FC","stations":[{"id":861682,"network_id":1012,"outlets":[{"connector":13,"id":2390322,"kilowatts":null,"power":0,"status":null}]},{"id":861683,"network_id":1012,"outlets":[{"connector":7,"id":2390323,"kilowatts":null,"power":0,"status":null}]}],"url":"http://api.plugshare.com/view/location/360813"},{"access":1,"address":"Padgha, Maharashtra 421302, India","icon":"https://assets.plugshare.com/icons/G.png","icon_type":"G","id":329772,"latitude":19.355045,"longitude":73.152972,"name":"Bhagat Tarachand Hotel Wall Charger","stations":[{"id":775331,"outlets":[{"connector":9,"id":2266985,"kilowatts":null,"power":0,"status":null}]}],"url":"http://api.plugshare.com/view/location/329772"},{"access":1,"address":"RRCX+QX4, Gram Baroli, Madhya Pradesh 453555, India","icon":"https://assets.plugshare.com/icons/G.png","icon_type":"G","id":350925,"latitude":22.821922,"longitude":75.849969,"name":"Sagar Fuel Pump Chargegrid Type-2","stations":[{"id":835612,"outlets":[{"connector":7,"id":2354896,"kilowatts":null,"power":0,"status":null}]}],"url":"http://api.plugshare.com/view/location/350925"},{"access":1,"address":"W66M+Q5C, Pradnyapuri, Maharashtra 431002, India","icon":"https://assets.plugshare.com/icons/Y.png","icon_type":"Y","id":334407,"latitude":19.912005,"longitude":75.232959,"name":"TML Satish Motors Tata Power FC","stations":[{"id":787744,"outlets":[{"connector":3,"id":2283261,"kilowatts":null,"power":0,"status":null},{"connector":13,"id":2283262,"kilowatts":null,"power":0,"status":null}]}],"url":"http://api.plugshare.com/view/location/334407"},{"access":1,"address":"36 SV Road Santosh nagar bandra","icon":"https://assets.plugshare.com/icons/Y.png","icon_type":"Y","id":305102,"latitude":19.051507,"longitude":72.837979,"name":"IOCL kini Causway Bandra Charging Station","stations":[{"id":708317,"outlets":[{"connector":3,"id":2135934,"kilowatts":null,"power":0,"status":null},{"connector":13,"id":2135935,"kilowatts":null,"power":0,"status":null}]}],"url":"http://api.plugshare.com/view/location/305102"},{"access":1,"address":"Unnamed Road, Valane, Maharashtra 412108, India","icon":"https://assets.plugshare.com/icons/G.png","icon_type":"G","id":327257,"latitude":18.541263,"longitude":73.512735,"name":"Man Vs Miles Resort Wall Charger","stations":[{"id":768344,"outlets":[{"connector":9,"id":2257794,"kilowatts":null,"power":0,"status":null}]}],"url":"http://api.plugshare.com/view/location/327257"},{"access":1,"address":"Emerald Heights, Madhya Pradesh 452012, India","icon":"https://assets.plugshare.com/icons/Y.png","icon_type":"Y","id":339356,"latitude":22.651706,"longitude":75.821112,"name":"TML Shyam Automotives AB Road Tata Power FC","stations":[{"id":800859,"outlets":[{"connector":3,"id":2300193,"kilowatts":null,"power":0,"status":null},{"connector":13,"id":2300194,"kilowatts":null,"power":0,"status":null}]}],"url":"http://api.plugshare.com/view/location/339356"},{"access":1,"address":"MXQM+438, Pezari, Maharashtra 402108, India","icon":"https://assets.plugshare.com/icons/G.png","icon_type":"G","id":359032,"latitude":18.687788,"longitude":72.982821,"name":"Green Orbit Motors Bolt Wall Charger","stations":[{"id":856822,"outlets":[{"connector":9,"id":2383254,"kilowatts":null,"power":0,"status":null}]}],"url":"http://api.plugshare.com/view/location/359032"},{"access":1,"address":"WGFV+XC7, Kamod, Gujarat 382427, India","icon":"https://assets.plugshare.com/icons/Y.png","icon_type":"Y","id":337479,"latitude":22.924794,"longitude":72.543489,"name":"IOCL Om Petroleum Tata Power FC","score":8.0,"stations":[{"id":795975,"outlets":[{"connector":3,"id":2293722,"kilowatts":null,"power":0,"status":null},{"connector":13,"id":2293723,"kilowatts":null,"power":0,"status":null}]}],"url":"http://api.plugshare.com/view/location/337479"},{"access":1,"address":"H 25 avenue, Evershine Globle City, Dongarpada, Rustomjee Global City, Opposite Rustomjee International School, Virar West, Virar, Maharashtra 401303, India","icon":"https://assets.plugshare.com/icons/G.png","icon_type":"G","id":303971,"latitude":19.474483,"longitude":72.807781,"name":"Speedway Automobile","score":9.0,"stations":[{"id":705748,"outlets":[{"connector":9,"id":2130676,"kilowatts":null,"power":0,"status":null}]}],"url":"http://api.plugshare.com/view/location/303971"},{"access":1,"address":"Urmin Products Private Limited, 48, Changodar Industrial Estate, Sarkhej-Bavla Rd, Changodar, Gujarat 382213, India","icon":"https://assets.plugshare.com/icons/G.png","icon_type":"G","id":307860,"latitude":22.928095,"longitude":72.452014,"name":"ECO Fuel System Bolt SC","stations":[{"id":715057,"outlets":[{"connector":9,"id":2149087,"kilowatts":null,"power":0,"status":null}]}],"url":"http://api.plugshare.com/view/location/307860"},{"access":1,"address":"NH4 Old Mumbai Pune Highway, Village chowk Near HPCL Dingorkar Petrol Pump Tal- Khalapur, Dist, Chouk, Maharashtra 410206, India","icon":"https://assets.plugshare.com/icons/G.png","icon_type":"G","id":331084,"latitude":18.901763,"longitude":73.234318,"name":"Chowk Highway Service Tata Power Type-2","stations":[{"id":779032,"outlets":[{"connector":7,"id":2271844,"kilowatts":null,"power":0,"status":null}]}],"url":"http://api.plugshare.com/view/location/331084"},{"access":1,"address":"Megapolis, Phase 3 Hinjawadi, Maharashtra 411057, India","icon":"https://assets.plugshare.com/icons/G.png","icon_type":"G","id":327703,"latitude":18.574202,"longitude":73.67998,"name":"Rahul@Megapolis","stations":[{"id":769396,"outlets":[{"connector":9,"id":2259114,"kilowatts":null,"power":0,"status":null}]}],"url":"http://api.plugshare.com/view/location/327703"},{"access":1,"address":"395009, Jahangir Pura, Rander, Surat, Gujarat 395005, India","icon":"https://assets.plugshare.com/icons/G.png","icon_type":"G","id":307865,"latitude":21.235034,"longitude":72.789701,"name":"Shree EV Bolt SC","stations":[{"id":715062,"outlets":[{"connector":9,"id":2149092,"kilowatts":null,"power":0,"status":null}]}],"url":"http://api.plugshare.com/view/location/307865"},{"access":1,"address":"Dahanu - Jawhar Rd, Patel Pada, Dahanu, Maharashtra 401602, India","icon":"https://assets.plugshare.com/icons/G.png","icon_type":"G","id":306876,"latitude":19.987884,"longitude":72.748958,"name":"MV Petrol","stations":[{"id":712447,"outlets":[{"connector":9,"id":2143940,"kilowatts":null,"power":0,"status":null}]}],"url":"http://api.plugshare.com/view/location/306876"},{"access":1,"address":"Near ahmednagar-Aurangabad highway near Ashoka tool naka","icon":"https://assets.plugshare.com/icons/G.png","icon_type":"G","id":360826,"latitude":19.203656,"longitude":74.783084,"name":"Hotel orange valley","stations":[{"id":861713,"network_id":1060,"outlets":[{"connector":7,"id":2390357,"kilowatts":null,"power":0,"status":null}]}],"url":"http://api.plugshare.com/view/location/360826"},{"access":1,"address":"Gaurkamat Rd, Maharashtra 410201, India","icon":"https://assets.plugshare.com/icons/G.png","icon_type":"G","id":326707,"latitude":18.914813,"longitude":73.378964,"name":"Red house karjat","stations":[{"id":766675,"outlets":[{"connector":9,"id":2255402,"kilowatts":null,"power":0,"status":null}]},{"id":766676,"outlets":[{"connector":9,"id":2256179,"kilowatts":null,"power":0,"status":null}]}],"url":"http://api.plugshare.com/view/location/326707"},{"access":1,"address":"NH47, Changodar, Gujarat 382210, India","icon":"https://assets.plugshare.com/icons/Y.png","icon_type":"Y","id":339809,"latitude":22.938034,"longitude":72.45573,"name":"IOCL Changodar Pump Tata Power FC","stations":[{"id":802023,"outlets":[{"connector":3,"id":2301846,"kilowatts":null,"power":0,"status":null},{"connector":13,"id":2301847,"kilowatts":null,"power":0,"status":null}]}],"url":"http://api.plugshare.com/view/location/339809"},{"access":1,"address":"New Express Highway, Amravati- Badnera Road, Opp. Ram Meghe College of engineering, Badnera, Amravati, Maharashtra 444701, India","icon":"https://assets.plugshare.com/icons/G.png","icon_type":"G","id":305141,"latitude":20.857434,"longitude":77.748385,"name":"Jadhav Home Slow Charger","stations":[{"id":708439,"outlets":[{"connector":9,"id":2136211,"kilowatts":null,"power":0,"status":null}]}],"url":"http://api.plugshare.com/view/location/305141"},{"access":1,"address":"Outpost\u00a0Alibaug, Chorande, Mapgaon, Alibaug","icon":"https://assets.plugshare.com/icons/G.png","icon_type":"G","id":327709,"latitude":18.716928,"longitude":72.901793,"name":"Outpost@Alibaug Wall Charger","stations":[{"id":769405,"outlets":[{"connector":9,"id":2259128,"kilowatts":null,"power":0,"status":null}]}],"url":"http://api.plugshare.com/view/location/327709"},{"access":1,"address":"Trambakeshwar Rd, Belgaon Dhaga, Nashik, Maharashtra 422007, India","icon":"https://assets.plugshare.com/icons/Y.png","icon_type":"Y","id":304720,"latitude":19.971846,"longitude":73.681268,"name":"Hotel Sanskruti","score":9.0,"stations":[{"id":707455,"outlets":[{"connector":3,"id":2134272,"kilowatts":25.0,"power":0,"status":null},{"connector":13,"id":2134273,"kilowatts":25.0,"power":0,"status":null}]}],"url":"http://api.plugshare.com/view/location/304720"},{"access":1,"address":"2, Gaurav Path, Adajan Gam, Adajan, Surat, Gujarat 394510, India","icon":"https://assets.plugshare.com/icons/Y.png","icon_type":"Y","id":304679,"latitude":21.15992,"longitude":72.770375,"name":"TML Shreeji Motors Tata Power FC","stations":[{"id":707385,"outlets":[{"connector":3,"id":2134104,"kilowatts":null,"power":0,"status":null},{"connector":13,"id":2134105,"kilowatts":null,"power":0,"status":null}]}],"url":"http://api.plugshare.com/view/location/304679"},{"access":1,"address":"J-21, GIDC Umbergaon, Umargam, Gujarat 396171, India","icon":"https://assets.plugshare.com/icons/G.png","icon_type":"G","id":359030,"latitude":20.168438,"longitude":72.768351,"name":"Bhavya Greentech Bolt Wall Charger","stations":[{"id":856820,"outlets":[{"connector":9,"id":2383252,"kilowatts":null,"power":0,"status":null}]}],"url":"http://api.plugshare.com/view/location/359030"},{"access":1,"address":"30, 2nd floor, Bhagat Colony,Sushan Circle, GIDC Makarpura Industrial Area, Makarpura, Vadodara, Gujarat 390010, India","icon":"https://assets.plugshare.com/icons/G.png","icon_type":"G","id":69474,"latitude":22.258397,"longitude":73.197617,"name":"Gridscape Solutions","stations":[{"id":480742,"outlets":[{"connector":2,"id":1128757,"kilowatts":null,"power":0,"status":null}]},{"id":98217,"outlets":[{"connector":2,"id":476839,"kilowatts":null,"power":0,"status":null}]}],"url":"http://api.plugshare.com/view/location/69474"},{"access":1,"address":"602, Sarjaa Rd, Sahil Park, Sanewadi, Aundh, Pune, Maharashtra 411007, India","icon":"https://assets.plugshare.com/icons/Y.png","icon_type":"Y","id":303918,"latitude":18.553671,"longitude":73.806945,"name":"Croma Aundh TATA Power FC","score":7.8,"stations":[{"id":705634,"outlets":[{"connector":3,"id":2130416,"kilowatts":null,"power":0,"status":null},{"connector":13,"id":2130417,"kilowatts":null,"power":0,"status":null}]}],"url":"http://api.plugshare.com/view/location/303918"},{"access":1,"address":"NH 48, Taloja, Navi Mumbai, Maharashtra 410210, India","icon":"https://assets.plugshare.com/icons/Y.png","icon_type":"Y","id":344882,"latitude":19.087329,"longitude":73.079555,"name":"Jio-bp pulse EV Charging","score":8.3,"stations":[{"id":816322,"outlets":[{"connector":13,"id":2320567,"kilowatts":null,"power":0,"status":null}]},{"id":816323,"outlets":[{"connector":13,"id":2320568,"kilowatts":null,"power":0,"status":null}]}],"url":"http://api.plugshare.com/view/location/344882"},{"access":1,"address":"Wable Wasti, Sai Satyam Park, Wagholi, Pune, Maharashtra 412207, India","icon":"https://assets.plugshare.com/icons/Y.png","icon_type":"Y","id":303993,"latitude":18.573907,"longitude":73.959055,"name":"TML Rudra Motors TATA Power FC","stations":[{"id":705776,"outlets":[{"connector":3,"id":2130664,"kilowatts":null,"power":0,"status":null},{"connector":13,"id":2130665,"kilowatts":null,"power":0,"status":null}]}],"url":"http://api.plugshare.com/view/location/303993"},{"access":1,"address":"Shop no 5, Perier Chsl, opp D-Mart, Bhabola, Husaini Colony, Vasai West, Vasai-Virar, Maharashtra 401202, India","icon":"https://assets.plugshare.com/icons/G.png","icon_type":"G","id":317383,"latitude":19.364073,"longitude":72.814306,"name":"MRE Bikes & Solar Bolt SC","stations":[{"id":740622,"outlets":[{"connector":9,"id":2220851,"kilowatts":null,"power":0,"status":null}]}],"url":"http://api.plugshare.com/view/location/317383"},{"access":1,"address":"7th floor, Parakh House, 1, Boat Club Rd, Bund Garden, Sangamvadi, Pune, Maharashtra 411001, India","icon":"https://assets.plugshare.com/icons/G.png","icon_type":"G","id":304671,"latitude":18.540381,"longitude":73.882654,"name":"MG Motors AC FC","stations":[{"id":707373,"outlets":[{"connector":7,"id":2134086,"kilowatts":null,"power":0,"status":null}]}],"url":"http://api.plugshare.com/view/location/304671"},{"access":1,"address":"Pannalal Nagar, Maharashtra State Highway 30, Samadhan Colony, Konkanwadi, Aurangabad, Maharashtra 431005, India","icon":"https://assets.plugshare.com/icons/Y.png","icon_type":"Y","id":304672,"latitude":19.873011,"longitude":75.318196,"name":"MG Motors Tata Power FC","stations":[{"id":707374,"outlets":[{"connector":3,"id":2256345,"kilowatts":null,"power":0,"status":null},{"connector":13,"id":2256346,"kilowatts":null,"power":0,"status":null}]}],"url":"http://api.plugshare.com/view/location/304672"},{"access":1,"address":"426, C4 Level, Amanora Chambers, Amanora Park Town, Hadapsar, Pune, Maharashtra 411028, India","icon":"https://assets.plugshare.com/icons/Y.png","icon_type":"Y","id":303915,"latitude":18.519108,"longitude":73.936373,"name":"Amanora Mall TATA Power FC","score":5.1,"stations":[{"id":705631,"outlets":[{"connector":7,"id":2130410,"kilowatts":null,"power":0,"status":null}]},{"id":705630,"outlets":[{"connector":13,"id":2130409,"kilowatts":null,"power":0,"status":null}]}],"url":"http://api.plugshare.com/view/location/303915"},{"access":1,"address":"Bharuch - Dahej Rd, Gujarat 392130, India","icon":"https://assets.plugshare.com/icons/Y.png","icon_type":"Y","id":356427,"latitude":21.716146,"longitude":72.656572,"name":"Hotel Suba Grand Dahej Tata Power FC","stations":[{"id":849569,"network_id":1012,"outlets":[{"connector":13,"id":2373148,"kilowatts":null,"power":0,"status":null}]}],"url":"http://api.plugshare.com/view/location/356427"},{"access":1,"address":"Agarkar Nagar, Pune 411001","icon":"https://assets.plugshare.com/icons/Y.png","icon_type":"Y","id":321753,"latitude":18.526907,"longitude":73.865775,"name":"IOCL Coco Agarkar Nagar Tata Power FC","score":7.2,"stations":[{"id":752676,"outlets":[{"connector":3,"id":2236737,"kilowatts":null,"power":0,"status":"UNKNOWN"},{"connector":13,"id":2236738,"kilowatts":null,"power":0,"status":"UNKNOWN"}]}],"url":"http://api.plugshare.com/view/location/321753"},{"access":1,"address":"Unnamed Road, Pimpri, Maharashtra 412108, India","icon":"https://assets.plugshare.com/icons/G.png","icon_type":"G","id":332737,"latitude":18.497246,"longitude":73.427396,"name":"One Earth Retreat Resort Wall Socket","stations":[{"id":783513,"outlets":[{"connector":9,"id":2277669,"kilowatts":null,"power":0,"status":null}]}],"url":"http://api.plugshare.com/view/location/332737"},{"access":1,"address":"Rudra residency vadodara","icon":"https://assets.plugshare.com/icons/Y.png","icon_type":"Y","id":330551,"latitude":22.289398,"longitude":73.159623,"name":"vadodara","stations":[{"id":777304,"outlets":[{"connector":3,"id":2269502,"kilowatts":null,"power":0,"status":null}]}],"url":"http://api.plugshare.com/view/location/330551"},{"access":1,"address":"Adonis wing, Raheja Acropolis II CHS Ltd, Deonar","icon":"https://assets.plugshare.com/icons/Y.png","icon_type":"Y","id":328868,"latitude":19.047824,"longitude":72.917213,"name":"GreenShift (60KW)","stations":[{"id":772546,"outlets":[{"connector":13,"id":2263283,"kilowatts":null,"power":0,"status":null},{"connector":13,"id":2263284,"kilowatts":null,"power":0,"status":null}]}],"url":"http://api.plugshare.com/view/location/328868"},{"access":1,"address":"Nageshwar Awas Rd, Bodani, Maharashtra 402201, India","icon":"https://assets.plugshare.com/icons/G.png","icon_type":"G","id":345019,"latitude":18.76014,"longitude":72.882408,"name":"Nine Palms Ama Stay Tata Power AC Type-2","stations":[{"id":817483,"outlets":[{"connector":7,"id":2321822,"kilowatts":null,"power":0,"status":null}]}],"url":"http://api.plugshare.com/view/location/345019"},{"access":1,"address":"I.B.P. Pump, Kharabwadi, Maharashtra 410501, India","icon":"https://assets.plugshare.com/icons/G.png","icon_type":"G","id":329496,"latitude":18.759613,"longitude":73.82845,"name":"Pooja Castings, Chakan Wall Charger","stations":[{"id":774571,"outlets":[{"connector":9,"id":2265950,"kilowatts":null,"power":0,"status":null}]},{"id":774572,"outlets":[{"connector":9,"id":2265951,"kilowatts":null,"power":0,"status":null}]},{"id":774573,"outlets":[{"connector":9,"id":2265952,"kilowatts":null,"power":0,"status":null}]}],"url":"http://api.plugshare.com/view/location/329496"},{"access":1,"address":"Reliable Spaces P Ltd","icon":"https://assets.plugshare.com/icons/Y.png","icon_type":"Y","id":328704,"latitude":19.170139,"longitude":73.001351,"name":"GreenShift CP400708001","stations":[{"id":772112,"outlets":[{"connector":13,"id":2262742,"kilowatts":null,"power":0,"status":null},{"connector":13,"id":2262743,"kilowatts":null,"power":0,"status":null},{"connector":3,"id":2262744,"kilowatts":null,"power":0,"status":null}]}],"url":"http://api.plugshare.com/view/location/328704"},{"access":1,"address":"Rameshwaram Darshan, Manpada cross road, near Agarwal hall, Ayodhya nagari, Dombivli East, Dombivli, Maharashtra 421201, India","icon":"https://assets.plugshare.com/icons/G.png","icon_type":"G","id":355251,"latitude":19.209337,"longitude":73.096159,"name":"Rameshwaram","stations":[{"id":846443,"outlets":[{"connector":7,"id":2369219,"kilowatts":null,"power":0,"status":null}]}],"url":"http://api.plugshare.com/view/location/355251"},{"access":1,"address":"C-101, Siddharth Nagar, Borivali East, Mumbai, Maharashtra 400066, India","icon":"https://assets.plugshare.com/icons/Y.png","icon_type":"Y","id":337133,"latitude":19.218042,"longitude":72.871036,"name":"Coming Soon - Garden State Charge Zone FC","stations":[{"id":795104,"outlets":[{"connector":13,"id":2292629,"kilowatts":null,"power":0,"status":null},{"connector":13,"id":2292630,"kilowatts":null,"power":0,"status":null}]}],"url":"http://api.plugshare.com/view/location/337133"},{"access":1,"address":"Javan Tungi Rd, Maharashtra 412108, India","icon":"https://assets.plugshare.com/icons/G.png","icon_type":"G","id":330113,"latitude":18.624244,"longitude":73.4609,"name":"Hilton Shillim Resort Wall Charger","stations":[{"id":776340,"outlets":[{"connector":9,"id":2268199,"kilowatts":null,"power":0,"status":null}]}],"url":"http://api.plugshare.com/view/location/330113"},{"access":1,"address":"Choithram Mandi, Mangal Nagar, Indore, Madhya Pradesh 452014, India","icon":"https://assets.plugshare.com/icons/Y.png","icon_type":"Y","id":341583,"latitude":22.685056,"longitude":75.855631,"name":"IOCL Pump Tata Power FC","stations":[{"id":807661,"outlets":[{"connector":3,"id":2308862,"kilowatts":null,"power":0,"status":null},{"connector":13,"id":2308863,"kilowatts":null,"power":0,"status":null}]}],"url":"http://api.plugshare.com/view/location/341583"},{"access":1,"address":"Unnamed Road, Kondhale, Maharashtra 421312, India","icon":"https://assets.plugshare.com/icons/G.png","icon_type":"G","id":360025,"latitude":19.526288,"longitude":73.139202,"name":"Kondhale, Tal Wada,","stations":[{"id":859447,"outlets":[{"connector":9,"id":2386895,"kilowatts":null,"power":0,"status":null}]}],"url":"http://api.plugshare.com/view/location/360025"},{"access":1,"address":"23/24, Chandrashekhar Agashe Path, Pulachi Wadi, Narayan Peth, Pune, Maharashtra 411030, India","icon":"https://assets.plugshare.com/icons/G.png","icon_type":"G","id":307872,"latitude":18.51663,"longitude":73.847862,"name":"KEV Bolt SC","stations":[{"id":715069,"outlets":[{"connector":9,"id":2149099,"kilowatts":null,"power":0,"status":null}]}],"url":"http://api.plugshare.com/view/location/307872"},{"access":1,"address":"Ambad, MIDC Ambad, Nashik, Maharashtra 422010, India","icon":"https://assets.plugshare.com/icons/Y.png","icon_type":"Y","id":328612,"latitude":19.950417,"longitude":73.748787,"name":"MG JITENDER Wheels Tata Power FC","score":9.0,"stations":[{"id":771951,"outlets":[{"connector":3,"id":2262538,"kilowatts":null,"power":0,"status":null},{"connector":13,"id":2262539,"kilowatts":null,"power":0,"status":null}]}],"url":"http://api.plugshare.com/view/location/328612"},{"access":1,"address":"nxt to tulja bhawani mandir, Akurdi Gaothan, Vivek Nagar, Akurdi, Pimpri-Chinchwad, Maharashtra 411035, India","icon":"https://assets.plugshare.com/icons/G.png","icon_type":"G","id":307869,"latitude":18.652387,"longitude":73.783034,"name":"JAAR Electric Station Shop No 8 Bolt SC","stations":[{"id":715066,"outlets":[{"connector":9,"id":2149096,"kilowatts":null,"power":0,"status":null}]}],"url":"http://api.plugshare.com/view/location/307869"},{"access":1,"address":"Plot B-104, Nerul East, Sector 28, Nerul, Navi Mumbai, Maharashtra 400706, India","icon":"https://assets.plugshare.com/icons/G.png","icon_type":"G","id":236362,"latitude":19.02136,"longitude":73.018017,"name":"Grand Central Mall Parking","stations":[{"id":511540,"outlets":[{"connector":11,"id":1278752,"kilowatts":null,"power":0,"status":null}]},{"id":511541,"outlets":[{"connector":11,"id":1278753,"kilowatts":null,"power":0,"status":null}]},{"id":511542,"outlets":[{"connector":11,"id":1278754,"kilowatts":null,"power":0,"status":null}]}],"url":"http://api.plugshare.com/view/location/236362"},{"access":1,"address":"Azad Ln, Ganga Vihar, Andheri West, Mumbai, Maharashtra 400058","icon":"https://assets.plugshare.com/icons/G.png","icon_type":"G","id":84943,"latitude":19.113523,"longitude":72.839406,"name":"405 D square vile Parle west","stations":[{"id":125596,"outlets":[{"connector":2,"id":321168,"kilowatts":null,"power":0,"status":null}]}],"url":"http://api.plugshare.com/view/location/84943"},{"access":1,"address":"Chinchoti Anjur Phata Rd, Deodal, Maharashtra 401208, India","icon":"https://assets.plugshare.com/icons/G.png","icon_type":"G","id":306313,"latitude":19.3673,"longitude":72.902083,"name":"Kaman Tatapower Nexon Home charging point","stations":[{"id":711030,"outlets":[{"connector":9,"id":2141190,"kilowatts":null,"power":0,"status":null}]}],"url":"http://api.plugshare.com/view/location/306313"},{"access":1,"address":"Chhatrapati Shivaji Maharaj Terminus, Chhatrapati Shivaji Maharaj Terminus, Chhatrapati Shivaji Terminus Area, Fort, Mumbai, Maharashtra 400001, India","icon":"https://assets.plugshare.com/icons/Y.png","icon_type":"Y","id":306320,"latitude":18.945352,"longitude":72.838277,"name":"CSMT Station Tata Power FC","stations":[{"id":711051,"outlets":[{"connector":3,"id":2141213,"kilowatts":null,"power":0,"status":null},{"connector":13,"id":2141214,"kilowatts":null,"power":0,"status":null}]}],"url":"http://api.plugshare.com/view/location/306320"},{"access":1,"address":"Lloyds Centre Point, Appasaheb Marathe Marg, Century Bazaar, Prabhadevi, Mumbai, Maharashtra 400025, India","icon":"https://assets.plugshare.com/icons/Y.png","icon_type":"Y","id":306323,"latitude":19.01294,"longitude":72.826491,"name":"TML Puneet Motors Tata Power FC","stations":[{"id":711057,"outlets":[{"connector":3,"id":2141220,"kilowatts":null,"power":0,"status":null},{"connector":13,"id":2141221,"kilowatts":null,"power":0,"status":null}]}],"url":"http://api.plugshare.com/view/location/306323"},{"access":1,"address":"Tent City 1, Statue of Unity, Kevadia, Gujarat","icon":"https://assets.plugshare.com/icons/Y.png","icon_type":"Y","id":345712,"latitude":21.880349,"longitude":73.727323,"name":"MobiLane DC FC (80kW)","stations":[{"id":820796,"outlets":[{"connector":13,"id":2325739,"kilowatts":null,"power":0,"status":null},{"connector":13,"id":2325740,"kilowatts":null,"power":0,"status":null}]}],"url":"http://api.plugshare.com/view/location/345712"},{"access":1,"address":"Shivneri Building, Hedgewar Path, Indrayani Nagar, Nakhate Nagar, Thergaon, Pimpri-Chinchwad, Maharashtra 411017, India","icon":"https://assets.plugshare.com/icons/Y.png","icon_type":"Y","id":303906,"latitude":18.611077,"longitude":73.783115,"name":"Saibaba Autowheels TATA Power FC","stations":[{"id":705613,"outlets":[{"connector":13,"id":2130382,"kilowatts":null,"power":0,"status":null}]}],"url":"http://api.plugshare.com/view/location/303906"},{"access":1,"address":"11, Aurangabad - Phulambri - Sillod Rd, Hudco, Yadav Nagar, N 11, Cidco, Aurangabad, Maharashtra 431003, India","icon":"https://assets.plugshare.com/icons/Y.png","icon_type":"Y","id":357427,"latitude":19.911735,"longitude":75.348437,"name":"Click Hotel Cidco Tata Power FC","stations":[{"id":852311,"network_id":1012,"outlets":[{"connector":13,"id":2376785,"kilowatts":null,"power":0,"status":null}]}],"url":"http://api.plugshare.com/view/location/357427"},{"access":1,"address":"Old Agra Rd, Matoshree Nagar, Nashik, Maharashtra 422011, India","icon":"https://assets.plugshare.com/icons/Y.png","icon_type":"Y","id":304725,"latitude":19.993005,"longitude":73.78292,"name":"TML Sterling Motors Tata Power FC","stations":[{"id":768086,"outlets":[{"connector":7,"id":2257395,"kilowatts":null,"power":0,"status":null}]},{"id":707468,"outlets":[{"connector":3,"id":2134288,"kilowatts":null,"power":0,"status":null},{"connector":13,"id":2134289,"kilowatts":null,"power":0,"status":null}]}],"url":"http://api.plugshare.com/view/location/304725"},{"access":1,"address":"Satpur, Trambakeshwar Rd, MIDC, Satpur Colony, Nashik, Maharashtra 422007, India","icon":"https://assets.plugshare.com/icons/Y.png","icon_type":"Y","id":304723,"latitude":19.991498,"longitude":73.744094,"name":"Ginger Hotel","score":9.0,"stations":[{"id":707464,"outlets":[{"connector":3,"id":2134283,"kilowatts":null,"power":0,"status":null},{"connector":13,"id":2134284,"kilowatts":null,"power":0,"status":null}]},{"id":766299,"outlets":[{"connector":7,"id":2254946,"kilowatts":null,"power":0,"status":null}]}],"url":"http://api.plugshare.com/view/location/304723"},{"access":1,"address":"460, Central Rd N, behind Alfa Lava lRabale, T.T.C. Industrial Area, Rabale, Navi Mumbai, Maharashtra 400701, India","icon":"https://assets.plugshare.com/icons/G.png","icon_type":"G","id":354328,"latitude":19.13578,"longitude":73.018597,"name":"Anaheeta Enterprises","stations":[{"id":844248,"outlets":[{"connector":9,"id":2366299,"kilowatts":null,"power":0,"status":null}]}],"url":"http://api.plugshare.com/view/location/354328"},{"access":1,"address":"Guru Da Dhaba, Solapur - Pune Hwy, Manjri Bk, Maharashtra 412307, India","icon":"https://assets.plugshare.com/icons/Y.png","icon_type":"Y","id":314606,"latitude":18.49581,"longitude":73.978975,"name":"Ace Kudale Cycles Manjri Tata Power FC","stations":[{"id":733463,"network_id":1012,"outlets":[{"connector":3,"id":2206263,"kilowatts":null,"power":0,"status":null},{"connector":13,"id":2206264,"kilowatts":null,"power":0,"status":null}]},{"id":733464,"network_id":1012,"outlets":[{"connector":7,"id":2206265,"kilowatts":null,"power":0,"status":null}]},{"id":841972,"network_id":1012,"outlets":[{"connector":9,"id":2363096,"kilowatts":null,"power":0,"status":null}]},{"id":841973,"network_id":1012,"outlets":[{"connector":9,"id":2363097,"kilowatts":null,"power":0,"status":null}]},{"id":841974,"network_id":1012,"outlets":[{"connector":9,"id":2363098,"kilowatts":null,"power":0,"status":null}]}],"url":"http://api.plugshare.com/view/location/314606"},{"access":1,"address":"8-N - 12 , CIDCO, Rauza Bagh, Rauza Baug, N 2, Cidco, Aurangabad, Maharashtra 431003, India","icon":"https://assets.plugshare.com/icons/G.png","icon_type":"G","id":306807,"latitude":19.907603,"longitude":75.346464,"name":"Vivanta Hotel Wall Charger","stations":[{"id":712247,"outlets":[{"connector":9,"id":2143578,"kilowatts":null,"power":0,"status":null}]}],"url":"http://api.plugshare.com/view/location/306807"},{"access":1,"address":"Meena Apartment Panch Pakhadi Thane West, Dandekar Colony, Panch Pakhdi, Thane West, Thane, Maharashtra 400602, India","icon":"https://assets.plugshare.com/icons/Y.png","icon_type":"Y","id":303326,"latitude":19.1972,"longitude":72.963065,"name":"Tata Motors Heritage Thane FC","score":5.6,"stations":[{"id":703926,"outlets":[{"connector":3,"id":2127427,"kilowatts":null,"power":0,"status":null},{"connector":13,"id":2127428,"kilowatts":null,"power":0,"status":null}]}],"url":"http://api.plugshare.com/view/location/303326"},{"access":1,"address":"88, Mumbai - Agra National Hwy, next to Hotel Gateway, MIDC Ambad, Nashik, Maharashtra 422010, India","icon":"https://assets.plugshare.com/icons/G.png","icon_type":"G","id":304666,"latitude":19.955315,"longitude":73.753886,"name":"MG Motors AC FC","stations":[{"id":707367,"outlets":[{"connector":7,"id":2134073,"kilowatts":null,"power":0,"status":null}]}],"url":"http://api.plugshare.com/view/location/304666"},{"access":1,"address":"Mahindra Car showroom, Late Dhodiba Detter Patil Marg, Kalbhor Nagar, MIDC, Chinchwad, Pimpri-Chinchwad, Maharashtra 411019, India","icon":"https://assets.plugshare.com/icons/Y.png","icon_type":"Y","id":313091,"latitude":18.648617,"longitude":73.798875,"name":"TML Panchjanya Motors Tata Power FC","stations":[{"id":729431,"outlets":[{"connector":3,"id":2192308,"kilowatts":null,"power":0,"status":null},{"connector":13,"id":2192309,"kilowatts":null,"power":0,"status":null}]}],"url":"http://api.plugshare.com/view/location/313091"},{"access":1,"address":"Mina Complex A, Factory Rd, Khadki Bazar, Khadki, Pune, Maharashtra 411003, India","icon":"https://assets.plugshare.com/icons/G.png","icon_type":"G","id":328299,"latitude":18.565351,"longitude":73.850844,"name":"Vilux Theater Khadki Tata Power Type 2","stations":[{"id":771250,"outlets":[{"connector":7,"id":2261576,"kilowatts":null,"power":0,"status":null}]}],"url":"http://api.plugshare.com/view/location/328299"},{"access":1,"address":"5, Laxmi Society Ln, Mithakhali, Ahmedabad, Gujarat 380006, India","icon":"https://assets.plugshare.com/icons/Y.png","icon_type":"Y","id":306811,"latitude":23.029365,"longitude":72.561464,"name":"Westside Tata Power FC","stations":[{"id":712261,"outlets":[{"connector":3,"id":2143594,"kilowatts":null,"power":0,"status":null},{"connector":13,"id":2143595,"kilowatts":null,"power":0,"status":null}]}],"url":"http://api.plugshare.com/view/location/306811"},{"access":1,"address":"Maker Tower 1 Wing-B, MAKER TOWER-1, Cuffe Parade, Mumbai, Maharashtra 400005, India","icon":"https://assets.plugshare.com/icons/G.png","icon_type":"G","id":347526,"latitude":18.917149,"longitude":72.816581,"name":"Maker Tower A&B Tata Power Type-2","stations":[{"id":825432,"outlets":[{"connector":7,"id":2332422,"kilowatts":null,"power":0,"status":null},{"connector":7,"id":2332423,"kilowatts":null,"power":0,"status":null}]}],"url":"http://api.plugshare.com/view/location/347526"},{"access":1,"address":"Hazira Rd, Kavas, Limla, Gujarat 394510, India","icon":"https://assets.plugshare.com/icons/Y.png","icon_type":"Y","id":341468,"latitude":21.16784,"longitude":72.73598,"name":"MG showroom Fortum Charge And Drive","stations":[{"id":807398,"outlets":[{"connector":13,"id":2308543,"kilowatts":null,"power":0,"status":null}]}],"url":"http://api.plugshare.com/view/location/341468"},{"access":1,"address":"SG highway ","icon":"https://assets.plugshare.com/icons/Y.png","icon_type":"Y","id":303539,"latitude":22.996648,"longitude":72.498259,"name":"MG Dealership Fortum FC","stations":[{"id":704680,"outlets":[{"connector":3,"id":2128689,"kilowatts":null,"power":0,"status":null},{"connector":13,"id":2128690,"kilowatts":null,"power":0,"status":null}]}],"url":"http://api.plugshare.com/view/location/303539"},{"access":1,"address":"NH160, Sakori, Maharashtra 423107, India","icon":"https://assets.plugshare.com/icons/G.png","icon_type":"G","id":337055,"latitude":19.738412,"longitude":74.477031,"name":"TML Kopargaon Wall Charger","stations":[{"id":794970,"outlets":[{"connector":9,"id":2292457,"kilowatts":null,"power":0,"status":null}]}],"url":"http://api.plugshare.com/view/location/337055"},{"access":1,"address":"60, Pani Tanki Rd, Ambalal Park, Opposite H.P. Petrol Pump, Jay Santoshi Nagar 2, Karelibagh, Vadodara, Gujarat 390002, India","icon":"https://assets.plugshare.com/icons/Y.png","icon_type":"Y","id":269921,"latitude":22.320606,"longitude":73.204035,"name":"HP COMCO","stations":[{"id":594949,"outlets":[{"connector":3,"id":2303901,"kilowatts":null,"power":0,"status":null},{"connector":3,"id":2303902,"kilowatts":null,"power":0,"status":null}]}],"url":"http://api.plugshare.com/view/location/269921"},{"access":1,"address":"Magzine, Swaraj Colony, Shri Ganesh Colony, Dighi, Pimpri-Chinchwad, Maharashtra 411015, India","icon":"https://assets.plugshare.com/icons/G.png","icon_type":"G","id":329388,"latitude":18.633183,"longitude":73.874265,"name":"Hotel Pragati","stations":[{"id":774259,"outlets":[{"connector":14,"id":2265524,"kilowatts":null,"power":0,"status":null}]}],"url":"http://api.plugshare.com/view/location/329388"},{"access":1,"address":"106, Daman Rd, Above ICICI Bank, Chala, Vapi, Gujarat 396191, India","icon":"https://assets.plugshare.com/icons/G.png","icon_type":"G","id":307472,"latitude":20.385191,"longitude":72.901439,"name":"Jodhpur Sweets ElectroEco Bolt SC","stations":[{"id":714007,"outlets":[{"connector":9,"id":2147099,"kilowatts":null,"power":0,"status":null}]}],"url":"http://api.plugshare.com/view/location/307472"},{"access":1,"address":"Magenta TTC, Haribaba Sadhu Gaikwad Marg, Turbhe MIDC, Turbhe, Navi Mumbai, Maharashtra 400705, India","icon":"https://assets.plugshare.com/icons/Y.png","icon_type":"Y","id":328198,"latitude":19.068737,"longitude":73.022985,"name":"Magenta TTC Chargegrid FC","score":10.0,"stations":[{"id":770902,"outlets":[{"connector":13,"id":2261088,"kilowatts":null,"power":0,"status":null},{"connector":3,"id":2334845,"kilowatts":null,"power":0,"status":null}]},{"id":827212,"outlets":[{"connector":13,"id":2334843,"kilowatts":null,"power":0,"status":null},{"connector":13,"id":2334844,"kilowatts":null,"power":0,"status":null}]}],"url":"http://api.plugshare.com/view/location/328198"},{"access":1,"address":"D-232, Mumbai - Pune Hwy, MIDC Industrial Area, Shiravane, Nerul, Navi Mumbai, Maharashtra 400614, India","icon":"https://assets.plugshare.com/icons/Y.png","icon_type":"Y","id":304000,"latitude":19.036467,"longitude":73.029714,"name":"Fortune Cars TATA Power FC (25kW)","score":10.0,"stations":[{"id":705783,"network_id":1012,"outlets":[{"connector":3,"id":2130684,"kilowatts":null,"power":0,"status":null},{"connector":13,"id":2130685,"kilowatts":null,"power":0,"status":null}]}],"url":"http://api.plugshare.com/view/location/304000"},{"access":1,"address":"410 Vithal peth old jalgaon ","icon":"https://assets.plugshare.com/icons/G.png","icon_type":"G","id":337084,"latitude":21.006815,"longitude":75.572023,"name":"Tejas Bhavsar","stations":[{"id":795009,"network_id":1,"outlets":[{"connector":10,"id":2292512,"kilowatts":null,"power":0,"status":null}]}],"url":"http://api.plugshare.com/view/location/337084"},{"access":1,"address":"near MIT college . beed bypass","icon":"https://assets.plugshare.com/icons/G.png","icon_type":"G","id":336132,"latitude":19.849829,"longitude":75.364497,"name":"metro gym","stations":[{"id":792655,"outlets":[{"connector":1,"id":2289385,"kilowatts":null,"power":0,"status":null}]},{"id":792654,"outlets":[{"connector":9,"id":2289384,"kilowatts":null,"power":0,"status":null}]}],"url":"http://api.plugshare.com/view/location/336132"},{"access":1,"address":"Near Dev Kutir Bunglows, Opp. Bopal BRTS Bus Stop,, Iscon - Bopal Road, Ambli,, Ambli, Ahmedabad, Gujarat 380058, India","icon":"https://assets.plugshare.com/icons/Y.png","icon_type":"Y","id":304696,"latitude":23.025542,"longitude":72.479916,"name":"Renault Karnavati West","stations":[{"id":707411,"outlets":[{"connector":3,"id":2134162,"kilowatts":null,"power":0,"status":null},{"connector":13,"id":2134163,"kilowatts":null,"power":0,"status":null}]}],"url":"http://api.plugshare.com/view/location/304696"},{"access":1,"address":"Opp Divya Bhaskar Press,S.G.Highway, Ahmedabad Ahmedabad","icon":"https://assets.plugshare.com/icons/G.png","icon_type":"G","id":59648,"latitude":23.001112,"longitude":72.499487,"name":"Shital Motors","stations":[{"id":82457,"outlets":[{"connector":2,"id":181236,"kilowatts":null,"power":0,"status":null}]}],"url":"http://api.plugshare.com/view/location/59648"},{"access":1,"address":"Panvel Complex, Service Rd, Old Panvel, Panvel, Navi Mumbai, Maharashtra 410206, India","icon":"https://assets.plugshare.com/icons/G.png","icon_type":"G","id":335831,"latitude":18.981592,"longitude":73.115569,"name":"Hotel Pravin Tata Power AC Type 2","score":9.0,"stations":[{"id":791915,"outlets":[{"connector":7,"id":2288418,"kilowatts":null,"power":0,"status":null}]}],"url":"http://api.plugshare.com/view/location/335831"},{"access":1,"address":"Sayli Restaurant, Pashan, Pune, Maharashtra 411021, India","icon":"https://assets.plugshare.com/icons/G.png","icon_type":"G","id":307871,"latitude":18.541471,"longitude":73.777881,"name":"eSakhi EV Bolt SC","stations":[{"id":715068,"outlets":[{"connector":9,"id":2149098,"kilowatts":null,"power":0,"status":null}]}],"url":"http://api.plugshare.com/view/location/307871"},{"access":1,"address":"Prem Sagar Building, Baner - Balewadi Rd, Baner, Pune, Maharashtra 411045, India","icon":"https://assets.plugshare.com/icons/G.png","icon_type":"G","id":307870,"latitude":18.571187,"longitude":73.781169,"name":"Bolt SC","stations":[{"id":715067,"outlets":[{"connector":9,"id":2149097,"kilowatts":null,"power":0,"status":null}]}],"url":"http://api.plugshare.com/view/location/307870"},{"access":1,"address":"Della Enclave Rd, Kune Village, Khandala, Kune N.m., Maharashtra 410405, India","icon":"https://assets.plugshare.com/icons/G.png","icon_type":"G","id":326876,"latitude":18.779394,"longitude":73.388002,"name":"Della Resort  Khandala Slow Charger","stations":[{"id":767243,"outlets":[{"connector":9,"id":2256178,"kilowatts":null,"power":0,"status":null}]}],"url":"http://api.plugshare.com/view/location/326876"},{"access":1,"address":"735, Jalna Road, MIDC Industrial Area, Chilkalthana, Aurangabad, Maharashtra 431001, India","icon":"https://assets.plugshare.com/icons/G.png","icon_type":"G","id":326594,"latitude":19.868856,"longitude":75.399531,"name":"IOCL Pump Tata Power Type 2","stations":[{"id":766305,"outlets":[{"connector":7,"id":2254953,"kilowatts":null,"power":0,"status":null}]}],"url":"http://api.plugshare.com/view/location/326594"},{"access":1,"address":"Shop no 1, gail tower, Anand Mahal Rd, Adajan, Surat, Gujarat 395009, India","icon":"https://assets.plugshare.com/icons/G.png","icon_type":"G","id":307866,"latitude":21.206564,"longitude":72.793737,"name":"Hindustan E Motocorp Bolt SC","stations":[{"id":715063,"outlets":[{"connector":9,"id":2149093,"kilowatts":null,"power":0,"status":null}]}],"url":"http://api.plugshare.com/view/location/307866"},{"access":1,"address":"Plot C-68, G Block BKC, Bandra Kurla Complex, Bandra East, Mumbai, Maharashtra 400051, India","icon":"https://assets.plugshare.com/icons/Y.png","icon_type":"Y","id":306324,"latitude":19.059969,"longitude":72.864764,"name":"IOCL COCO BKC Tata Power FC","stations":[{"id":711058,"outlets":[{"connector":3,"id":2141222,"kilowatts":null,"power":0,"status":null},{"connector":13,"id":2141223,"kilowatts":null,"power":0,"status":null}]}],"url":"http://api.plugshare.com/view/location/306324"},{"access":1,"address":"Nagaon Bandar Rd, Revdanda, Maharashtra 402204, India","icon":"https://assets.plugshare.com/icons/G.png","icon_type":"G","id":333512,"latitude":18.591667,"longitude":72.9064,"name":"Kapil's Beach Resort","stations":[{"id":785395,"outlets":[{"connector":9,"id":2288286,"kilowatts":null,"power":0,"status":null}]}],"url":"http://api.plugshare.com/view/location/333512"},{"access":1,"address":"Shop Number 1,Mittapalli Estate, Shankarsheth Road Near 7 Loves Chowk, opposite Central Bank of India, Gultekadi, Pune, Maharashtra 411037, India","icon":"https://assets.plugshare.com/icons/Y.png","icon_type":"Y","id":330786,"latitude":18.499432,"longitude":73.868065,"name":"Mahati Industries Ltd Tata Power FC","stations":[{"id":778200,"outlets":[{"connector":3,"id":2270727,"kilowatts":null,"power":0,"status":null},{"connector":13,"id":2270728,"kilowatts":null,"power":0,"status":null}]}],"url":"http://api.plugshare.com/view/location/330786"},{"access":1,"address":"B-6, Cross Road B J B Nagar, Bhim Nagar, Andheri East, Mumbai, Maharashtra 400069, India","icon":"https://assets.plugshare.com/icons/Y.png","icon_type":"Y","id":306326,"latitude":19.115699,"longitude":72.868275,"name":"Zenith Chemical MIDC Marol Tata Power FC","stations":[{"id":711060,"outlets":[{"connector":3,"id":2141225,"kilowatts":null,"power":0,"status":null},{"connector":13,"id":2141226,"kilowatts":null,"power":0,"status":null}]}],"url":"http://api.plugshare.com/view/location/306326"},{"access":1,"address":"2, Alpha Garden, Plot 26, Sector 14, Kopar Khairane, Navi Mumbai, Maharashtra 400709, India","icon":"https://assets.plugshare.com/icons/G.png","icon_type":"G","id":156017,"latitude":19.09619,"longitude":73.003023,"name":"Magenta EV Charging - 1 | Kopar Khairane | Bike & Car Charging Station","stations":[{"id":302734,"outlets":[{"connector":7,"id":576561,"kilowatts":null,"power":0,"status":null}]},{"id":302737,"outlets":[{"connector":1,"id":576563,"kilowatts":null,"power":0,"status":null}]}],"url":"http://api.plugshare.com/view/location/156017"},{"access":1,"address":"Old Mumbai - Pune Hwy, Khandala, Kune N.m., Maharashtra 410301, India","icon":"https://assets.plugshare.com/icons/G.png","icon_type":"G","id":332568,"latitude":18.759085,"longitude":73.370602,"name":"Smoky Mountains Wall Charger","stations":[{"id":783030,"outlets":[{"connector":9,"id":2277043,"kilowatts":null,"power":0,"status":null}]}],"url":"http://api.plugshare.com/view/location/332568"},{"access":1,"address":"Unit No. 4&5, Building No.5 Square Industrial Park, Tungar Phata, Western Express Hwy, near Hotel Rudra Shelter International, Vasai East, Maharashtra 401208","icon":"https://assets.plugshare.com/icons/G.png","icon_type":"G","id":349248,"latitude":19.412421,"longitude":72.879214,"name":"Max Laser Metal Works","stations":[{"id":830179,"outlets":[{"connector":9,"id":2347726,"kilowatts":null,"power":0,"status":null}]}],"url":"http://api.plugshare.com/view/location/349248"},{"access":1,"address":"G- 1104 , Abhiman Homes, Shirgaon, Maharashtra 410506, India","icon":"https://assets.plugshare.com/icons/G.png","icon_type":"G","id":359052,"latitude":18.683141,"longitude":73.687111,"name":"Abhiman Homes Shirgaon Bolt Wall Charger","stations":[{"id":856843,"outlets":[{"connector":9,"id":2383278,"kilowatts":null,"power":0,"status":null}]}],"url":"http://api.plugshare.com/view/location/359052"},{"access":1,"address":"Clue Hunt Andheri, KL Walawalkar Marg, Sahayog Nagar, Bhudargarh Colony, Andheri West, Mumbai, Maharashtra 400102, India","icon":"https://assets.plugshare.com/icons/Y.png","icon_type":"Y","id":306329,"latitude":19.130521,"longitude":72.830562,"name":"Tata Power Versova FC","stations":[{"id":711063,"outlets":[{"connector":3,"id":2141229,"kilowatts":null,"power":0,"status":null},{"connector":13,"id":2141230,"kilowatts":null,"power":0,"status":null}]}],"url":"http://api.plugshare.com/view/location/306329"},{"access":1,"address":"A, Amrut Building, 502, High Street, Hiranandani Gardens, Powai, Hiranandani Gardens, Powai, Mumbai, Maharashtra 400076, India","icon":"https://assets.plugshare.com/icons/Y.png","icon_type":"Y","id":326633,"latitude":19.11627,"longitude":72.910874,"name":"Brookfield Spectra Tata Power FC","stations":[{"id":766498,"outlets":[{"connector":3,"id":2255169,"kilowatts":null,"power":0,"status":null},{"connector":13,"id":2255170,"kilowatts":null,"power":0,"status":null}]}],"url":"http://api.plugshare.com/view/location/326633"},{"access":1,"address":"SEP-2, B- East Pirojshanagar,, 3, Vikhroli Village Rd, Pirojshanagar, Vikhroli East, Mumbai, Maharashtra 400079, India","icon":"https://assets.plugshare.com/icons/Y.png","icon_type":"Y","id":125922,"latitude":19.094964,"longitude":72.926241,"name":"Tata Power Vikhroli","score":8.6,"stations":[{"id":225455,"network_id":1012,"outlets":[{"connector":7,"id":474050,"kilowatts":null,"power":0,"status":null}]},{"id":503291,"network_id":1012,"outlets":[{"connector":3,"id":1242963,"kilowatts":null,"power":0,"status":null},{"connector":13,"id":1242964,"kilowatts":null,"power":0,"status":null}]},{"id":795112,"network_id":1012,"outlets":[{"connector":7,"id":2292638,"kilowatts":null,"power":0,"status":null}]}],"url":"http://api.plugshare.com/view/location/125922"},{"access":1,"address":"5, RTO Colony, Mumbai Central, Mumbai, Maharashtra 400011, India","icon":"https://assets.plugshare.com/icons/G.png","icon_type":"G","id":306321,"latitude":18.979747,"longitude":72.825484,"name":"Raheja Viverea Private Captive Type 2 FC","stations":[{"id":711052,"outlets":[{"connector":7,"id":2141215,"kilowatts":null,"power":0,"status":null}]},{"id":711053,"outlets":[{"connector":7,"id":2141216,"kilowatts":null,"power":0,"status":null}]}],"url":"http://api.plugshare.com/view/location/306321"},{"access":1,"address":"QF2R+8HM, Malavli, Maharashtra 410405, India","icon":"https://assets.plugshare.com/icons/G.png","icon_type":"G","id":344366,"latitude":18.750905,"longitude":73.491446,"name":"Guest Only - Om Sai Bungalow Malavli Wall Charger","stations":[{"id":815047,"outlets":[{"connector":9,"id":2318897,"kilowatts":null,"power":0,"status":null}]}],"url":"http://api.plugshare.com/view/location/344366"},{"access":1,"address":"plot no 18, Ajalkar Nagar, Dhule, Maharashtra 424001, India","icon":"https://assets.plugshare.com/icons/G.png","icon_type":"G","id":327395,"latitude":20.888824,"longitude":74.753599,"name":"Mahindra First Choice","stations":[{"id":768706,"outlets":[{"connector":9,"id":2258273,"kilowatts":null,"power":0,"status":null}]}],"url":"http://api.plugshare.com/view/location/327395"},{"access":1,"address":"29, Sahakar Nagar, Snehlataganj, Indore, Madhya Pradesh 452003, India","icon":"https://assets.plugshare.com/icons/Y.png","icon_type":"Y","id":326229,"latitude":22.729022,"longitude":75.863533,"name":"IOCL Pump Tata Power FC","stations":[{"id":765385,"outlets":[{"connector":3,"id":2253805,"kilowatts":null,"power":0,"status":null},{"connector":13,"id":2253806,"kilowatts":null,"power":0,"status":null}]}],"url":"http://api.plugshare.com/view/location/326229"},{"access":1,"address":"Ashram Road, Satyawadi Society, Usman Pura, Satyawadi Society, Usmanpura, Ahmedabad, Gujarat 380013, India","icon":"https://assets.plugshare.com/icons/Y.png","icon_type":"Y","id":339808,"latitude":23.052211,"longitude":72.571102,"name":"Fairfield By Marriott Ahmedabad Tata Power FC","stations":[{"id":802021,"outlets":[{"connector":3,"id":2301843,"kilowatts":null,"power":0,"status":null},{"connector":13,"id":2301844,"kilowatts":null,"power":0,"status":null}]},{"id":802022,"outlets":[{"connector":7,"id":2301845,"kilowatts":null,"power":0,"status":null}]}],"url":"http://api.plugshare.com/view/location/339808"},{"access":1,"address":"M 902, Indraprasth Tower, Drive In Rd, Nilmani Society, Thaltej, Ahmedabad, Gujarat 380052, India","icon":"https://assets.plugshare.com/icons/Y.png","icon_type":"Y","id":304698,"latitude":23.047373,"longitude":72.530673,"name":"Hotel Ginger Tata Power FC","stations":[{"id":707413,"outlets":[{"connector":3,"id":2134166,"kilowatts":null,"power":0,"status":null},{"connector":13,"id":2134167,"kilowatts":null,"power":0,"status":null}]}],"url":"http://api.plugshare.com/view/location/304698"},{"access":1,"address":"Sarvam Complex, Aurobindo Ghosh Rd, Roshan Nagar, Ram Wadi, Vadodara, Gujarat 390024, India","icon":"https://assets.plugshare.com/icons/Y.png","icon_type":"Y","id":326228,"latitude":22.335771,"longitude":73.173815,"name":"TML SP Motors","stations":[{"id":765384,"outlets":[{"connector":3,"id":2253803,"kilowatts":null,"power":0,"status":null},{"connector":13,"id":2253804,"kilowatts":null,"power":0,"status":null}]}],"url":"http://api.plugshare.com/view/location/326228"},{"access":1,"address":"I.O.C. Petrol Pump, Subhanpura, Vadodara, Gujarat 390023, India","icon":"https://assets.plugshare.com/icons/Y.png","icon_type":"Y","id":340249,"latitude":22.321399,"longitude":73.154993,"name":"IOCL Pump","stations":[{"id":803159,"outlets":[{"connector":13,"id":2303396,"kilowatts":null,"power":0,"status":null},{"connector":3,"id":2303395,"kilowatts":null,"power":0,"status":null}]}],"url":"http://api.plugshare.com/view/location/340249"},{"access":1,"address":"V8VH+HMJ, Himayat Bagh, Aurangabad, Maharashtra 431004, India","icon":"https://assets.plugshare.com/icons/Y.png","icon_type":"Y","id":359182,"latitude":19.894125,"longitude":75.328649,"name":"AURANGABAD SMART CITY DEVELOPMENT CORPORATIONS","stations":[{"id":857127,"outlets":[{"connector":13,"id":2383627,"kilowatts":null,"power":0,"status":null}]}],"url":"http://api.plugshare.com/view/location/359182"},{"access":1,"address":"Shree Siddhivinayak Building, Maharashtra Nagar, Mankhurd, Mumbai, Maharashtra 400043, India","icon":"https://assets.plugshare.com/icons/G.png","icon_type":"G","id":337139,"latitude":19.052093,"longitude":72.940277,"name":"Tata Power Mankhurd RSS Tata Power AC Type-2","stations":[{"id":795113,"outlets":[{"connector":7,"id":2292639,"kilowatts":null,"power":0,"status":null}]}],"url":"http://api.plugshare.com/view/location/337139"},{"access":1,"address":"16a, Service Rd, Manpada, Ghodbunder, Thane, Maharashtra 400607, India","icon":"https://assets.plugshare.com/icons/Y.png","icon_type":"Y","id":220430,"latitude":19.232498,"longitude":72.97593,"name":"MG motors Fortum FC(50KW)","score":6.0,"stations":[{"id":503292,"outlets":[{"connector":13,"id":1242971,"kilowatts":null,"power":0,"status":null},{"connector":3,"id":1242972,"kilowatts":null,"power":0,"status":null}]}],"url":"http://api.plugshare.com/view/location/220430"},{"access":1,"address":"CTS 227, Gupha Tekdi, Western Express Hwy, opposite Bala Saheb Thackrey Hospital, HW, Jogeshwari East, Mumbai, Maharashtra 400063, India","icon":"https://assets.plugshare.com/icons/Y.png","icon_type":"Y","id":220432,"latitude":19.139947,"longitude":72.855338,"name":"MG Motors Fortum FC(50KW)","stations":[{"id":481087,"outlets":[{"connector":13,"id":1187716,"kilowatts":50.0,"power":0,"status":null},{"connector":3,"id":1131840,"kilowatts":50.0,"power":0,"status":null}]}],"url":"http://api.plugshare.com/view/location/220432"},{"access":1,"address":"Sarkhej - Gandhinagar Hwy, Patel Society, Bhaikakanagar, Thaltej, Ahmedabad, Gujarat 380058, India","icon":"https://assets.plugshare.com/icons/G.png","icon_type":"G","id":142580,"latitude":23.050751,"longitude":72.518611,"name":"Thaltej","stations":[{"id":269448,"outlets":[{"connector":2,"id":536730,"kilowatts":null,"power":0,"status":null}]},{"id":269447,"outlets":[{"connector":2,"id":536729,"kilowatts":null,"power":0,"status":null}]}],"url":"http://api.plugshare.com/view/location/142580"},{"access":1,"address":"4/28, Sector 10, MIDC, Bhosari, Pimpri-Chinchwad, Maharashtra 411026, India","icon":"https://assets.plugshare.com/icons/G.png","icon_type":"G","id":304962,"latitude":18.643707,"longitude":73.83178,"name":"Tork Motors Chargegrid FC","stations":[{"id":708061,"outlets":[{"connector":7,"id":2135486,"kilowatts":null,"power":0,"status":null}]}],"url":"http://api.plugshare.com/view/location/304962"},{"access":1,"address":"Pushpanjali B Law College Road, Kanchan Lane, Pune, Maharashtra 411004, India","icon":"https://assets.plugshare.com/icons/G.png","icon_type":"G","id":347865,"latitude":18.515821,"longitude":73.825358,"name":"CA DHIRAJ OSTWAL","stations":[{"id":826229,"outlets":[{"connector":14,"id":2333546,"kilowatts":null,"power":0,"status":null}]}],"url":"http://api.plugshare.com/view/location/347865"},{"access":1,"address":"Chakan - Nanekarwadi - Pune, Century Enka Colony, Bhosari, Pimpri-Chinchwad, Maharashtra 411039, India","icon":"https://assets.plugshare.com/icons/Y.png","icon_type":"Y","id":313090,"latitude":18.615489,"longitude":73.846258,"name":"TML Panchjanya Bhosari Tata Power FC","stations":[{"id":729430,"outlets":[{"connector":3,"id":2192306,"kilowatts":null,"power":0,"status":null},{"connector":13,"id":2192307,"kilowatts":null,"power":0,"status":null}]}],"url":"http://api.plugshare.com/view/location/313090"},{"access":1,"address":"Patidar Colony, Burhanpur, SH-27, Station Road, Burhanpur, patidar colony, Burhanpur, Madhya Pradesh 450331, India","icon":"https://assets.plugshare.com/icons/G.png","icon_type":"G","id":359050,"latitude":21.31543,"longitude":76.228291,"name":"Sahaj Bolt Wall Charger","stations":[{"id":856841,"outlets":[{"connector":9,"id":2383276,"kilowatts":null,"power":0,"status":null}]}],"url":"http://api.plugshare.com/view/location/359050"},{"access":1,"address":"P9XV+3FC, Thombrewadi, Lonavla, Maharashtra 410401, India","icon":"https://assets.plugshare.com/icons/G.png","icon_type":"G","id":353353,"latitude":18.746857,"longitude":73.393967,"name":"Sluice Stays Ama Tata Power Type-2","stations":[{"id":841727,"network_id":1012,"outlets":[{"connector":7,"id":2362697,"kilowatts":null,"power":0,"status":null}]}],"url":"http://api.plugshare.com/view/location/353353"},{"access":1,"address":"1st Floor, Unit No. 11/1 & 11/2,City Mall, Near Rajpath Club, Sarkhej - Gandhinagar Road, Bodakdev, Bodakdev, Ahmedabad, Gujarat 380054, India","icon":"https://assets.plugshare.com/icons/Y.png","icon_type":"Y","id":304697,"latitude":23.035263,"longitude":72.509576,"name":"TML Riya Autolink","stations":[{"id":707412,"outlets":[{"connector":3,"id":2134164,"kilowatts":null,"power":0,"status":null},{"connector":13,"id":2134165,"kilowatts":null,"power":0,"status":null}]}],"url":"http://api.plugshare.com/view/location/304697"},{"access":1,"address":"Ambli Road, Thaltej Road Hebatpur, Village, Thaltej, Ahmedabad, Gujarat 380058, India","icon":"https://assets.plugshare.com/icons/Y.png","icon_type":"Y","id":352585,"latitude":23.05333,"longitude":72.493884,"name":"Ambli Road Railway Station","stations":[{"id":839714,"outlets":[{"connector":13,"id":2359706,"kilowatts":null,"power":0,"status":null}]}],"url":"http://api.plugshare.com/view/location/352585"},{"access":1,"address":"157, Bhanushankar Yagnik Rd, Behind Petrolium House, Backbay Reclamation, Churchgate, Mumbai, Maharashtra 400020, India","icon":"https://assets.plugshare.com/icons/Y.png","icon_type":"Y","id":350026,"latitude":18.928713,"longitude":72.825448,"name":"HP Station Churchgate Statiq FC","score":5.8,"stations":[{"id":832537,"outlets":[{"connector":3,"id":2350761,"kilowatts":null,"power":0,"status":null},{"connector":13,"id":2350762,"kilowatts":null,"power":0,"status":null}]}],"url":"http://api.plugshare.com/view/location/350026"},{"access":1,"address":"613/4,Ganga Dham Bungalow Society, Bungalow No. 1, Sai Dham,Near Market Yard, Phase 1, Ganga Dham, Pune, Maharashtra 411037, India","icon":"https://assets.plugshare.com/icons/G.png","icon_type":"G","id":337136,"latitude":18.47862,"longitude":73.873765,"name":"Mahati Industries Tata Power AC type-2","stations":[{"id":795107,"outlets":[{"connector":7,"id":2292633,"kilowatts":null,"power":0,"status":null}]}],"url":"http://api.plugshare.com/view/location/337136"},{"access":1,"address":"Sawant Niwas R-2, Behind Sagar Hotel, Kharodi, Marve Rd, Malad, Rathodi, Malad West, Mumbai, Maharashtra 400095, India","icon":"https://assets.plugshare.com/icons/G.png","icon_type":"G","id":336403,"latitude":19.195224,"longitude":72.820221,"name":"Malad RSS Tata Power Type-2","stations":[{"id":793321,"outlets":[{"connector":7,"id":2290319,"kilowatts":null,"power":0,"status":null}]}],"url":"http://api.plugshare.com/view/location/336403"},{"access":1,"address":"Dhule - Malegaon Rd, Dhule, Maharashtra 424001, India","icon":"https://assets.plugshare.com/icons/G.png","icon_type":"G","id":335892,"latitude":20.892677,"longitude":74.773699,"name":"Hotel Ganpati Palace","stations":[{"id":792028,"outlets":[{"connector":9,"id":2288564,"kilowatts":null,"power":0,"status":null}]}],"url":"http://api.plugshare.com/view/location/335892"},{"access":1,"address":"XQ68+W44, Chetana nagar, Rane Nagar, Nashik, Maharashtra 422010, India","icon":"https://assets.plugshare.com/icons/Y.png","icon_type":"Y","id":356122,"latitude":19.962341,"longitude":73.765217,"name":"Click Hotel Tata Power FC","stations":[{"id":848984,"outlets":[{"connector":13,"id":2372408,"kilowatts":null,"power":0,"status":null}]}],"url":"http://api.plugshare.com/view/location/356122"},{"access":1,"address":"A-WING, RAVI ESTATE, Unnathi Gardens, Thane West, Thane, Maharashtra 400606, India","icon":"https://assets.plugshare.com/icons/G.png","icon_type":"G","id":353990,"latitude":19.217282,"longitude":72.960106,"name":"Pranav Sawant","stations":[{"id":843333,"outlets":[{"connector":7,"id":2364947,"kilowatts":null,"power":0,"status":null}]}],"url":"http://api.plugshare.com/view/location/353990"},{"access":1,"address":"Laxmi Niwas, Rajmata Jijau Marg, Krishna Nagar, Pimple Gurav, Pimpri-Chinchwad, Maharashtra 411027, India","icon":"https://assets.plugshare.com/icons/G.png","icon_type":"G","id":314733,"latitude":18.585302,"longitude":73.821271,"name":"RAJENDRA","stations":[{"id":733821,"outlets":[{"connector":7,"id":2207699,"kilowatts":null,"power":0,"status":null}]}],"url":"http://api.plugshare.com/view/location/314733"},{"access":1,"address":"Sabar Flats, Narayan Nagar Society, Narayan Nagar, Ahmedabad, Gujarat 380007, India","icon":"https://assets.plugshare.com/icons/G.png","icon_type":"G","id":350027,"latitude":22.998898,"longitude":72.559394,"name":"Mindra Crispy Culture Statiq Type-2","stations":[{"id":832538,"outlets":[{"connector":7,"id":2350764,"kilowatts":null,"power":0,"status":null},{"connector":7,"id":2350765,"kilowatts":null,"power":0,"status":null}]},{"id":832539,"outlets":[{"connector":7,"id":2350766,"kilowatts":null,"power":0,"status":null}]}],"url":"http://api.plugshare.com/view/location/350027"},{"access":1,"address":"Garkheda Road , Udyog shree ","icon":"https://assets.plugshare.com/icons/G.png","icon_type":"G","id":341437,"latitude":19.861017,"longitude":75.346354,"name":"Mrignayani Bar & Restaurant","stations":[{"id":807329,"outlets":[{"connector":9,"id":2308465,"kilowatts":null,"power":0,"status":null}]}],"url":"http://api.plugshare.com/view/location/341437"},{"access":1,"address":"PB No. 4032, Petroleum House, Behind Memnagar Fire Station, Navrangpura, Ahmedabad, Gujarat 380009, India","icon":"https://assets.plugshare.com/icons/G.png","icon_type":"G","id":329830,"latitude":23.045712,"longitude":72.550098,"name":"HP Retail RO Chargegrid Type2","stations":[{"id":775462,"outlets":[{"connector":7,"id":2267141,"kilowatts":null,"power":0,"status":null}]},{"id":775463,"outlets":[{"connector":7,"id":2267142,"kilowatts":null,"power":0,"status":null}]},{"id":775464,"outlets":[{"connector":7,"id":2267143,"kilowatts":null,"power":0,"status":null}]},{"id":775465,"outlets":[{"connector":7,"id":2267144,"kilowatts":null,"power":0,"status":null}]}],"url":"http://api.plugshare.com/view/location/329830"},{"access":1,"address":"114, Sundar Kamla Nagar, Western Railway Colony, Hanuman Nagar, Matunga, Mumbai, Maharashtra 400019, India","icon":"https://assets.plugshare.com/icons/Y.png","icon_type":"Y","id":316993,"latitude":19.036049,"longitude":72.849737,"name":"Dharavi Colony Tata Power FC","stations":[{"id":739655,"outlets":[{"connector":3,"id":2219568,"kilowatts":null,"power":0,"status":null},{"connector":13,"id":2219569,"kilowatts":null,"power":0,"status":null}]}],"url":"http://api.plugshare.com/view/location/316993"},{"access":1,"address":"Gala No 14-A, KBM Compound, Raje Shivaji Nagar, Marol, Andheri East, Mumbai, Maharashtra 400072, India","icon":"https://assets.plugshare.com/icons/G.png","icon_type":"G","id":311197,"latitude":19.12014,"longitude":72.88712,"name":"VOLTTIC- PUBLIC EV Fast CHARGER","stations":[{"id":724232,"outlets":[{"connector":14,"id":2172626,"kilowatts":null,"power":0,"status":null}]}],"url":"http://api.plugshare.com/view/location/311197"},{"access":1,"address":"Dadasaheb Sahasrabudhe Rd, Kiwale, Ravet, Pimpri-Chinchwad, Maharashtra 412101, India","icon":"https://assets.plugshare.com/icons/G.png","icon_type":"G","id":349784,"latitude":18.652774,"longitude":73.725347,"name":"Home charger","stations":[{"id":831970,"outlets":[{"connector":9,"id":2350045,"kilowatts":null,"power":0,"status":null}]}],"url":"http://api.plugshare.com/view/location/349784"},{"access":1,"address":"183-a, Tungarli, Lonavla, Maharashtra 410403, India","icon":"https://assets.plugshare.com/icons/G.png","icon_type":"G","id":305718,"latitude":18.760374,"longitude":73.41103,"name":"City Palace Resort Wall Charger","stations":[{"id":709677,"outlets":[{"connector":9,"id":2138567,"kilowatts":null,"power":0,"status":null}]}],"url":"http://api.plugshare.com/view/location/305718"},{"access":1,"address":"Sr.no 113/2 Rajyog Square,Walhekar Wadi , Sector No. 32, Nigdi, Pimpri-Chinchwad, Maharashtra 411033, India","icon":"https://assets.plugshare.com/icons/Y.png","icon_type":"Y","id":349112,"latitude":18.636455,"longitude":73.759312,"name":"Rajyog EV Walhekarwadi JoulePoint FC","stations":[{"id":829797,"outlets":[{"connector":13,"id":2347104,"kilowatts":null,"power":0,"status":null}]},{"id":829794,"outlets":[{"connector":3,"id":2347101,"kilowatts":null,"power":0,"status":null}]},{"id":829795,"outlets":[{"connector":3,"id":2347102,"kilowatts":null,"power":0,"status":null}]},{"id":829796,"outlets":[{"connector":13,"id":2347103,"kilowatts":null,"power":0,"status":null}]}],"url":"http://api.plugshare.com/view/location/349112"},{"access":1,"address":"Ashok Nagar, Tathawade Bearing Gate No-129/2B/1 At Village Tathawde, Taluka-Mulshi, Katraj-Dehu Rd Bypass, Ashok Nagar, Tathawade, Pimpri-Chinchwad, Maharashtra 411033, India","icon":"https://assets.plugshare.com/icons/Y.png","icon_type":"Y","id":303328,"latitude":18.623261,"longitude":73.745594,"name":"Garve Motors Tathawde Tata Power FC","score":10.0,"stations":[{"id":703929,"network_id":1012,"outlets":[{"connector":3,"id":2127435,"kilowatts":null,"power":0,"status":null},{"connector":13,"id":2127436,"kilowatts":null,"power":0,"status":null}]}],"url":"http://api.plugshare.com/view/location/303328"},{"access":1,"address":"SG Hwy Service Rd, Prahlad Nagar, Ahmedabad, Gujarat 380015, India","icon":"https://assets.plugshare.com/icons/Y.png","icon_type":"Y","id":337476,"latitude":23.01439,"longitude":72.503977,"name":"TML Progressive Cars Tata Power FC","stations":[{"id":795970,"outlets":[{"connector":3,"id":2293716,"kilowatts":null,"power":0,"status":null},{"connector":13,"id":2293717,"kilowatts":null,"power":0,"status":null}]}],"url":"http://api.plugshare.com/view/location/337476"},{"access":1,"address":"wagholi tel shevgoan dist ahmednagar ","icon":"https://assets.plugshare.com/icons/G.png","icon_type":"G","id":338548,"latitude":19.285967,"longitude":75.068173,"name":"Wagheshwari Medical","stations":[{"id":798799,"outlets":[{"connector":9,"id":2297578,"kilowatts":null,"power":0,"status":null}]}],"url":"http://api.plugshare.com/view/location/338548"},{"access":1,"address":"417, Teli Gali, Parsi Colony, Sai Wadi, Andheri East, Mumbai, Maharashtra 400069, India","icon":"https://assets.plugshare.com/icons/Y.png","icon_type":"Y","id":316995,"latitude":19.116031,"longitude":72.8503,"name":"Ginger Hotel Tata Power FC","score":9.0,"stations":[{"id":739657,"outlets":[{"connector":3,"id":2219572,"kilowatts":null,"power":0,"status":null},{"connector":13,"id":2219573,"kilowatts":null,"power":0,"status":null}]}],"url":"http://api.plugshare.com/view/location/316995"},{"access":1,"address":"Aziz Baug, Youth Council Rd, Tata Colony, Chembur, Mumbai, Maharashtra 400071, India","icon":"https://assets.plugshare.com/icons/G.png","icon_type":"G","id":337204,"latitude":19.039319,"longitude":72.901508,"name":"Tata Colony Tata Power AC type-2","stations":[{"id":795234,"outlets":[{"connector":7,"id":2292787,"kilowatts":null,"power":0,"status":null}]}],"url":"http://api.plugshare.com/view/location/337204"},{"access":1,"address":"Service Rd, MIDC, Pimpri Colony, Pimpri-Chinchwad, Maharashtra 411018, India","icon":"https://assets.plugshare.com/icons/G.png","icon_type":"G","id":324243,"latitude":18.623676,"longitude":73.807372,"name":"HPCL Pump  goEgo Fast AC","stations":[{"id":759004,"outlets":[{"connector":7,"id":2245255,"kilowatts":null,"power":0,"status":null}]},{"id":759006,"outlets":[{"connector":9,"id":2245257,"kilowatts":null,"power":0,"status":null}]},{"id":759007,"outlets":[{"connector":9,"id":2245258,"kilowatts":null,"power":0,"status":null}]},{"id":759008,"outlets":[{"connector":9,"id":2245259,"kilowatts":null,"power":0,"status":null}]}],"url":"http://api.plugshare.com/view/location/324243"},{"access":1,"address":"91A, Reay Road, Ghodapdeo, Mumbai, Maharashtra 400033, India","icon":"https://assets.plugshare.com/icons/G.png","icon_type":"G","id":331450,"latitude":18.981737,"longitude":72.842808,"name":"K.M.Patel & Co","stations":[{"id":779915,"outlets":[{"connector":7,"id":2273037,"kilowatts":null,"power":0,"status":null}]}],"url":"http://api.plugshare.com/view/location/331450"},{"access":1,"address":"SH92, Devnhave, Maharashtra 410203, India","icon":"https://assets.plugshare.com/icons/G.png","icon_type":"G","id":340502,"latitude":18.779096,"longitude":73.286262,"name":"Sainath Hotel, Slow 3pin Wall Charger","stations":[{"id":803691,"outlets":[{"connector":9,"id":2304046,"kilowatts":null,"power":0,"status":null}]}],"url":"http://api.plugshare.com/view/location/340502"},{"access":1,"address":"C/1, Belasis Rd, Marzban Parsi Colony, Dalal Estate, Kamathipura, Mumbai, Maharashtra 400008, India","icon":"https://assets.plugshare.com/icons/Y.png","icon_type":"Y","id":312117,"latitude":18.968579,"longitude":72.819899,"name":"Nathani Heights , Tata Power FC","stations":[{"id":726824,"outlets":[{"connector":13,"id":2178859,"kilowatts":null,"power":0,"status":null}]},{"id":726825,"outlets":[{"connector":3,"id":2178860,"kilowatts":null,"power":0,"status":null}]}],"url":"http://api.plugshare.com/view/location/312117"},{"access":1,"address":"100, Bhulabhai Desai Marg, Breach Candy, Cumballa Hill, Mumbai, Maharashtra 400026, India","icon":"https://assets.plugshare.com/icons/Y.png","icon_type":"Y","id":299520,"latitude":18.965566,"longitude":72.803463,"name":"IOCL Tata Power, Breach Candy","stations":[{"id":679265,"outlets":[{"connector":3,"id":2094702,"kilowatts":null,"power":0,"status":null},{"connector":13,"id":2094703,"kilowatts":null,"power":0,"status":null}]}],"url":"http://api.plugshare.com/view/location/299520"},