[{"access":1,"address":"K112, Khempura, Udaipur, Rajasthan 313002, India","icon":"https://assets.plugshare.com/icons/Y.png","icon_type":"Y","id":305353,"latitude":24.574091,"longitude":73.746192,"name":"MG MOTOR UDAIPUR TATA POWER FC","score":9.0,"stations":[{"id":708878,"outlets":[{"connector":3,"id":2137060,"kilowatts":null,"power":0,"status":null},{"connector":13,"id":2137061,"kilowatts":null,"power":0,"status":null}]}],"url":"http://api.plugshare.com/view/location/305353"},{"access":1,"address":"3, Gondal Rd, behind Dunex Metal, Vavdi, Rajkot, Gujarat 360004, India","icon":"https://assets.plugshare.com/icons/Y.png","icon_type":"Y","id":304699,"latitude":22.234486,"longitude":70.801173,"name":"MG Motor Jai Ganesh Tata Power FC","stations":[{"id":707414,"outlets":[{"connector":3,"id":2134170,"kilowatts":null,"power":0,"status":null},{"connector":13,"id":2134171,"kilowatts":null,"power":0,"status":null}]}],"url":"http://api.plugshare.com/view/location/304699"},{"access":1,"address":"Udaipur","icon":"https://assets.plugshare.com/icons/G.png","icon_type":"G","id":303537,"latitude":24.563805,"longitude":73.707274,"name":"Home Unit - Mohit","stations":[{"id":704678,"outlets":[{"connector":7,"id":2128684,"kilowatts":null,"power":0,"status":null},{"connector":9,"id":2128685,"kilowatts":null,"power":0,"status":null}]}],"url":"http://api.plugshare.com/view/location/303537"},{"access":1,"address":"Plot No.5, Samithi School Rd, Patel Nagar, Udhyog Darshan Society, Om Shree Sai Jalaram Nagar, Udhna, Surat, Gujarat 394210, India","icon":"https://assets.plugshare.com/icons/Y.png","icon_type":"Y","id":269920,"latitude":21.16493,"longitude":72.835873,"name":"Chevrolet Service Center","stations":[{"id":594947,"outlets":[{"connector":13,"id":1648557,"kilowatts":null,"power":0,"status":null}]},{"id":594948,"outlets":[{"connector":3,"id":1648558,"kilowatts":null,"power":0,"status":null}]}],"url":"http://api.plugshare.com/view/location/269920"},{"access":1,"address":"7M8H+4GJ, Railway Area, Bhuj, Gujarat 370001, India","icon":"https://assets.plugshare.com/icons/Y.png","icon_type":"Y","id":355781,"latitude":23.265558,"longitude":69.678663,"name":"Click Hotel Bhuj Tata Power FC","stations":[{"id":848221,"network_id":1012,"outlets":[{"connector":13,"id":2371452,"kilowatts":null,"power":0,"status":null}]}],"url":"http://api.plugshare.com/view/location/355781"},{"access":1,"address":"RJHH+79H, Chittorgarh, Rajasthan 312001, India","icon":"https://assets.plugshare.com/icons/Y.png","icon_type":"Y","id":356429,"latitude":24.827762,"longitude":74.627731,"name":"Yash Tata Motors Chittorgarh Tata Power FC","stations":[{"id":849571,"network_id":1012,"outlets":[{"connector":13,"id":2373150,"kilowatts":null,"power":0,"status":null}]}],"url":"http://api.plugshare.com/view/location/356429"},{"access":1,"address":"L/49, Regional Transport Office Area, Junagad, Gujarat 362001, India","icon":"https://assets.plugshare.com/icons/Y.png","icon_type":"Y","id":355783,"latitude":21.528358,"longitude":70.458352,"name":"Click Hotel Junagad Tata Power FC","stations":[{"id":848223,"network_id":1012,"outlets":[{"connector":13,"id":2371455,"kilowatts":null,"power":0,"status":null}]}],"url":"http://api.plugshare.com/view/location/355783"},{"access":1,"address":"HQ8F+XJ3, Surendranagar, Gujarat 363421, India","icon":"https://assets.plugshare.com/icons/Y.png","icon_type":"Y","id":356432,"latitude":22.567381,"longitude":71.774198,"name":"Highway Food Mall Limbdi Charge-Zone FC","stations":[{"id":849631,"outlets":[{"connector":13,"id":2373210,"kilowatts":null,"power":0,"status":null},{"connector":13,"id":2373211,"kilowatts":null,"power":0,"status":null}]},{"id":849632,"outlets":[{"connector":7,"id":2373212,"kilowatts":null,"power":0,"status":null},{"connector":7,"id":2373213,"kilowatts":null,"power":0,"status":null}]}],"url":"http://api.plugshare.com/view/location/356432"},{"access":1,"address":"Ankleshwar - Burhanpur Hwy, Narayan Nagar, Swami Vivekanand Nagar, Shahada, Maharashtra 425409, India","icon":"https://assets.plugshare.com/icons/G.png","icon_type":"G","id":307527,"latitude":21.535057,"longitude":74.473715,"name":"Raj Motors Bolt SC","stations":[{"id":714181,"outlets":[{"connector":9,"id":2147479,"kilowatts":null,"power":0,"status":null}]}],"url":"http://api.plugshare.com/view/location/307527"},{"access":1,"address":"Unnamed Road, Gujarat 393151, India","icon":"https://assets.plugshare.com/icons/Y.png","icon_type":"Y","id":325433,"latitude":21.885796,"longitude":73.688162,"name":"IOCL Pump Tata Power FC","stations":[{"id":762898,"outlets":[{"connector":13,"id":2250330,"kilowatts":null,"power":0,"status":null},{"connector":3,"id":2250329,"kilowatts":null,"power":0,"status":null}]}],"url":"http://api.plugshare.com/view/location/325433"},{"access":1,"address":"govind villa gaav dhawari","icon":"https://assets.plugshare.com/icons/G.png","icon_type":"G","id":322007,"latitude":23.92811,"longitude":73.828804,"name":"Govind Villa","stations":[{"id":753337,"outlets":[{"connector":2,"id":2237636,"kilowatts":null,"power":0,"status":"UNKNOWN"}]}],"url":"http://api.plugshare.com/view/location/322007"},{"access":1,"address":"Vagapara main road Opp : saty narayan apartment Morbi :, Sardar Nagar, Morbi, Gujarat 363641, India","icon":"https://assets.plugshare.com/icons/G.png","icon_type":"G","id":307863,"latitude":22.813812,"longitude":70.834755,"name":"Active E Bike Bolt SC","stations":[{"id":715060,"outlets":[{"connector":9,"id":2149090,"kilowatts":null,"power":0,"status":null}]}],"url":"http://api.plugshare.com/view/location/307863"},{"access":1,"address":"4HFP+VRX, Qila Kumbhalgarh, Rajasthan 313325, India","icon":"https://assets.plugshare.com/icons/G.png","icon_type":"G","id":348739,"latitude":25.126663,"longitude":73.587593,"name":"Club Mahindra Kumbalgarh","stations":[{"id":828631,"outlets":[{"connector":9,"id":2345484,"kilowatts":null,"power":0,"status":null}]}],"url":"http://api.plugshare.com/view/location/348739"},{"access":1,"address":"GJ SH 25, Hirana, Gujarat 365435, India","icon":"https://assets.plugshare.com/icons/G.png","icon_type":"G","id":219806,"latitude":21.814372,"longitude":71.418168,"name":"Noori Petroleum","stations":[{"id":479338,"outlets":[{"connector":2,"id":1117994,"kilowatts":null,"power":0,"status":null}]},{"id":479337,"outlets":[{"connector":6,"id":1117989,"kilowatts":null,"power":0,"status":null}]}],"url":"http://api.plugshare.com/view/location/219806"},{"access":1,"address":"NH 48, Piplodi, Gujarat 383120, India","icon":"https://assets.plugshare.com/icons/G.png","icon_type":"G","id":339205,"latitude":23.574771,"longitude":72.957145,"name":"TML SP Cars Himatnagar Wall Charger","stations":[{"id":800498,"outlets":[{"connector":9,"id":2299699,"kilowatts":null,"power":0,"status":null}]}],"url":"http://api.plugshare.com/view/location/339205"},{"access":1,"address":"T Junction, Gujarat State Highway 36, Dist, Barwala, Gujarat 382450","icon":"https://assets.plugshare.com/icons/Y.png","icon_type":"Y","id":360733,"latitude":22.144597,"longitude":71.896624,"name":"Hotel Grand Arya","stations":[{"id":861442,"outlets":[{"connector":13,"id":2389877,"kilowatts":null,"power":0,"status":null},{"connector":3,"id":2389882,"kilowatts":null,"power":0,"status":null}]}],"url":"http://api.plugshare.com/view/location/360733"},{"access":1,"address":"G9VJ+M4Q Mehsana by Pass Circle, Mehsana, Gujarat 384435, India","icon":"https://assets.plugshare.com/icons/Y.png","icon_type":"Y","id":361157,"latitude":23.54344,"longitude":72.381339,"name":"Falcon Motors","stations":[{"id":862656,"network_id":1012,"outlets":[{"connector":13,"id":2391634,"kilowatts":null,"power":0,"status":null}]}],"url":"http://api.plugshare.com/view/location/361157"},{"access":1,"address":"NH927A, Jethana Rural, Rajasthan 314031, India","icon":"https://assets.plugshare.com/icons/G.png","icon_type":"G","id":329497,"latitude":23.648739,"longitude":74.053649,"name":"Hakimi Motors Wall Charger","stations":[{"id":774574,"outlets":[{"connector":9,"id":2265953,"kilowatts":null,"power":0,"status":null}]}],"url":"http://api.plugshare.com/view/location/329497"},{"access":1,"address":"Pawapuri Teerath Dham, Delhi Kandla Highway Post Krishnaganj, Rajasthan 307001, India","icon":"https://assets.plugshare.com/icons/G.png","icon_type":"G","id":348984,"latitude":24.749385,"longitude":72.708667,"name":"Shree Pawapuri Jain Thirth","stations":[{"id":829254,"outlets":[{"connector":9,"id":2346319,"kilowatts":null,"power":0,"status":null}]}],"url":"http://api.plugshare.com/view/location/348984"},{"access":1,"address":"Hotel Kismat Kathiyawadi, NH 48, Mumbai Ahmedabad Highway, Near Vadalla, Bharuch, Gujarat","icon":"https://assets.plugshare.com/icons/Y.png","icon_type":"Y","id":337728,"latitude":21.750191,"longitude":73.019633,"name":"Hotel Kismat Kathiyawadi","score":9.0,"stations":[{"id":796678,"outlets":[{"connector":3,"id":2294694,"kilowatts":null,"power":0,"status":null},{"connector":13,"id":2294695,"kilowatts":null,"power":0,"status":null}]}],"url":"http://api.plugshare.com/view/location/337728"},{"access":1,"address":"NH 48, Gujarat 391240, India","icon":"https://assets.plugshare.com/icons/Y.png","icon_type":"Y","id":337130,"latitude":22.023883,"longitude":73.117433,"name":"Honest  Restaurant Charge Zone FC","score":9.0,"stations":[{"id":795098,"outlets":[{"connector":13,"id":2292621,"kilowatts":null,"power":0,"status":null},{"connector":13,"id":2292622,"kilowatts":null,"power":0,"status":null}]}],"url":"http://api.plugshare.com/view/location/337130"},{"access":1,"address":"WHJ9+WJR, Bhuwali, Rajasthan 314011, India","icon":"https://assets.plugshare.com/icons/G.png","icon_type":"G","id":350313,"latitude":23.93101,"longitude":73.568299,"name":"Coming Soon - Neel Gagan Punjabi Dhaba Xobolt FC","stations":[{"id":833453,"outlets":[{"connector":9,"id":2356174,"kilowatts":null,"power":0,"status":null}]}],"url":"http://api.plugshare.com/view/location/350313"},{"access":1,"address":"Navsari Exit, GIDC Kabilpore, Navsari, Gujarat 396445, India","icon":"https://assets.plugshare.com/icons/Y.png","icon_type":"Y","id":337072,"latitude":20.944351,"longitude":72.963018,"name":"Hotel Fun City","score":10.0,"stations":[{"id":794992,"outlets":[{"connector":13,"id":2292483,"kilowatts":null,"power":0,"status":null},{"connector":13,"id":2292484,"kilowatts":null,"power":0,"status":null}]}],"url":"http://api.plugshare.com/view/location/337072"},{"access":1,"address":"XQWX+XPH, Shiv Aradhna, Kuha, Gujarat 382433, India","icon":"https://assets.plugshare.com/icons/Y.png","icon_type":"Y","id":341273,"latitude":22.997434,"longitude":72.799368,"name":"IOCL Jay Petrol Pump Tata Power FC","stations":[{"id":806813,"outlets":[{"connector":13,"id":2307748,"kilowatts":null,"power":0,"status":null}]}],"url":"http://api.plugshare.com/view/location/341273"},{"access":1,"address":"8X23+H9J, Amboli, Gujarat 394150, India","icon":"https://assets.plugshare.com/icons/Y.png","icon_type":"Y","id":342114,"latitude":21.301278,"longitude":72.953389,"name":"Hotel Swagat Inn","stations":[{"id":809148,"outlets":[{"connector":13,"id":2310849,"kilowatts":null,"power":0,"status":null}]}],"url":"http://api.plugshare.com/view/location/342114"},{"access":1,"address":"NH 48, Gujarat 382321, India","icon":"https://assets.plugshare.com/icons/Y.png","icon_type":"Y","id":357123,"latitude":23.281302,"longitude":72.75968,"name":"Hpcl Bapa Sitaram Dhanap","stations":[{"id":851641,"network_id":1012,"outlets":[{"connector":13,"id":2375912,"kilowatts":null,"power":0,"status":null}]}],"url":"http://api.plugshare.com/view/location/357123"},{"access":1,"address":"RPXH+R4G, RICO Industrial Area, Dungarpur, Rajasthan 314001, India","icon":"https://assets.plugshare.com/icons/G.png","icon_type":"G","id":359042,"latitude":23.84933,"longitude":73.728203,"name":"The Way Automobile Bolt Wall Charger","stations":[{"id":856832,"outlets":[{"connector":9,"id":2383266,"kilowatts":null,"power":0,"status":null}]}],"url":"http://api.plugshare.com/view/location/359042"},{"access":1,"address":"111, Surat - Navsari Rd, Kanakpur, Sachin, Surat, Gujarat 394230, India","icon":"https://assets.plugshare.com/icons/G.png","icon_type":"G","id":317386,"latitude":21.077647,"longitude":72.885839,"name":"ND Electric  Vehicle Bolt SC","stations":[{"id":740625,"outlets":[{"connector":9,"id":2220854,"kilowatts":null,"power":0,"status":null}]}],"url":"http://api.plugshare.com/view/location/317386"},{"access":1,"address":"2-7-JM, Awadh Park Rd, Santoshi Nagar Slum, Rajkot, Gujarat 360006, India","icon":"https://assets.plugshare.com/icons/G.png","icon_type":"G","id":307864,"latitude":22.330293,"longitude":70.786056,"name":"Powerpace Technology Bolt SC","stations":[{"id":715061,"outlets":[{"connector":9,"id":2149091,"kilowatts":null,"power":0,"status":null}]}],"url":"http://api.plugshare.com/view/location/307864"},{"access":1,"address":"WGFV+XC7, Kamod, Gujarat 382427, India","icon":"https://assets.plugshare.com/icons/Y.png","icon_type":"Y","id":337479,"latitude":22.924794,"longitude":72.543489,"name":"IOCL Om Petroleum Tata Power FC","score":8.0,"stations":[{"id":795975,"outlets":[{"connector":3,"id":2293722,"kilowatts":null,"power":0,"status":null},{"connector":13,"id":2293723,"kilowatts":null,"power":0,"status":null}]}],"url":"http://api.plugshare.com/view/location/337479"},{"access":1,"address":"Urmin Products Private Limited, 48, Changodar Industrial Estate, Sarkhej-Bavla Rd, Changodar, Gujarat 382213, India","icon":"https://assets.plugshare.com/icons/G.png","icon_type":"G","id":307860,"latitude":22.928095,"longitude":72.452014,"name":"ECO Fuel System Bolt SC","stations":[{"id":715057,"outlets":[{"connector":9,"id":2149087,"kilowatts":null,"power":0,"status":null}]}],"url":"http://api.plugshare.com/view/location/307860"},{"access":1,"address":"395009, Jahangir Pura, Rander, Surat, Gujarat 395005, India","icon":"https://assets.plugshare.com/icons/G.png","icon_type":"G","id":307865,"latitude":21.235034,"longitude":72.789701,"name":"Shree EV Bolt SC","stations":[{"id":715062,"outlets":[{"connector":9,"id":2149092,"kilowatts":null,"power":0,"status":null}]}],"url":"http://api.plugshare.com/view/location/307865"},{"access":1,"address":"NH47, Changodar, Gujarat 382210, India","icon":"https://assets.plugshare.com/icons/Y.png","icon_type":"Y","id":339809,"latitude":22.938034,"longitude":72.45573,"name":"IOCL Changodar Pump Tata Power FC","stations":[{"id":802023,"outlets":[{"connector":3,"id":2301846,"kilowatts":null,"power":0,"status":null},{"connector":13,"id":2301847,"kilowatts":null,"power":0,"status":null}]}],"url":"http://api.plugshare.com/view/location/339809"},{"access":1,"address":"2, Gaurav Path, Adajan Gam, Adajan, Surat, Gujarat 394510, India","icon":"https://assets.plugshare.com/icons/Y.png","icon_type":"Y","id":304679,"latitude":21.15992,"longitude":72.770375,"name":"TML Shreeji Motors Tata Power FC","stations":[{"id":707385,"outlets":[{"connector":3,"id":2134104,"kilowatts":null,"power":0,"status":null},{"connector":13,"id":2134105,"kilowatts":null,"power":0,"status":null}]}],"url":"http://api.plugshare.com/view/location/304679"},{"access":1,"address":"30, 2nd floor, Bhagat Colony,Sushan Circle, GIDC Makarpura Industrial Area, Makarpura, Vadodara, Gujarat 390010, India","icon":"https://assets.plugshare.com/icons/G.png","icon_type":"G","id":69474,"latitude":22.258397,"longitude":73.197617,"name":"Gridscape Solutions","stations":[{"id":480742,"outlets":[{"connector":2,"id":1128757,"kilowatts":null,"power":0,"status":null}]},{"id":98217,"outlets":[{"connector":2,"id":476839,"kilowatts":null,"power":0,"status":null}]}],"url":"http://api.plugshare.com/view/location/69474"},{"access":1,"address":"Bharuch - Dahej Rd, Gujarat 392130, India","icon":"https://assets.plugshare.com/icons/Y.png","icon_type":"Y","id":356427,"latitude":21.716146,"longitude":72.656572,"name":"Hotel Suba Grand Dahej Tata Power FC","stations":[{"id":849569,"network_id":1012,"outlets":[{"connector":13,"id":2373148,"kilowatts":null,"power":0,"status":null}]}],"url":"http://api.plugshare.com/view/location/356427"},{"access":1,"address":"6, Ashoka Cinema Rd, Thakkre Baba Conlony, Bapu Bazar, Shakti Nagar, Udaipur, Rajasthan 313001, India","icon":"https://assets.plugshare.com/icons/Y.png","icon_type":"Y","id":310508,"latitude":24.581035,"longitude":73.696733,"name":"TML Chambal Motocorp Tata Power FC","stations":[{"id":722571,"outlets":[{"connector":3,"id":2167591,"kilowatts":null,"power":0,"status":null},{"connector":13,"id":2167592,"kilowatts":null,"power":0,"status":null}]}],"url":"http://api.plugshare.com/view/location/310508"},{"access":1,"address":"Rudra residency vadodara","icon":"https://assets.plugshare.com/icons/Y.png","icon_type":"Y","id":330551,"latitude":22.289398,"longitude":73.159623,"name":"vadodara","stations":[{"id":777304,"outlets":[{"connector":3,"id":2269502,"kilowatts":null,"power":0,"status":null}]}],"url":"http://api.plugshare.com/view/location/330551"},{"access":1,"address":"Tent City 1, Statue of Unity, Kevadia, Gujarat","icon":"https://assets.plugshare.com/icons/Y.png","icon_type":"Y","id":345712,"latitude":21.880349,"longitude":73.727323,"name":"MobiLane DC FC (80kW)","stations":[{"id":820796,"outlets":[{"connector":13,"id":2325739,"kilowatts":null,"power":0,"status":null},{"connector":13,"id":2325740,"kilowatts":null,"power":0,"status":null}]}],"url":"http://api.plugshare.com/view/location/345712"},{"access":1,"address":"5, Laxmi Society Ln, Mithakhali, Ahmedabad, Gujarat 380006, India","icon":"https://assets.plugshare.com/icons/Y.png","icon_type":"Y","id":306811,"latitude":23.029365,"longitude":72.561464,"name":"Westside Tata Power FC","stations":[{"id":712261,"outlets":[{"connector":3,"id":2143594,"kilowatts":null,"power":0,"status":null},{"connector":13,"id":2143595,"kilowatts":null,"power":0,"status":null}]}],"url":"http://api.plugshare.com/view/location/306811"},{"access":1,"address":"Hazira Rd, Kavas, Limla, Gujarat 394510, India","icon":"https://assets.plugshare.com/icons/Y.png","icon_type":"Y","id":341468,"latitude":21.16784,"longitude":72.73598,"name":"MG showroom Fortum Charge And Drive","stations":[{"id":807398,"outlets":[{"connector":13,"id":2308543,"kilowatts":null,"power":0,"status":null}]}],"url":"http://api.plugshare.com/view/location/341468"},{"access":1,"address":"SG highway ","icon":"https://assets.plugshare.com/icons/Y.png","icon_type":"Y","id":303539,"latitude":22.996648,"longitude":72.498259,"name":"MG Dealership Fortum FC","stations":[{"id":704680,"outlets":[{"connector":3,"id":2128689,"kilowatts":null,"power":0,"status":null},{"connector":13,"id":2128690,"kilowatts":null,"power":0,"status":null}]}],"url":"http://api.plugshare.com/view/location/303539"},{"access":1,"address":"60, Pani Tanki Rd, Ambalal Park, Opposite H.P. Petrol Pump, Jay Santoshi Nagar 2, Karelibagh, Vadodara, Gujarat 390002, India","icon":"https://assets.plugshare.com/icons/Y.png","icon_type":"Y","id":269921,"latitude":22.320606,"longitude":73.204035,"name":"HP COMCO","stations":[{"id":594949,"outlets":[{"connector":3,"id":2303901,"kilowatts":null,"power":0,"status":null},{"connector":3,"id":2303902,"kilowatts":null,"power":0,"status":null}]}],"url":"http://api.plugshare.com/view/location/269921"},{"access":1,"address":"A17, Rupsagar, Udaipur, Rajasthan 313001, India","icon":"https://assets.plugshare.com/icons/G.png","icon_type":"G","id":339125,"latitude":24.604032,"longitude":73.720794,"name":"Kyoto Resort Udaipur Wall Charger","stations":[{"id":800336,"outlets":[{"connector":9,"id":2299490,"kilowatts":null,"power":0,"status":null}]}],"url":"http://api.plugshare.com/view/location/339125"},{"access":1,"address":"12, Gota, Ahmedabad, Gujarat 382481, India","icon":"https://assets.plugshare.com/icons/G.png","icon_type":"G","id":307859,"latitude":23.098832,"longitude":72.532242,"name":"OM EV Shop No 3 Bolt SC","stations":[{"id":715056,"outlets":[{"connector":9,"id":2149086,"kilowatts":null,"power":0,"status":null}]}],"url":"http://api.plugshare.com/view/location/307859"},{"access":1,"address":"Near Dev Kutir Bunglows, Opp. Bopal BRTS Bus Stop,, Iscon - Bopal Road, Ambli,, Ambli, Ahmedabad, Gujarat 380058, India","icon":"https://assets.plugshare.com/icons/Y.png","icon_type":"Y","id":304696,"latitude":23.025542,"longitude":72.479916,"name":"Renault Karnavati West","stations":[{"id":707411,"outlets":[{"connector":3,"id":2134162,"kilowatts":null,"power":0,"status":null},{"connector":13,"id":2134163,"kilowatts":null,"power":0,"status":null}]}],"url":"http://api.plugshare.com/view/location/304696"},{"access":1,"address":"Opp Divya Bhaskar Press,S.G.Highway, Ahmedabad Ahmedabad","icon":"https://assets.plugshare.com/icons/G.png","icon_type":"G","id":59648,"latitude":23.001112,"longitude":72.499487,"name":"Shital Motors","stations":[{"id":82457,"outlets":[{"connector":2,"id":181236,"kilowatts":null,"power":0,"status":null}]}],"url":"http://api.plugshare.com/view/location/59648"},{"access":1,"address":"Shop no 1, gail tower, Anand Mahal Rd, Adajan, Surat, Gujarat 395009, India","icon":"https://assets.plugshare.com/icons/G.png","icon_type":"G","id":307866,"latitude":21.206564,"longitude":72.793737,"name":"Hindustan E Motocorp Bolt SC","stations":[{"id":715063,"outlets":[{"connector":9,"id":2149093,"kilowatts":null,"power":0,"status":null}]}],"url":"http://api.plugshare.com/view/location/307866"},{"access":1,"address":"Ashram Road, Satyawadi Society, Usman Pura, Satyawadi Society, Usmanpura, Ahmedabad, Gujarat 380013, India","icon":"https://assets.plugshare.com/icons/Y.png","icon_type":"Y","id":339808,"latitude":23.052211,"longitude":72.571102,"name":"Fairfield By Marriott Ahmedabad Tata Power FC","stations":[{"id":802021,"outlets":[{"connector":3,"id":2301843,"kilowatts":null,"power":0,"status":null},{"connector":13,"id":2301844,"kilowatts":null,"power":0,"status":null}]},{"id":802022,"outlets":[{"connector":7,"id":2301845,"kilowatts":null,"power":0,"status":null}]}],"url":"http://api.plugshare.com/view/location/339808"},{"access":1,"address":"M 902, Indraprasth Tower, Drive In Rd, Nilmani Society, Thaltej, Ahmedabad, Gujarat 380052, India","icon":"https://assets.plugshare.com/icons/Y.png","icon_type":"Y","id":304698,"latitude":23.047373,"longitude":72.530673,"name":"Hotel Ginger Tata Power FC","stations":[{"id":707413,"outlets":[{"connector":3,"id":2134166,"kilowatts":null,"power":0,"status":null},{"connector":13,"id":2134167,"kilowatts":null,"power":0,"status":null}]}],"url":"http://api.plugshare.com/view/location/304698"},{"access":1,"address":"Sarvam Complex, Aurobindo Ghosh Rd, Roshan Nagar, Ram Wadi, Vadodara, Gujarat 390024, India","icon":"https://assets.plugshare.com/icons/Y.png","icon_type":"Y","id":326228,"latitude":22.335771,"longitude":73.173815,"name":"TML SP Motors","stations":[{"id":765384,"outlets":[{"connector":3,"id":2253803,"kilowatts":null,"power":0,"status":null},{"connector":13,"id":2253804,"kilowatts":null,"power":0,"status":null}]}],"url":"http://api.plugshare.com/view/location/326228"},{"access":1,"address":"I.O.C. Petrol Pump, Subhanpura, Vadodara, Gujarat 390023, India","icon":"https://assets.plugshare.com/icons/Y.png","icon_type":"Y","id":340249,"latitude":22.321399,"longitude":73.154993,"name":"IOCL Pump","stations":[{"id":803159,"outlets":[{"connector":13,"id":2303396,"kilowatts":null,"power":0,"status":null},{"connector":3,"id":2303395,"kilowatts":null,"power":0,"status":null}]}],"url":"http://api.plugshare.com/view/location/340249"},{"access":1,"address":"Sarkhej - Gandhinagar Hwy, Patel Society, Bhaikakanagar, Thaltej, Ahmedabad, Gujarat 380058, India","icon":"https://assets.plugshare.com/icons/G.png","icon_type":"G","id":142580,"latitude":23.050751,"longitude":72.518611,"name":"Thaltej","stations":[{"id":269448,"outlets":[{"connector":2,"id":536730,"kilowatts":null,"power":0,"status":null}]},{"id":269447,"outlets":[{"connector":2,"id":536729,"kilowatts":null,"power":0,"status":null}]}],"url":"http://api.plugshare.com/view/location/142580"},{"access":1,"address":"1st Floor, Unit No. 11/1 & 11/2,City Mall, Near Rajpath Club, Sarkhej - Gandhinagar Road, Bodakdev, Bodakdev, Ahmedabad, Gujarat 380054, India","icon":"https://assets.plugshare.com/icons/Y.png","icon_type":"Y","id":304697,"latitude":23.035263,"longitude":72.509576,"name":"TML Riya Autolink","stations":[{"id":707412,"outlets":[{"connector":3,"id":2134164,"kilowatts":null,"power":0,"status":null},{"connector":13,"id":2134165,"kilowatts":null,"power":0,"status":null}]}],"url":"http://api.plugshare.com/view/location/304697"},{"access":1,"address":"Ambli Road, Thaltej Road Hebatpur, Village, Thaltej, Ahmedabad, Gujarat 380058, India","icon":"https://assets.plugshare.com/icons/Y.png","icon_type":"Y","id":352585,"latitude":23.05333,"longitude":72.493884,"name":"Ambli Road Railway Station","stations":[{"id":839714,"outlets":[{"connector":13,"id":2359706,"kilowatts":null,"power":0,"status":null}]}],"url":"http://api.plugshare.com/view/location/352585"},{"access":1,"address":"64, Satyam, Vishwas City 1, Sola, Ahmedabad, Gujarat 380081, India","icon":"https://assets.plugshare.com/icons/G.png","icon_type":"G","id":352512,"latitude":23.079129,"longitude":72.526785,"name":"satyam 64 emergency use","stations":[{"id":839568,"outlets":[{"connector":9,"id":2359520,"kilowatts":null,"power":0,"status":null}]}],"url":"http://api.plugshare.com/view/location/352512"},{"access":1,"address":"Sabar Flats, Narayan Nagar Society, Narayan Nagar, Ahmedabad, Gujarat 380007, India","icon":"https://assets.plugshare.com/icons/G.png","icon_type":"G","id":350027,"latitude":22.998898,"longitude":72.559394,"name":"Mindra Crispy Culture Statiq Type-2","stations":[{"id":832538,"outlets":[{"connector":7,"id":2350764,"kilowatts":null,"power":0,"status":null},{"connector":7,"id":2350765,"kilowatts":null,"power":0,"status":null}]},{"id":832539,"outlets":[{"connector":7,"id":2350766,"kilowatts":null,"power":0,"status":null}]}],"url":"http://api.plugshare.com/view/location/350027"},{"access":1,"address":"PB No. 4032, Petroleum House, Behind Memnagar Fire Station, Navrangpura, Ahmedabad, Gujarat 380009, India","icon":"https://assets.plugshare.com/icons/G.png","icon_type":"G","id":329830,"latitude":23.045712,"longitude":72.550098,"name":"HP Retail RO Chargegrid Type2","stations":[{"id":775462,"outlets":[{"connector":7,"id":2267141,"kilowatts":null,"power":0,"status":null}]},{"id":775463,"outlets":[{"connector":7,"id":2267142,"kilowatts":null,"power":0,"status":null}]},{"id":775464,"outlets":[{"connector":7,"id":2267143,"kilowatts":null,"power":0,"status":null}]},{"id":775465,"outlets":[{"connector":7,"id":2267144,"kilowatts":null,"power":0,"status":null}]}],"url":"http://api.plugshare.com/view/location/329830"},{"access":1,"address":"SG Hwy Service Rd, Prahlad Nagar, Ahmedabad, Gujarat 380015, India","icon":"https://assets.plugshare.com/icons/Y.png","icon_type":"Y","id":337476,"latitude":23.01439,"longitude":72.503977,"name":"TML Progressive Cars Tata Power FC","stations":[{"id":795970,"outlets":[{"connector":3,"id":2293716,"kilowatts":null,"power":0,"status":null},{"connector":13,"id":2293717,"kilowatts":null,"power":0,"status":null}]}],"url":"http://api.plugshare.com/view/location/337476"},{"access":1,"address":"MANIDHAR CORNER BESIDE HEMEOPATHIC COLLEGE Nr. Navjivan Circle, Udhana - Magdalla Rd, Janta Nagar, Swaminagar Society, Bhatar, Athwa, Surat, Gujarat 395017, India","icon":"https://assets.plugshare.com/icons/GR.png","icon_type":"GR","id":307868,"latitude":21.166837,"longitude":72.819118,"name":"ACUBE BattRe Showroom","stations":[{"id":715065,"outlets":[{"connector":9,"id":2149095,"kilowatts":null,"power":0,"status":null}]}],"url":"http://api.plugshare.com/view/location/307868"},{"access":1,"address":"Time Square Complex, 502-504, VIP Rd, near New Alka Restaurant, Tower C,IOC Petrol Pump Fatehgunj, Fatehgunj, Vadodara, Gujarat 390002, India","icon":"https://assets.plugshare.com/icons/G.png","icon_type":"G","id":356086,"latitude":22.323372,"longitude":73.187794,"name":"Four Points By Sheraton","stations":[{"id":848911,"outlets":[{"connector":9,"id":2372329,"kilowatts":null,"power":0,"status":null}]}],"url":"http://api.plugshare.com/view/location/356086"},{"access":1,"address":"142, 142, Sola Rd, Visharam Nagar, Ghatlodiya, Memnagar, Ahmedabad, Gujarat 380052, India","icon":"https://assets.plugshare.com/icons/Y.png","icon_type":"Y","id":354619,"latitude":23.063206,"longitude":72.531881,"name":"Hindustan Petroleum","stations":[{"id":844973,"network_id":1012,"outlets":[{"connector":13,"id":2367317,"kilowatts":null,"power":0,"status":null}]}],"url":"http://api.plugshare.com/view/location/354619"},{"access":1,"address":"5, Mahadev Estate Part-3, Cellulose Mill Compound, CTM - Ramol Rd, Janta Nagar, Ahmedabad, Gujarat 382449, India","icon":"https://assets.plugshare.com/icons/G.png","icon_type":"G","id":307861,"latitude":22.990188,"longitude":72.642697,"name":"Kcon Shop 36 Bolt SC","stations":[{"id":715058,"outlets":[{"connector":9,"id":2149088,"kilowatts":null,"power":0,"status":null}]}],"url":"http://api.plugshare.com/view/location/307861"},{"access":1,"address":"TOWER-A, 4,Vraj Vihar -6 B/H, Prernatirth Derasar Rd, Satellite, Ahmedabad, Gujarat 380015, India","icon":"https://assets.plugshare.com/icons/G.png","icon_type":"G","id":350028,"latitude":23.013977,"longitude":72.51787,"name":"Polar International Mrinda Statiq Type-2","stations":[{"id":832540,"outlets":[{"connector":7,"id":2350767,"kilowatts":null,"power":0,"status":null},{"connector":7,"id":2350768,"kilowatts":null,"power":0,"status":null}]}],"url":"http://api.plugshare.com/view/location/350028"},{"access":1,"address":"Unnamed Road, Moth, Rajasthan 314036, India","icon":"https://assets.plugshare.com/icons/G.png","icon_type":"G","id":337187,"latitude":23.921191,"longitude":73.840485,"name":"Hdhd","stations":[{"id":795202,"network_id":5,"outlets":[{"connector":4,"id":2292752,"kilowatts":null,"power":0,"status":null}]}],"url":"http://api.plugshare.com/view/location/337187"},{"access":1,"address":"Arya Samaj Rd, Shankar Tekri, Jamnagar, Gujarat 361005, India","icon":"https://assets.plugshare.com/icons/G.png","icon_type":"G","id":307862,"latitude":22.458432,"longitude":70.069314,"name":"E Bike Bazaar Bolt SC","stations":[{"id":715059,"outlets":[{"connector":9,"id":2149089,"kilowatts":null,"power":0,"status":null}]}],"url":"http://api.plugshare.com/view/location/307862"},{"access":1,"address":"Maruti Steel Rd, Vavdi, Rajkot, Gujarat 360004, India","icon":"https://assets.plugshare.com/icons/Y.png","icon_type":"Y","id":345571,"latitude":22.225768,"longitude":70.801255,"name":"Parin Motors Rajkot Tata Power FC","stations":[{"id":820428,"outlets":[{"connector":3,"id":2327035,"kilowatts":null,"power":0,"status":null},{"connector":13,"id":2325265,"kilowatts":null,"power":0,"status":null}]}],"url":"http://api.plugshare.com/view/location/345571"},{"access":1,"address":"45, Vastrapur, Ahmedabad, Gujarat 380015, India","icon":"https://assets.plugshare.com/icons/Y.png","icon_type":"Y","id":330623,"latitude":23.039927,"longitude":72.531881,"name":"Ahmedabad One Mall Tata Power FC","stations":[{"id":777474,"outlets":[{"connector":3,"id":2269790,"kilowatts":null,"power":0,"status":null},{"connector":13,"id":2269791,"kilowatts":null,"power":0,"status":null}]}],"url":"http://api.plugshare.com/view/location/330623"},{"access":1,"address":"9, Nandi Park Society, Piplod, Surat, Gujarat 395007, India","icon":"https://assets.plugshare.com/icons/G.png","icon_type":"G","id":307867,"latitude":21.163757,"longitude":72.77662,"name":"Veda Enterprise Bolt SC","stations":[{"id":715064,"outlets":[{"connector":9,"id":2149094,"kilowatts":null,"power":0,"status":null}]}],"url":"http://api.plugshare.com/view/location/307867"},{"access":1,"address":"2GR6+5FX, Bodakdev, Ahmedabad, Gujarat 380054, India","icon":"https://assets.plugshare.com/icons/Y.png","icon_type":"Y","id":347765,"latitude":23.040498,"longitude":72.511237,"name":"Abhinav Girls Hostel Charge-Zone FC","stations":[{"id":826025,"outlets":[{"connector":13,"id":2333253,"kilowatts":null,"power":0,"status":null},{"connector":13,"id":2333254,"kilowatts":null,"power":0,"status":null}]}],"url":"http://api.plugshare.com/view/location/347765"},{"access":1,"address":"7XW3+967, Amboli, Gujarat 394150, India","icon":"https://assets.plugshare.com/icons/Y.png","icon_type":"Y","id":358046,"latitude":21.295913,"longitude":72.953171,"name":"Coming Soon - Hotel Gamthi Kamrej Charge+Zone FC","stations":[{"id":854129,"outlets":[{"connector":13,"id":2379364,"kilowatts":null,"power":0,"status":null},{"connector":13,"id":2379365,"kilowatts":null,"power":0,"status":null}]}],"url":"http://api.plugshare.com/view/location/358046"},{"access":1,"address":"Plot No.31, Satya Marg, near Satyagraha Chavni, Satyagrah Chhavni Society, Bodakdev, Ahmedabad, Gujarat 380054","icon":"https://assets.plugshare.com/icons/Y.png","icon_type":"Y","id":347938,"latitude":23.033203,"longitude":72.513904,"name":"HP Autocare Bodakdev","stations":[{"id":826367,"outlets":[{"connector":13,"id":2333738,"kilowatts":null,"power":0,"status":null}]}],"url":"http://api.plugshare.com/view/location/347938"},{"access":1,"address":"Shreeji Shopping Complex, 15, NH No.8, Near Narmada Hotel, Satyam Twp, Zadeshwar, Bharuch, Gujarat 392012, India","icon":"https://assets.plugshare.com/icons/G.png","icon_type":"G","id":307528,"latitude":21.730002,"longitude":73.029473,"name":"ShivShakti Motors Bolt SC","stations":[{"id":714182,"outlets":[{"connector":9,"id":2147480,"kilowatts":null,"power":0,"status":null}]}],"url":"http://api.plugshare.com/view/location/307528"},{"access":1,"address":"12, Vishwas society, Zadeshwar, Bharuch, Gujarat 392015, India","icon":"https://assets.plugshare.com/icons/G.png","icon_type":"G","id":306902,"latitude":21.730448,"longitude":73.027958,"name":"ChargemyEV Slow Charger","stations":[{"id":712499,"outlets":[{"connector":9,"id":2144076,"kilowatts":null,"power":0,"status":null}]}],"url":"http://api.plugshare.com/view/location/306902"},{"access":1,"address":"1401, Gidc, Ranoli, Vadodara, Gujarat 391350, India","icon":"https://assets.plugshare.com/icons/Y.png","icon_type":"Y","id":308182,"latitude":22.403839,"longitude":73.134546,"name":"TML ABC Autolink Rangoli","score":9.0,"stations":[{"id":716239,"outlets":[{"connector":13,"id":2151133,"kilowatts":25.0,"power":0,"status":null},{"connector":3,"id":2151132,"kilowatts":25.0,"power":0,"status":null}]}],"url":"http://api.plugshare.com/view/location/308182"},{"access":1,"address":"oscon mega mall, ahmedabad","icon":"https://assets.plugshare.com/icons/G.png","icon_type":"G","id":135605,"latitude":23.030513,"longitude":72.50754,"name":"Iscon mall test point","stations":[{"id":250285,"outlets":[{"connector":2,"id":511923,"kilowatts":null,"power":0,"status":null}]}],"url":"http://api.plugshare.com/view/location/135605"},{"access":1,"address":"Plot No.5, Samithi School Rd, Patel Nagar, Udhyog Darshan Society, Om Shree Sai Jalaram Nagar, Udhna, Surat, Gujarat 394210, India","icon":"https://assets.plugshare.com/icons/Y.png","icon_type":"Y","id":304680,"latitude":21.164955,"longitude":72.835646,"name":"TML Pramukh Auto Tata Power FC","stations":[{"id":707386,"outlets":[{"connector":3,"id":2134106,"kilowatts":null,"power":0,"status":null},{"connector":13,"id":2134107,"kilowatts":null,"power":0,"status":null}]}],"url":"http://api.plugshare.com/view/location/304680"},{"access":1,"address":"4Q4G+3X Hanjiyasar, Gujarat, India","icon":"https://assets.plugshare.com/icons/Y.png","icon_type":"Y","id":345297,"latitude":23.105249,"longitude":70.777427,"name":"EV Cosmos","stations":[{"id":819687,"outlets":[{"connector":13,"id":2324221,"kilowatts":null,"power":0,"status":null}]}],"url":"http://api.plugshare.com/view/location/345297"},{"access":1,"address":"Sheoganj - Jawal Rd, Vera Vilpur, Rajasthan 307043, India","icon":"https://assets.plugshare.com/icons/Y.png","icon_type":"Y","id":314416,"latitude":24.973839,"longitude":72.896022,"name":"Hotel Baba Ramdev","stations":[{"id":732987,"network_id":1012,"outlets":[{"connector":3,"id":2204833,"kilowatts":null,"power":0,"status":null},{"connector":13,"id":2204834,"kilowatts":null,"power":0,"status":null},{"connector":7,"id":2376991,"kilowatts":null,"power":0,"status":null}]}],"url":"http://api.plugshare.com/view/location/314416"},{"access":1,"address":"33, GIDC Electronic Estate, Sector 25, Gandhinagar, Gujarat 382024, India","icon":"https://assets.plugshare.com/icons/Y.png","icon_type":"Y","id":312453,"latitude":23.249438,"longitude":72.631132,"name":"Capital EV","score":9.0,"stations":[{"id":727848,"network_id":1012,"outlets":[{"connector":3,"id":2186055,"kilowatts":25.0,"power":0,"status":null},{"connector":13,"id":2186056,"kilowatts":25.0,"power":0,"status":null}]}],"url":"http://api.plugshare.com/view/location/312453"},{"access":1,"address":"2GR6+5FX, Bodakdev, Ahmedabad, Gujarat 380054, India","icon":"https://assets.plugshare.com/icons/Y.png","icon_type":"Y","id":347766,"latitude":23.040498,"longitude":72.511237,"name":"Abhinav Girls Hostel Charge-Zone FC","stations":[{"id":826026,"outlets":[{"connector":13,"id":2333255,"kilowatts":null,"power":0,"status":null},{"connector":13,"id":2333256,"kilowatts":null,"power":0,"status":null}]}],"url":"http://api.plugshare.com/view/location/347766"},{"access":1,"address":"NH47, Jalat, Gujarat 389154, India","icon":"https://assets.plugshare.com/icons/G.png","icon_type":"G","id":348824,"latitude":22.810261,"longitude":74.302155,"name":"Avantika Resort","stations":[{"id":828798,"outlets":[{"connector":10,"id":2345727,"kilowatts":null,"power":0,"status":null},{"connector":7,"id":2345726,"kilowatts":null,"power":0,"status":null}]}],"url":"http://api.plugshare.com/view/location/348824"},{"access":1,"address":"A-29,Kalathiya Industryal Estet,Gujarat State Highway 167, Laskana, Surat, Gujarat 394185, India","icon":"https://assets.plugshare.com/icons/G.png","icon_type":"G","id":182594,"latitude":21.256282,"longitude":72.937825,"name":"LUCKY AUTO TRENDZ","stations":[{"id":378010,"outlets":[{"connector":8,"id":673054,"kilowatts":null,"power":0,"status":null}]}],"url":"http://api.plugshare.com/view/location/182594"}]
