[{"access":1,"address":"BBD, Faizabad Rd, Adarsh Nagar, Matiyari, Kamta, Lucknow, Uttar Pradesh 226025, India","icon":"https://assets.plugshare.com/icons/Y.png","icon_type":"Y","id":304984,"latitude":26.884227,"longitude":81.04553,"name":"MG Motors FC","stations":[{"id":708107,"outlets":[{"connector":13,"id":2135571,"kilowatts":null,"power":0,"status":null},{"connector":13,"id":2135572,"kilowatts":null,"power":0,"status":null}]}],"url":"http://api.plugshare.com/view/location/304984"},{"access":1,"address":"63/9, First Floor, Rama Road, Delhi, 110015, India","icon":"https://assets.plugshare.com/icons/Y.png","icon_type":"Y","id":181947,"latitude":28.656514,"longitude":77.150997,"name":"Shadipur Test","stations":[{"id":376156,"outlets":[{"connector":3,"id":670714,"kilowatts":null,"power":0,"status":null}]}],"url":"http://api.plugshare.com/view/location/181947"},{"access":1,"address":"Bypass Rd, Madhya Pradesh 470661, India","icon":"https://assets.plugshare.com/icons/G.png","icon_type":"G","id":328693,"latitude":23.816066,"longitude":79.412456,"name":"Gangotri Automobiles Chargegrid Type 2","stations":[{"id":772096,"outlets":[{"connector":7,"id":2262722,"kilowatts":null,"power":0,"status":null}]}],"url":"http://api.plugshare.com/view/location/328693"},{"access":1,"address":"NH43, Gahila, Chhattisgarh 497101, India","icon":"https://assets.plugshare.com/icons/G.png","icon_type":"G","id":331749,"latitude":23.02377,"longitude":83.378107,"name":"HPCL Shree Ram pump Chargegrid Type-2","stations":[{"id":780879,"outlets":[{"connector":7,"id":2274292,"kilowatts":null,"power":0,"status":null}]}],"url":"http://api.plugshare.com/view/location/331749"},{"access":1,"address":"K112, Khempura, Udaipur, Rajasthan 313002, India","icon":"https://assets.plugshare.com/icons/Y.png","icon_type":"Y","id":305353,"latitude":24.574091,"longitude":73.746192,"name":"MG MOTOR UDAIPUR TATA POWER FC","score":9.0,"stations":[{"id":708878,"outlets":[{"connector":3,"id":2137060,"kilowatts":null,"power":0,"status":null},{"connector":13,"id":2137061,"kilowatts":null,"power":0,"status":null}]}],"url":"http://api.plugshare.com/view/location/305353"},{"access":1,"address":"F015, Ghorahi 22400, Nepal","icon":"https://assets.plugshare.com/icons/Y.png","icon_type":"Y","id":327444,"latitude":28.029363,"longitude":82.492797,"name":"New Rider Service Hyundai Charger","stations":[{"id":768821,"outlets":[{"connector":13,"id":2258413,"kilowatts":null,"power":0,"status":null}]}],"url":"http://api.plugshare.com/view/location/327444"},{"access":1,"address":"8XPP+96X, Nadesar, Chaukaghat, Varanasi, Uttar Pradesh 221002, India","icon":"https://assets.plugshare.com/icons/G.png","icon_type":"G","id":334697,"latitude":25.336039,"longitude":82.985737,"name":"Taj Ganges Wall Charger","stations":[{"id":788424,"outlets":[{"connector":9,"id":2284160,"kilowatts":null,"power":0,"status":null}]}],"url":"http://api.plugshare.com/view/location/334697"},{"access":1,"address":"NH52, Rampuria, Madhya Pradesh 465661, India","icon":"https://assets.plugshare.com/icons/YR.png","icon_type":"YR","id":304448,"latitude":23.997522,"longitude":76.786871,"name":"IOCL FC (Coming Soon)","stations":[{"id":706898,"outlets":[{"connector":13,"id":2133060,"kilowatts":null,"power":0,"status":null}]}],"url":"http://api.plugshare.com/view/location/304448"},{"access":1,"address":"2, AB Rd, Anoop Nagar, Indore, Madhya Pradesh 452001, India","icon":"https://assets.plugshare.com/icons/Y.png","icon_type":"Y","id":304447,"latitude":22.730118,"longitude":75.888844,"name":"MG Motors Hriday Tata Power FC","stations":[{"id":706897,"outlets":[{"connector":3,"id":2133058,"kilowatts":null,"power":0,"status":null},{"connector":13,"id":2133059,"kilowatts":null,"power":0,"status":null}]}],"url":"http://api.plugshare.com/view/location/304447"},{"access":1,"address":"7336+VVX, Ranipur, Uttar Pradesh 284205, India","icon":"https://assets.plugshare.com/icons/G.png","icon_type":"G","id":359048,"latitude":25.254691,"longitude":79.062348,"name":"Ranipur Bolt Wall Charger","stations":[{"id":856839,"outlets":[{"connector":9,"id":2383274,"kilowatts":null,"power":0,"status":null}]}],"url":"http://api.plugshare.com/view/location/359048"},{"access":1,"address":"8X99+2V5, Lahartara Boulia, Bazardiha, Maheshpur, Varanasi, Uttar Pradesh 221002, India","icon":"https://assets.plugshare.com/icons/Y.png","icon_type":"Y","id":358207,"latitude":25.317547,"longitude":82.969515,"name":"TML Brijlax Motors Varanasi Tata Power FC","stations":[{"id":854456,"network_id":1012,"outlets":[{"connector":13,"id":2379801,"kilowatts":null,"power":0,"status":null}]}],"url":"http://api.plugshare.com/view/location/358207"},{"access":1,"address":"FXW5+VRQ, Tentel Para, Sambalpur, Odisha 768006, India","icon":"https://assets.plugshare.com/icons/Y.png","icon_type":"Y","id":361296,"latitude":21.49724,"longitude":83.959548,"name":"Lankeswari Motors","stations":[{"id":863073,"network_id":1012,"outlets":[{"connector":13,"id":2392133,"kilowatts":null,"power":0,"status":null}]}],"url":"http://api.plugshare.com/view/location/361296"},{"access":1,"address":"A-225, Agra Bypass Rd, Khandari, Agra, Uttar Pradesh 282001, India","icon":"https://assets.plugshare.com/icons/Y.png","icon_type":"Y","id":304991,"latitude":27.21151,"longitude":77.997803,"name":"MG Motors Tata Power FC","stations":[{"id":708114,"outlets":[{"connector":13,"id":2135584,"kilowatts":null,"power":0,"status":null},{"connector":13,"id":2135585,"kilowatts":null,"power":0,"status":null}]}],"url":"http://api.plugshare.com/view/location/304991"},{"access":1,"address":"AH2, Mansurpur, Uttar Pradesh 244901, India","icon":"https://assets.plugshare.com/icons/Y.png","icon_type":"Y","id":332944,"latitude":28.78614,"longitude":78.992053,"name":"E-Fill Charger : Hotel River Side Inn, Rampur, Uttar Pradesh","score":9.0,"stations":[{"id":784040,"outlets":[{"connector":3,"id":2278364,"kilowatts":null,"power":0,"status":null},{"connector":13,"id":2278365,"kilowatts":null,"power":0,"status":null}]}],"url":"http://api.plugshare.com/view/location/332944"},{"access":1,"address":"Udaipur","icon":"https://assets.plugshare.com/icons/G.png","icon_type":"G","id":303537,"latitude":24.563805,"longitude":73.707274,"name":"Home Unit - Mohit","stations":[{"id":704678,"outlets":[{"connector":7,"id":2128684,"kilowatts":null,"power":0,"status":null},{"connector":9,"id":2128685,"kilowatts":null,"power":0,"status":null}]}],"url":"http://api.plugshare.com/view/location/303537"},{"access":1,"address":"Congress Nagar Rd, Maltekdi, Amravati, Maharashtra 444606, India","icon":"https://assets.plugshare.com/icons/G.png","icon_type":"G","id":305140,"latitude":20.928727,"longitude":77.758512,"name":"Jadhav Solar Wall Charger","stations":[{"id":708438,"outlets":[{"connector":9,"id":2136208,"kilowatts":null,"power":0,"status":null}]}],"url":"http://api.plugshare.com/view/location/305140"},{"access":1,"address":"Nawathe Stop, Badnera Rd, Vidhya Vihar Colony, Navathe Nagar, Amravati, Maharashtra 444607, India","icon":"https://assets.plugshare.com/icons/Y.png","icon_type":"Y","id":330618,"latitude":20.909467,"longitude":77.752234,"name":"Hotel Rangoli Pearl Tata Power FC(25kw)","score":9.0,"stations":[{"id":777465,"outlets":[{"connector":3,"id":2269778,"kilowatts":null,"power":0,"status":null},{"connector":13,"id":2269779,"kilowatts":null,"power":0,"status":null}]},{"id":777466,"outlets":[{"connector":7,"id":2269780,"kilowatts":null,"power":0,"status":null}]}],"url":"http://api.plugshare.com/view/location/330618"},{"access":1,"address":"152/A Chak Madho Singh Lane, Swami Vivekanand Marg, Mohatsim Ganj, Prayagraj, Uttar Pradesh 211003, India","icon":"https://assets.plugshare.com/icons/G.png","icon_type":"G","id":359047,"latitude":25.440584,"longitude":81.839973,"name":"Akas Computer Bolt Wall Charger","stations":[{"id":856838,"outlets":[{"connector":9,"id":2383273,"kilowatts":null,"power":0,"status":null}]}],"url":"http://api.plugshare.com/view/location/359047"},{"access":1,"address":"Unnamed Road, Sector 135, Bajidpur, Uttar Pradesh, India","icon":"https://assets.plugshare.com/icons/YR.png","icon_type":"YR","id":225260,"latitude":28.4962,"longitude":77.40236,"name":"Assotech Business Cresterra (Coming Soon)","stations":[{"id":492244,"outlets":[{"connector":13,"id":1204365,"kilowatts":null,"power":0,"status":null}]}],"url":"http://api.plugshare.com/view/location/225260"},{"access":1,"address":"J\u0101lgaon\u200e 425003, Maharashtra, Inde","icon":"https://assets.plugshare.com/icons/Y.png","icon_type":"Y","id":119430,"latitude":20.984063,"longitude":75.594443,"name":"MASSTECH Fast Charger","stations":[{"id":209042,"outlets":[{"connector":13,"id":2143966,"kilowatts":null,"power":0,"status":null}]}],"url":"http://api.plugshare.com/view/location/119430"},{"access":1,"address":"SH 9, Naka Bypass, Faizabad, Uttar Pradesh 224133, India","icon":"https://assets.plugshare.com/icons/Y.png","icon_type":"Y","id":328241,"latitude":26.7548,"longitude":82.141115,"name":"TML Shree Dev Wheels Tata Power FC","stations":[{"id":771042,"outlets":[{"connector":3,"id":2261293,"kilowatts":null,"power":0,"status":null},{"connector":13,"id":2261294,"kilowatts":null,"power":0,"status":null}]}],"url":"http://api.plugshare.com/view/location/328241"},{"access":1,"address":"Grand Trunk Rd, Nanhu Bigha, Bihar 824201, India","icon":"https://assets.plugshare.com/icons/Y.png","icon_type":"Y","id":312451,"latitude":24.525276,"longitude":84.932238,"name":"TML Sara Automobile Tata Power FC","stations":[{"id":727845,"outlets":[{"connector":3,"id":2186051,"kilowatts":null,"power":0,"status":null},{"connector":13,"id":2186052,"kilowatts":null,"power":0,"status":null}]}],"url":"http://api.plugshare.com/view/location/312451"},{"access":1,"address":"Agra - Lucknow Expy, Muhabbatpur, Uttar Pradesh 205264, India","icon":"https://assets.plugshare.com/icons/Y.png","icon_type":"Y","id":320311,"latitude":26.968378,"longitude":79.019569,"name":"IOCL Muhabbatpur Tata Power FC","stations":[{"id":748425,"outlets":[{"connector":3,"id":2231241,"kilowatts":null,"power":0,"status":"UNKNOWN"},{"connector":13,"id":2231242,"kilowatts":null,"power":0,"status":"UNKNOWN"}]}],"url":"http://api.plugshare.com/view/location/320311"},{"access":1,"address":"NH44, Narela, District Seoni, Madhya Pradesh 480882, India","icon":"https://assets.plugshare.com/icons/G.png","icon_type":"G","id":340378,"latitude":22.165672,"longitude":79.534948,"name":"Hotel Shree Maya","stations":[{"id":803427,"outlets":[{"connector":9,"id":2303740,"kilowatts":null,"power":0,"status":null}]}],"url":"http://api.plugshare.com/view/location/340378"},{"access":1,"address":"15, 56/15, JK Rd, Bijli Nagar, Private Colony, Govindpura, Bhopal, Madhya Pradesh 462023, India","icon":"https://assets.plugshare.com/icons/Y.png","icon_type":"Y","id":316057,"latitude":23.259173,"longitude":77.456893,"name":"TML Varenyam Motors Tata Power FC","stations":[{"id":737058,"outlets":[{"connector":3,"id":2216097,"kilowatts":null,"power":0,"status":null},{"connector":13,"id":2216098,"kilowatts":null,"power":0,"status":null}]}],"url":"http://api.plugshare.com/view/location/316057"},{"access":1,"address":"Khagaul Rd, Balaji Nagar, Danapur Nizamat, Mobarakpur-Raghurampur, Bihar 801503, India","icon":"https://assets.plugshare.com/icons/G.png","icon_type":"G","id":306904,"latitude":25.613056,"longitude":85.041573,"name":"TML Ananya Auto Slow Charger","stations":[{"id":712501,"outlets":[{"connector":9,"id":2144078,"kilowatts":null,"power":0,"status":null}]}],"url":"http://api.plugshare.com/view/location/306904"},{"access":1,"address":"In front of Railyway colony ganj betul 312chhitranjan nagar, near of Agarwal petrol pump, Ganj, Betul, Madhya Pradesh 460001, India","icon":"https://assets.plugshare.com/icons/G.png","icon_type":"G","id":307530,"latitude":21.897102,"longitude":77.901787,"name":"GK Motors Bolt SC","stations":[{"id":714184,"outlets":[{"connector":9,"id":2147482,"kilowatts":null,"power":0,"status":null}]}],"url":"http://api.plugshare.com/view/location/307530"},{"access":1,"address":"Ranibagh - Haldwani Rd, Kathgodam, Haldwani, Uttarakhand 263126, India","icon":"https://assets.plugshare.com/icons/G.png","icon_type":"G","id":272800,"latitude":29.253763,"longitude":79.541888,"name":"Nainigo","stations":[{"id":602582,"outlets":[{"connector":7,"id":1671798,"kilowatts":null,"power":0,"status":null}]}],"url":"http://api.plugshare.com/view/location/272800"},{"access":1,"address":"Unnamed Road, Thakrahan, Bihar 845459, India","icon":"https://assets.plugshare.com/icons/Y.png","icon_type":"Y","id":327620,"latitude":26.743782,"longitude":83.263346,"name":"TML RKL Showroom GIDA Tata Power FC","stations":[{"id":769163,"outlets":[{"connector":3,"id":2258828,"kilowatts":null,"power":0,"status":null},{"connector":13,"id":2258829,"kilowatts":null,"power":0,"status":null}]}],"url":"http://api.plugshare.com/view/location/327620"},{"access":1,"address":"NH45, Deori, Madhya Pradesh 464774, India","icon":"https://assets.plugshare.com/icons/G.png","icon_type":"G","id":331747,"latitude":23.128215,"longitude":78.680675,"name":"Indane Petrol Pump","stations":[{"id":780877,"outlets":[{"connector":7,"id":2274288,"kilowatts":null,"power":0,"status":null}]}],"url":"http://api.plugshare.com/view/location/331747"},{"access":1,"address":"RJHH+79H, Chittorgarh, Rajasthan 312001, India","icon":"https://assets.plugshare.com/icons/Y.png","icon_type":"Y","id":356429,"latitude":24.827762,"longitude":74.627731,"name":"Yash Tata Motors Chittorgarh Tata Power FC","stations":[{"id":849571,"network_id":1012,"outlets":[{"connector":13,"id":2373150,"kilowatts":null,"power":0,"status":null}]}],"url":"http://api.plugshare.com/view/location/356429"},{"access":1,"address":"Ajmer Bypass, Ratanzila, Ajmer, Rajasthan 305025, India","icon":"https://assets.plugshare.com/icons/Y.png","icon_type":"Y","id":336619,"latitude":26.426821,"longitude":74.68197,"name":"MG GPS Ajmer Tata Power FC","score":9.0,"stations":[{"id":793927,"outlets":[{"connector":13,"id":2291123,"kilowatts":null,"power":0,"status":null},{"connector":13,"id":2291124,"kilowatts":null,"power":0,"status":null}]}],"url":"http://api.plugshare.com/view/location/336619"},{"access":1,"address":"Datt Township, Tilahri, Madla Road, Jabalpur, Madhya Pradesh 482002, India","icon":"https://assets.plugshare.com/icons/G.png","icon_type":"G","id":340379,"latitude":23.1142,"longitude":79.972514,"name":"Bharti EV Solutions","stations":[{"id":803428,"outlets":[{"connector":9,"id":2303741,"kilowatts":null,"power":0,"status":null}]}],"url":"http://api.plugshare.com/view/location/340379"},{"access":1,"address":"Chiraidongri - Kanha Rd, Khatia, Madhya Pradesh 481111, India","icon":"https://assets.plugshare.com/icons/G.png","icon_type":"G","id":342580,"latitude":22.3147,"longitude":80.515601,"name":"The Wild Camp Homestay","stations":[{"id":810376,"outlets":[{"connector":9,"id":2312496,"kilowatts":null,"power":0,"status":null}]}],"url":"http://api.plugshare.com/view/location/342580"},{"access":1,"address":"414, Subhash Nagar, Saptar, Sawai Madhopur, Rajasthan 322022, India","icon":"https://assets.plugshare.com/icons/G.png","icon_type":"G","id":336840,"latitude":26.018715,"longitude":76.368949,"name":"Ranathambhaur Mahal Hotel","stations":[{"id":794444,"outlets":[{"connector":1,"id":2291816,"kilowatts":null,"power":0,"status":null}]},{"id":794445,"outlets":[{"connector":9,"id":2291817,"kilowatts":null,"power":0,"status":null}]}],"url":"http://api.plugshare.com/view/location/336840"},{"access":1,"address":"558Q+RMF, Pichhore, Madhya Pradesh 473995, India","icon":"https://assets.plugshare.com/icons/G.png","icon_type":"G","id":359049,"latitude":25.166397,"longitude":78.188695,"name":"Saheb Bolt Wall Charger","stations":[{"id":856840,"outlets":[{"connector":9,"id":2383275,"kilowatts":null,"power":0,"status":null}]}],"url":"http://api.plugshare.com/view/location/359049"},{"access":1,"address":"RPHX+JC Tikhi, Maharashtra, India","icon":"https://assets.plugshare.com/icons/Y.png","icon_type":"Y","id":354362,"latitude":20.829098,"longitude":74.748613,"name":"Coming Soon - Hotel Bliss County Dhule Statiq 60KW FC","stations":[{"id":844318,"outlets":[{"connector":13,"id":2366393,"kilowatts":null,"power":0,"status":null},{"connector":13,"id":2366394,"kilowatts":null,"power":0,"status":null}]},{"id":844319,"outlets":[{"connector":7,"id":2366395,"kilowatts":null,"power":0,"status":null}]},{"id":844320,"outlets":[{"connector":9,"id":2366396,"kilowatts":null,"power":0,"status":null}]}],"url":"http://api.plugshare.com/view/location/354362"},{"access":1,"address":"Borsara Rd, Borsara, Chhattisgarh 495220, India","icon":"https://assets.plugshare.com/icons/Y.png","icon_type":"Y","id":350887,"latitude":22.013781,"longitude":82.048744,"name":"Goel Coal Sizing Plant Tata Power FC","stations":[{"id":835301,"outlets":[{"connector":13,"id":2354560,"kilowatts":null,"power":0,"status":null}]}],"url":"http://api.plugshare.com/view/location/350887"},{"access":1,"address":"Unnamed Road, Rajasthan 304804, India","icon":"https://assets.plugshare.com/icons/Y.png","icon_type":"Y","id":357713,"latitude":25.936118,"longitude":75.458843,"name":"Dusk View Beesalpur Tata Power FC","stations":[{"id":853207,"network_id":1012,"outlets":[{"connector":13,"id":2378023,"kilowatts":null,"power":0,"status":null}]},{"id":853208,"network_id":1012,"outlets":[{"connector":7,"id":2378024,"kilowatts":null,"power":0,"status":null}]}],"url":"http://api.plugshare.com/view/location/357713"},{"access":1,"address":"3JQX+7QW, Nepalgunj 21900, Nepal","icon":"https://assets.plugshare.com/icons/Y.png","icon_type":"Y","id":346750,"latitude":28.109539,"longitude":81.657091,"name":"Team Eleven EV World- BYD SHOWROOM","stations":[{"id":823419,"outlets":[{"connector":13,"id":2329695,"kilowatts":null,"power":0,"status":null}]},{"id":859511,"outlets":[{"connector":7,"id":2386976,"kilowatts":null,"power":0,"status":null},{"connector":10,"id":2386977,"kilowatts":null,"power":0,"status":null}]}],"url":"http://api.plugshare.com/view/location/346750"},{"access":1,"address":"H5GR+C9 Gokulpura, Rajasthan, India","icon":"https://assets.plugshare.com/icons/Y.png","icon_type":"Y","id":351480,"latitude":27.576072,"longitude":75.190928,"name":"Coming Soon - Xobolt FC","stations":[{"id":836912,"outlets":[{"connector":13,"id":2356517,"kilowatts":null,"power":0,"status":null}]}],"url":"http://api.plugshare.com/view/location/351480"},{"access":1,"address":"483, Mac Robert Gunj, Khalasi Line, Permat, Kanpur, Uttar Pradesh 208001, India","icon":"https://assets.plugshare.com/icons/Y.png","icon_type":"Y","id":304985,"latitude":26.482244,"longitude":80.32932,"name":"TML Society Showroom","stations":[{"id":708108,"outlets":[{"connector":3,"id":2135573,"kilowatts":null,"power":0,"status":null},{"connector":13,"id":2135574,"kilowatts":null,"power":0,"status":null}]}],"url":"http://api.plugshare.com/view/location/304985"},{"access":1,"address":"Sarraf Sadan, Birgunj 44300, Nepal","icon":"https://assets.plugshare.com/icons/G.png","icon_type":"G","id":315494,"latitude":27.013239,"longitude":84.875364,"name":"Green Bolt SC","stations":[{"id":735645,"outlets":[{"connector":9,"id":2214185,"kilowatts":null,"power":0,"status":null}]}],"url":"http://api.plugshare.com/view/location/315494"},{"access":1,"address":"Gaurav path, Ajmer Rd, Bhilwara, Rajasthan 311001, India","icon":"https://assets.plugshare.com/icons/Y.png","icon_type":"Y","id":339127,"latitude":25.382003,"longitude":74.62168,"name":"TML Yash Motors Wall Charger","stations":[{"id":860830,"outlets":[{"connector":13,"id":2388943,"kilowatts":null,"power":0,"status":null}]}],"url":"http://api.plugshare.com/view/location/339127"},{"access":1,"address":"National Highway 3, near to Mp Rto Checkpost, Deola, Madhya Pradesh 451449, India","icon":"https://assets.plugshare.com/icons/G.png","icon_type":"G","id":328166,"latitude":21.845008,"longitude":75.196268,"name":"Rajhans Hotel Wall Charger","stations":[{"id":770817,"outlets":[{"connector":9,"id":2260963,"kilowatts":null,"power":0,"status":null}]}],"url":"http://api.plugshare.com/view/location/328166"},{"access":1,"address":"Tribhuvan Hwy, Birgunj 44300, Nepal","icon":"https://assets.plugshare.com/icons/Y.png","icon_type":"Y","id":327464,"latitude":27.026707,"longitude":84.886135,"name":"Orchids Moto Hyundai AC Charger","stations":[{"id":768842,"outlets":[{"connector":13,"id":2258438,"kilowatts":null,"power":0,"status":null}]}],"url":"http://api.plugshare.com/view/location/327464"},{"access":1,"address":"SH 2, Wadraf Nagar, Chhattisgarh 497225, India","icon":"https://assets.plugshare.com/icons/G.png","icon_type":"G","id":331750,"latitude":23.760819,"longitude":83.198205,"name":"HPCL Vishwanath Fuels Chargegrid Type-2","stations":[{"id":780880,"outlets":[{"connector":7,"id":2274293,"kilowatts":null,"power":0,"status":null}]}],"url":"http://api.plugshare.com/view/location/331750"},{"access":1,"address":"Patne Market, Ranpise Nagar, opp. Surbhi Hotel, Ranpise Nagar, Akola, Maharashtra 444001, India","icon":"https://assets.plugshare.com/icons/G.png","icon_type":"G","id":328713,"latitude":20.707854,"longitude":77.016955,"name":"Hemant Nawkar Bolt Wall Charger","stations":[{"id":772123,"outlets":[{"connector":9,"id":2262756,"kilowatts":null,"power":0,"status":null}]}],"url":"http://api.plugshare.com/view/location/328713"},{"access":1,"address":"Rama mander road, Raje Sambhaji Nagar, Mirza Nagar, Buldana, Maharashtra 443001, India","icon":"https://assets.plugshare.com/icons/G.png","icon_type":"G","id":328712,"latitude":20.536019,"longitude":76.186203,"name":"Ayodhya Nagar Bolt Wall Charger","stations":[{"id":772122,"outlets":[{"connector":9,"id":2262755,"kilowatts":null,"power":0,"status":null}]}],"url":"http://api.plugshare.com/view/location/328712"},{"access":1,"address":"AH47, Yeshwantnagar, Madhya Pradesh 456770, India","icon":"https://assets.plugshare.com/icons/G.png","icon_type":"G","id":328694,"latitude":23.379605,"longitude":76.231103,"name":"Jyoti Pump Chargegrid Type 2","stations":[{"id":772097,"outlets":[{"connector":7,"id":2262723,"kilowatts":null,"power":0,"status":null}]}],"url":"http://api.plugshare.com/view/location/328694"},{"access":1,"address":"Parikarma Marg, Ganahera, Pushkar, Rajasthan 305022, India","icon":"https://assets.plugshare.com/icons/G.png","icon_type":"G","id":328194,"latitude":26.484025,"longitude":74.557464,"name":"Hotel Moti Mahal Slow Charger","stations":[{"id":770897,"outlets":[{"connector":9,"id":2261083,"kilowatts":null,"power":0,"status":null}]}],"url":"http://api.plugshare.com/view/location/328194"},{"access":1,"address":"Ankleshwar - Burhanpur Hwy, Narayan Nagar, Swami Vivekanand Nagar, Shahada, Maharashtra 425409, India","icon":"https://assets.plugshare.com/icons/G.png","icon_type":"G","id":307527,"latitude":21.535057,"longitude":74.473715,"name":"Raj Motors Bolt SC","stations":[{"id":714181,"outlets":[{"connector":9,"id":2147479,"kilowatts":null,"power":0,"status":null}]}],"url":"http://api.plugshare.com/view/location/307527"},{"access":1,"address":"kalikanager, Butwal 32907, Nepal","icon":"https://assets.plugshare.com/icons/Y.png","icon_type":"Y","id":327461,"latitude":27.673417,"longitude":83.464366,"name":"Siddhi Vinayak Hyundai AC Charger","stations":[{"id":768839,"outlets":[{"connector":13,"id":2258435,"kilowatts":null,"power":0,"status":null}]}],"url":"http://api.plugshare.com/view/location/327461"},{"access":1,"address":"Indore - Bhopal Rd, Guradiya Bada, Madhya Pradesh 466221, India","icon":"https://assets.plugshare.com/icons/Y.png","icon_type":"Y","id":353143,"latitude":22.996811,"longitude":76.554601,"name":"Sol Retreat","stations":[{"id":841268,"outlets":[{"connector":13,"id":2361803,"kilowatts":null,"power":0,"status":null}]}],"url":"http://api.plugshare.com/view/location/353143"},{"access":1,"address":"Balmandir Rd 10, Bharatpur 44207, Nepal","icon":"https://assets.plugshare.com/icons/Y.png","icon_type":"Y","id":327463,"latitude":27.674864,"longitude":84.431815,"name":"Pinnacle Trading Hyundai AC Charger","stations":[{"id":768841,"outlets":[{"connector":13,"id":2258437,"kilowatts":null,"power":0,"status":null}]}],"url":"http://api.plugshare.com/view/location/327463"},{"access":1,"address":"1728, Railway Colony, Churu, Rajasthan 331001, India","icon":"https://assets.plugshare.com/icons/G.png","icon_type":"G","id":359046,"latitude":28.294434,"longitude":74.960944,"name":"Soni E Mobility Bolt Wall Charger","stations":[{"id":856836,"outlets":[{"connector":9,"id":2383270,"kilowatts":null,"power":0,"status":null}]}],"url":"http://api.plugshare.com/view/location/359046"},{"access":1,"address":"Dongargarh - Nagpur Rd, Maharajpur, Chhattisgarh 491557, India","icon":"https://assets.plugshare.com/icons/G.png","icon_type":"G","id":341566,"latitude":21.09235,"longitude":80.68294,"name":"SHIVAY FOODS","stations":[{"id":807623,"outlets":[{"connector":9,"id":2308816,"kilowatts":null,"power":0,"status":null}]}],"url":"http://api.plugshare.com/view/location/341566"},{"access":1,"address":"Unnamed Road, Gujarat 393151, India","icon":"https://assets.plugshare.com/icons/Y.png","icon_type":"Y","id":325433,"latitude":21.885796,"longitude":73.688162,"name":"IOCL Pump Tata Power FC","stations":[{"id":762898,"outlets":[{"connector":13,"id":2250330,"kilowatts":null,"power":0,"status":null},{"connector":3,"id":2250329,"kilowatts":null,"power":0,"status":null}]}],"url":"http://api.plugshare.com/view/location/325433"},{"access":1,"address":"govind villa gaav dhawari","icon":"https://assets.plugshare.com/icons/G.png","icon_type":"G","id":322007,"latitude":23.92811,"longitude":73.828804,"name":"Govind Villa","stations":[{"id":753337,"outlets":[{"connector":2,"id":2237636,"kilowatts":null,"power":0,"status":"UNKNOWN"}]}],"url":"http://api.plugshare.com/view/location/322007"},{"access":1,"address":"SH 13, Semer Paha, Uttar Pradesh 229206, India","icon":"https://assets.plugshare.com/icons/Y.png","icon_type":"Y","id":340424,"latitude":26.144296,"longitude":80.949641,"name":"Lalganj","stations":[{"id":803531,"outlets":[{"connector":13,"id":2303861,"kilowatts":null,"power":0,"status":null}]}],"url":"http://api.plugshare.com/view/location/340424"},{"access":1,"address":"Unnamed Road, Hodal Rural, Haryana 121106, India","icon":"https://assets.plugshare.com/icons/YR.png","icon_type":"YR","id":309295,"latitude":27.866024,"longitude":77.350991,"name":"Jaypee Infratech Chargegrid FC (Coming Soon)","stations":[{"id":718944,"outlets":[{"connector":13,"id":2157304,"kilowatts":null,"power":0,"status":null}]}],"url":"http://api.plugshare.com/view/location/309295"},{"access":1,"address":"Jasoiya growth centre, Jasoiya Mor Bus Stop NH2, Bihar 824101, India","icon":"https://assets.plugshare.com/icons/G.png","icon_type":"G","id":334698,"latitude":24.769965,"longitude":84.350836,"name":"Hotel Gargee Grand Wall Charger","stations":[{"id":788425,"outlets":[{"connector":9,"id":2284161,"kilowatts":null,"power":0,"status":null}]}],"url":"http://api.plugshare.com/view/location/334698"},{"access":1,"address":"NH9, Industrial Area, Hisar, Haryana 125006, India","icon":"https://assets.plugshare.com/icons/Y.png","icon_type":"Y","id":344121,"latitude":29.125901,"longitude":75.802878,"name":"TML Daisy Motors Tata Power FC","stations":[{"id":814443,"outlets":[{"connector":3,"id":2318044,"kilowatts":null,"power":0,"status":null},{"connector":13,"id":2318045,"kilowatts":null,"power":0,"status":null}]}],"url":"http://api.plugshare.com/view/location/344121"},{"access":1,"address":"C/o. Amardeep pub sr sec school, Bharat sainik sansthan, near central bus stand, ---, \u0938\u094d\u0925\u093e\u0928\u0940\u092f \u0930\u093e\u0938\u094d\u0924\u093e, Bhadra, Rajasthan 335501, India","icon":"https://assets.plugshare.com/icons/G.png","icon_type":"G","id":360816,"latitude":29.104569,"longitude":75.17362,"name":"Bharat Sainik Charging Point","stations":[{"id":861694,"outlets":[{"connector":9,"id":2390336,"kilowatts":null,"power":0,"status":null}]}],"url":"http://api.plugshare.com/view/location/360816"},{"access":1,"address":"Rampur Rd, Bareilly, Uttar Pradesh 243502, India","icon":"https://assets.plugshare.com/icons/Y.png","icon_type":"Y","id":339358,"latitude":28.382432,"longitude":79.386108,"name":"MG Keshav Raj Tata Power FC","stations":[{"id":800863,"outlets":[{"connector":3,"id":2300201,"kilowatts":null,"power":0,"status":null},{"connector":13,"id":2300202,"kilowatts":null,"power":0,"status":null}]}],"url":"http://api.plugshare.com/view/location/339358"},{"access":1,"address":"Agra Rd, Rajasthan 303303, India","icon":"https://assets.plugshare.com/icons/Y.png","icon_type":"Y","id":328699,"latitude":26.908065,"longitude":76.393814,"name":"Indian Oil Prakash Pump Chargegrid FC","stations":[{"id":772104,"outlets":[{"connector":13,"id":2262731,"kilowatts":null,"power":0,"status":null},{"connector":3,"id":2262730,"kilowatts":null,"power":0,"status":null}]},{"id":772103,"outlets":[{"connector":7,"id":2262729,"kilowatts":null,"power":0,"status":null}]}],"url":"http://api.plugshare.com/view/location/328699"},{"access":1,"address":"4HFP+VRX, Qila Kumbhalgarh, Rajasthan 313325, India","icon":"https://assets.plugshare.com/icons/G.png","icon_type":"G","id":348739,"latitude":25.126663,"longitude":73.587593,"name":"Club Mahindra Kumbalgarh","stations":[{"id":828631,"outlets":[{"connector":9,"id":2345484,"kilowatts":null,"power":0,"status":null}]}],"url":"http://api.plugshare.com/view/location/348739"},{"access":1,"address":"52G5+M6G, Sewala Jat, Panchkuian, Rakabganj, Agra, Uttar Pradesh 282001, India","icon":"https://assets.plugshare.com/icons/Y.png","icon_type":"Y","id":358311,"latitude":27.17667,"longitude":78.008074,"name":"agra","stations":[{"id":854623,"outlets":[{"connector":2,"id":2380017,"kilowatts":null,"power":0,"status":null},{"connector":7,"id":2380018,"kilowatts":null,"power":0,"status":null},{"connector":3,"id":2380019,"kilowatts":null,"power":0,"status":null}]},{"id":854624,"outlets":[{"connector":1,"id":2380020,"kilowatts":null,"power":0,"status":null}]}],"url":"http://api.plugshare.com/view/location/358311"},{"access":1,"address":"Veer sawrkar chok Bhopal gun, Pratap Nagar, Bhilwara, Rajasthan 311001, India","icon":"https://assets.plugshare.com/icons/Y.png","icon_type":"Y","id":360529,"latitude":25.340739,"longitude":74.631318,"name":"Yash motor tata charging","stations":[{"id":860829,"outlets":[{"connector":13,"id":2388942,"kilowatts":null,"power":0,"status":null}]}],"url":"http://api.plugshare.com/view/location/360529"},{"access":1,"address":"Hansi Rd, Haryana 127035, India","icon":"https://assets.plugshare.com/icons/G.png","icon_type":"G","id":340743,"latitude":28.97992,"longitude":75.966083,"name":"R S Spun Pipes-AARGO","stations":[{"id":805285,"outlets":[{"connector":7,"id":2305823,"kilowatts":null,"power":0,"status":null}]}],"url":"http://api.plugshare.com/view/location/340743"},{"access":1,"address":"MDR2, Rajasthan 332318, India","icon":"https://assets.plugshare.com/icons/Y.png","icon_type":"Y","id":360069,"latitude":27.735985,"longitude":74.742631,"name":"RnB Shanti Niketan Salasar Tata Power FC","stations":[{"id":859520,"network_id":1012,"outlets":[{"connector":13,"id":2386988,"kilowatts":null,"power":0,"status":null}]}],"url":"http://api.plugshare.com/view/location/360069"},{"access":1,"address":"Papari Rd, Dohra, Rajasthan 301404, India","icon":"https://assets.plugshare.com/icons/G.png","icon_type":"G","id":339372,"latitude":27.712817,"longitude":76.7414,"name":"E-Fill AC Charger - Vyan Medical Hospital","stations":[{"id":800891,"outlets":[{"connector":7,"id":2300234,"kilowatts":null,"power":0,"status":null}]}],"url":"http://api.plugshare.com/view/location/339372"},{"access":1,"address":"New Galla Mandi, Sagar Rd, Uday Nagar Colony, Vidisha, Madhya Pradesh 464001, India","icon":"https://assets.plugshare.com/icons/G.png","icon_type":"G","id":350927,"latitude":23.535344,"longitude":77.838939,"name":"Hp Fuel Pump Pitalia Vidisha Chargegrid Type-2","stations":[{"id":835614,"outlets":[{"connector":7,"id":2354898,"kilowatts":null,"power":0,"status":null}]}],"url":"http://api.plugshare.com/view/location/350927"},{"access":1,"address":"Darwha Rd, Gadhwale Twp, Karanja, Maharashtra 444105, India","icon":"https://assets.plugshare.com/icons/G.png","icon_type":"G","id":328714,"latitude":20.481006,"longitude":77.479553,"name":"Ashwin Auto Services Bolt Wall Charger","stations":[{"id":772124,"outlets":[{"connector":9,"id":2262759,"kilowatts":null,"power":0,"status":null}]}],"url":"http://api.plugshare.com/view/location/328714"},{"access":1,"address":"McDonald Gajraula, NH9-24 Salarpur, Dist, Gajraula, Uttar Pradesh 244235","icon":"https://assets.plugshare.com/icons/Y.png","icon_type":"Y","id":353684,"latitude":28.838262,"longitude":78.276375,"name":"Statiq 60kW CCS charger","stations":[{"id":842696,"outlets":[{"connector":13,"id":2364093,"kilowatts":null,"power":0,"status":null},{"connector":13,"id":2364094,"kilowatts":null,"power":0,"status":null}]}],"url":"http://api.plugshare.com/view/location/353684"},{"access":1,"address":"Rani Bagh Resort, N.H.8, By Pass Ajmer Road, Beawar, Rajasthan 305901","icon":"https://assets.plugshare.com/icons/Y.png","icon_type":"Y","id":358064,"latitude":26.124989,"longitude":74.345966,"name":"Statiq 50kW CCS Rani Bagh","stations":[{"id":854170,"outlets":[{"connector":13,"id":2379410,"kilowatts":null,"power":0,"status":null},{"connector":13,"id":2379411,"kilowatts":null,"power":0,"status":null}]}],"url":"http://api.plugshare.com/view/location/358064"},{"access":1,"address":"Grand Trunk Rd, Ganaur, Haryana 131101, India","icon":"https://assets.plugshare.com/icons/Y.png","icon_type":"Y","id":306914,"latitude":29.157333,"longitude":77.035898,"name":"Sneh Dhaba Tata Power FC","score":6.9,"stations":[{"id":712516,"outlets":[{"connector":3,"id":2144098,"kilowatts":null,"power":0,"status":null},{"connector":13,"id":2144099,"kilowatts":null,"power":0,"status":null}]}],"url":"http://api.plugshare.com/view/location/306914"},{"access":1,"address":"E - W Hwy, Hetauda 44107, Nepal","icon":"https://assets.plugshare.com/icons/Y.png","icon_type":"Y","id":327465,"latitude":27.425413,"longitude":85.03004,"name":"Hetauda Wheels Hyundai AC Charger","stations":[{"id":768843,"outlets":[{"connector":13,"id":2258439,"kilowatts":null,"power":0,"status":null}]}],"url":"http://api.plugshare.com/view/location/327465"},{"access":1,"address":"NH927A, Jethana Rural, Rajasthan 314031, India","icon":"https://assets.plugshare.com/icons/G.png","icon_type":"G","id":329497,"latitude":23.648739,"longitude":74.053649,"name":"Hakimi Motors Wall Charger","stations":[{"id":774574,"outlets":[{"connector":9,"id":2265953,"kilowatts":null,"power":0,"status":null}]}],"url":"http://api.plugshare.com/view/location/329497"},{"access":1,"address":"Kallawas - Kaluwas Rd, Bahdoda, Rajasthan 303119, India","icon":"https://assets.plugshare.com/icons/Y.png","icon_type":"Y","id":357511,"latitude":27.491097,"longitude":76.053113,"name":"TML Roshan Motors Shahpura Tata Power FC","stations":[{"id":852527,"network_id":1012,"outlets":[{"connector":13,"id":2377127,"kilowatts":null,"power":0,"status":null}]}],"url":"http://api.plugshare.com/view/location/357511"},{"access":1,"address":"6V7X+44 Chapda Mal, Madhya Pradesh, India","icon":"https://assets.plugshare.com/icons/G.png","icon_type":"G","id":350929,"latitude":22.212856,"longitude":77.897829,"name":"HP Gupta Fuels Betul Chargegrid Type-2","stations":[{"id":835616,"outlets":[{"connector":7,"id":2354902,"kilowatts":null,"power":0,"status":null}]}],"url":"http://api.plugshare.com/view/location/350929"},{"access":1,"address":"M6JP+89G, Dudu, Rajasthan 303008, India","icon":"https://assets.plugshare.com/icons/G.png","icon_type":"G","id":357686,"latitude":26.680602,"longitude":75.235805,"name":"Vrindavan Dham Charging Station","stations":[{"id":853150,"outlets":[{"connector":7,"id":2377949,"kilowatts":null,"power":0,"status":null}]}],"url":"http://api.plugshare.com/view/location/357686"},{"access":1,"address":"HWVJ+F9 Tolamal, Rajasthan, India","icon":"https://assets.plugshare.com/icons/Y.png","icon_type":"Y","id":351481,"latitude":26.593633,"longitude":74.930882,"name":"Coming Soon - Xobolt FC","stations":[{"id":836913,"outlets":[{"connector":13,"id":2356518,"kilowatts":null,"power":0,"status":null}]}],"url":"http://api.plugshare.com/view/location/351481"},{"access":1,"address":"Unnamed Road, \u0935\u093e\u0923\u0917\u0902\u0917\u093e 32800, Nepal","icon":"https://assets.plugshare.com/icons/G.png","icon_type":"G","id":347503,"latitude":27.661304,"longitude":83.170865,"name":"Ram Subhage's Personal Charger 7KW","stations":[{"id":825382,"outlets":[{"connector":7,"id":2332367,"kilowatts":null,"power":0,"status":null}]}],"url":"http://api.plugshare.com/view/location/347503"},{"access":1,"address":"Dataniwas Bus Station, NH 8, Khara Asan, Rajasthan 313333, India","icon":"https://assets.plugshare.com/icons/G.png","icon_type":"G","id":356249,"latitude":25.347813,"longitude":73.778317,"name":"Hotel Ashirwad","stations":[{"id":849201,"outlets":[{"connector":9,"id":2372694,"kilowatts":null,"power":0,"status":null}]}],"url":"http://api.plugshare.com/view/location/356249"},{"access":1,"address":"Sector 59, Faridabad, Hary\u0101na 121004, Inde","icon":"https://assets.plugshare.com/icons/G.png","icon_type":"G","id":144123,"latitude":28.307228,"longitude":77.303983,"name":"JBM Auto ltd.","stations":[{"id":274167,"outlets":[{"connector":9,"id":542532,"kilowatts":null,"power":0,"status":null}]}],"url":"http://api.plugshare.com/view/location/144123"},{"access":1,"address":"NH-8 Ajmer Road Bagru kalan, Keria Ka Bas, Rajasthan 303007, India","icon":"https://assets.plugshare.com/icons/YR.png","icon_type":"YR","id":314417,"latitude":26.815857,"longitude":75.509088,"name":"IOCL AR Traders Tata Power FC (Coming Soon)","stations":[{"id":732988,"outlets":[{"connector":3,"id":2204835,"kilowatts":null,"power":0,"status":null},{"connector":13,"id":2204836,"kilowatts":null,"power":0,"status":null}]}],"url":"http://api.plugshare.com/view/location/314417"},{"access":1,"address":"RadhaKrishna Mandir Rd, Majhola, Moradabad, Uttar Pradesh 244103, India","icon":"https://assets.plugshare.com/icons/Y.png","icon_type":"Y","id":340268,"latitude":28.829077,"longitude":78.732421,"name":"TML Shree Balaji Tata Power FC","stations":[{"id":803187,"outlets":[{"connector":3,"id":2303436,"kilowatts":null,"power":0,"status":null},{"connector":13,"id":2303437,"kilowatts":null,"power":0,"status":null}]}],"url":"http://api.plugshare.com/view/location/340268"},{"access":1,"address":"NH248, Syari, Rajasthan 303002, India","icon":"https://assets.plugshare.com/icons/Y.png","icon_type":"Y","id":337746,"latitude":27.158946,"longitude":75.960348,"name":"Yaksh The Art People Tata Power FC","stations":[{"id":796730,"outlets":[{"connector":3,"id":2294762,"kilowatts":null,"power":0,"status":null},{"connector":13,"id":2294763,"kilowatts":null,"power":0,"status":null}]},{"id":796731,"outlets":[{"connector":7,"id":2294764,"kilowatts":null,"power":0,"status":null}]},{"id":830165,"outlets":[{"connector":13,"id":2347706,"kilowatts":null,"power":0,"status":null}]}],"url":"http://api.plugshare.com/view/location/337746"},{"access":1,"address":"WHJ9+WJR, Bhuwali, Rajasthan 314011, India","icon":"https://assets.plugshare.com/icons/G.png","icon_type":"G","id":350313,"latitude":23.93101,"longitude":73.568299,"name":"Coming Soon - Neel Gagan Punjabi Dhaba Xobolt FC","stations":[{"id":833453,"outlets":[{"connector":9,"id":2356174,"kilowatts":null,"power":0,"status":null}]}],"url":"http://api.plugshare.com/view/location/350313"},{"access":1,"address":"22RW+H27, Barwani, Madhya Pradesh 451556, India","icon":"https://assets.plugshare.com/icons/G.png","icon_type":"G","id":350922,"latitude":22.041473,"longitude":75.04553,"name":"HPCL Anjad Chargegrid Type-2","stations":[{"id":835609,"outlets":[{"connector":7,"id":2354893,"kilowatts":null,"power":0,"status":null}]}],"url":"http://api.plugshare.com/view/location/350922"},{"access":1,"address":"Thumka - Korikha - Bahunbhanjyan Rd, Bandipur 33914, Nepal","icon":"https://assets.plugshare.com/icons/Y.png","icon_type":"Y","id":327481,"latitude":27.966867,"longitude":84.404721,"name":"KOS Dumre 7kW AC Charger","stations":[{"id":768862,"outlets":[{"connector":13,"id":2258461,"kilowatts":null,"power":0,"status":null}]}],"url":"http://api.plugshare.com/view/location/327481"},{"access":1,"address":"Riverside Spring Resort, Darechok, Nepal","icon":"https://assets.plugshare.com/icons/Y.png","icon_type":"Y","id":327480,"latitude":27.874388,"longitude":84.616377,"name":"Riverside Spring Resort KIA 7kW AC Charger","stations":[{"id":768861,"outlets":[{"connector":13,"id":2258460,"kilowatts":null,"power":0,"status":null}]}],"url":"http://api.plugshare.com/view/location/327480"},{"access":1,"address":"47MQ+73M, Tulsipur 22412, Nepal","icon":"https://assets.plugshare.com/icons/G.png","icon_type":"G","id":346751,"latitude":28.133311,"longitude":82.287117,"name":"Metro Hospitality","stations":[{"id":823422,"outlets":[{"connector":7,"id":2329698,"kilowatts":null,"power":0,"status":null}]}],"url":"http://api.plugshare.com/view/location/346751"},{"access":1,"address":"PLOT - 110, Rai Industrial Estate, Sector 38, Sonipat, Haryana 131029, India","icon":"https://assets.plugshare.com/icons/Y.png","icon_type":"Y","id":341125,"latitude":28.934703,"longitude":77.092349,"name":"E-FILL ELECTRIC(15kw)","stations":[{"id":806337,"outlets":[{"connector":13,"id":2307158,"kilowatts":null,"power":0,"status":null}]},{"id":806338,"outlets":[{"connector":7,"id":2307159,"kilowatts":null,"power":0,"status":null}]}],"url":"http://api.plugshare.com/view/location/341125"},{"access":1,"address":"Q499+38 Sannod, Madhya Pradesh, India","icon":"https://assets.plugshare.com/icons/G.png","icon_type":"G","id":350926,"latitude":22.767673,"longitude":76.118333,"name":"Vijay Lakshmi Fuel Pump Chargegrid Type-2","stations":[{"id":835613,"outlets":[{"connector":7,"id":2354897,"kilowatts":null,"power":0,"status":null}]}],"url":"http://api.plugshare.com/view/location/350926"},{"access":1,"address":"Srinagar - Kanyakumari Hwy, Rai, Haryana 131029, India","icon":"https://assets.plugshare.com/icons/Y.png","icon_type":"Y","id":310280,"latitude":28.93155,"longitude":77.100049,"name":"Ethnic India Resort","stations":[{"id":770109,"outlets":[{"connector":3,"id":2260524,"kilowatts":null,"power":0,"status":null}]},{"id":770480,"outlets":[{"connector":3,"id":2260525,"kilowatts":null,"power":0,"status":null}]}],"url":"http://api.plugshare.com/view/location/310280"},{"access":1,"address":"21, Raipur-Bhilai-Durg Expy, Supela, Krishna Nager, Chhattisgarh 490023, India","icon":"https://assets.plugshare.com/icons/Y.png","icon_type":"Y","id":337126,"latitude":21.205979,"longitude":81.341837,"name":"TML Sairam Automobiles Krishna Nagar Tata Power FC","stations":[{"id":795094,"outlets":[{"connector":3,"id":2292614,"kilowatts":null,"power":0,"status":null},{"connector":13,"id":2292615,"kilowatts":null,"power":0,"status":null}]}],"url":"http://api.plugshare.com/view/location/337126"},{"access":1,"address":"25/1/1, 25/1/1, Shivaji Marg, Block C, Najafgarh Road Industrial Area, New Delhi, Delhi 110015, India","icon":"https://assets.plugshare.com/icons/Y.png","icon_type":"Y","id":306289,"latitude":28.663618,"longitude":77.15619,"name":"TML Autovikas Tata Power FC","stations":[{"id":710970,"outlets":[{"connector":13,"id":2141103,"kilowatts":null,"power":0,"status":null},{"connector":3,"id":2157314,"kilowatts":null,"power":0,"status":null}]}],"url":"http://api.plugshare.com/view/location/306289"},{"access":1,"address":"Mancherial - Chandrapur - Nagpur Rd, Butibori, Maharashtra 441122, India","icon":"https://assets.plugshare.com/icons/Y.png","icon_type":"Y","id":321952,"latitude":20.92274,"longitude":78.999416,"name":"IOCL Sujit Tata Power FC","stations":[{"id":753178,"outlets":[{"connector":13,"id":2237449,"kilowatts":null,"power":0,"status":"UNKNOWN"}]}],"url":"http://api.plugshare.com/view/location/321952"},{"access":1,"address":"FP6P+45 Tinchha, Madhya Pradesh, India","icon":"https://assets.plugshare.com/icons/G.png","icon_type":"G","id":350924,"latitude":22.460316,"longitude":75.735465,"name":"Balaji Petrol Pump Chargegrid Type-2","stations":[{"id":835611,"outlets":[{"connector":7,"id":2354895,"kilowatts":null,"power":0,"status":null}]}],"url":"http://api.plugshare.com/view/location/350924"},{"access":1,"address":"Sendhwa, Madhya Pradesh 451666, India","icon":"https://assets.plugshare.com/icons/G.png","icon_type":"G","id":359117,"latitude":21.671767,"longitude":75.084684,"name":"Shree Garden & Resorts","stations":[{"id":857014,"outlets":[{"connector":9,"id":2383481,"kilowatts":null,"power":0,"status":null}]}],"url":"http://api.plugshare.com/view/location/359117"},{"access":1,"address":"Q3CX+G3 Garh Mukteshwar, Uttar Pradesh, India","icon":"https://assets.plugshare.com/icons/Y.png","icon_type":"Y","id":358208,"latitude":28.771258,"longitude":78.097714,"name":"IOCL Vibhor Mauza Tata Power FC","stations":[{"id":854457,"network_id":1012,"outlets":[{"connector":13,"id":2379802,"kilowatts":null,"power":0,"status":null}]}],"url":"http://api.plugshare.com/view/location/358208"},{"access":1,"address":"Golden Quadrilateral, Chaubara, Rajasthan 301706, India","icon":"https://assets.plugshare.com/icons/Y.png","icon_type":"Y","id":348580,"latitude":28.008824,"longitude":76.463957,"name":"Tata Power FC","stations":[{"id":828251,"outlets":[{"connector":13,"id":2344960,"kilowatts":null,"power":0,"status":null}]}],"url":"http://api.plugshare.com/view/location/348580"},{"access":1,"address":"G94, Dr Shyam Prasad Mukh Marg, Block G, Patel Nagar 3, Patel Nagar, Ghaziabad, Uttar Pradesh 201003, India","icon":"https://assets.plugshare.com/icons/Y.png","icon_type":"Y","id":309297,"latitude":28.674574,"longitude":77.429087,"name":"TML SAB Motors Tata Power FC","stations":[{"id":718946,"outlets":[{"connector":3,"id":2157310,"kilowatts":null,"power":0,"status":null},{"connector":13,"id":2157311,"kilowatts":null,"power":0,"status":null}]}],"url":"http://api.plugshare.com/view/location/309297"},{"access":1,"address":"Siddhartha Hwy, Siddharthanagar 32900, Nepal","icon":"https://assets.plugshare.com/icons/G.png","icon_type":"G","id":327462,"latitude":27.503597,"longitude":83.456441,"name":"Jagat Motors Hyundai AC Charger","stations":[{"id":768840,"outlets":[{"connector":7,"id":2259919,"kilowatts":null,"power":0,"status":null}]}],"url":"http://api.plugshare.com/view/location/327462"},{"access":1,"address":"Unnamed Road, Patliputra Industrial Area, Digha, Patna, Bihar 800010, India","icon":"https://assets.plugshare.com/icons/Y.png","icon_type":"Y","id":331628,"latitude":25.634187,"longitude":85.105481,"name":"TML Shankar Motors Tata Power FC","stations":[{"id":780396,"outlets":[{"connector":3,"id":2273687,"kilowatts":null,"power":0,"status":null},{"connector":13,"id":2273688,"kilowatts":null,"power":0,"status":null}]}],"url":"http://api.plugshare.com/view/location/331628"},{"access":1,"address":"cng petrol pump, along SBI ATM, 298A, opp. Ashiyana, Sector K, Ashiyana, Lucknow, Uttar Pradesh 226012, India","icon":"https://assets.plugshare.com/icons/YR.png","icon_type":"YR","id":330096,"latitude":26.787365,"longitude":80.912002,"name":"IOCL Indra Auto","stations":[{"id":776321,"outlets":[{"connector":3,"id":2268170,"kilowatts":null,"power":0,"status":null},{"connector":13,"id":2268171,"kilowatts":null,"power":0,"status":null}]}],"url":"http://api.plugshare.com/view/location/330096"},{"access":1,"address":"NH-8 Service Rd, Kukrola, Haryana 122051, India","icon":"https://assets.plugshare.com/icons/Y.png","icon_type":"Y","id":309552,"latitude":28.323439,"longitude":76.901226,"name":"Bikanerwala Kukrola Tata Power FC","stations":[{"id":719567,"outlets":[{"connector":3,"id":2158878,"kilowatts":null,"power":0,"status":null},{"connector":13,"id":2158879,"kilowatts":null,"power":0,"status":null}]}],"url":"http://api.plugshare.com/view/location/309552"},{"access":1,"address":"Cross River Mall, Maharaja Surajmal Marg, Vishwas Nagar Extension, Vishwas Nagar, Shahdara, New Delhi, Delhi 110032, India","icon":"https://assets.plugshare.com/icons/Y.png","icon_type":"Y","id":200037,"latitude":28.65818,"longitude":77.302477,"name":"Ev","stations":[{"id":424633,"outlets":[{"connector":7,"id":742926,"kilowatts":null,"power":0,"status":null},{"connector":7,"id":742927,"kilowatts":null,"power":0,"status":null}]},{"id":424634,"outlets":[{"connector":7,"id":742928,"kilowatts":null,"power":0,"status":null},{"connector":7,"id":742929,"kilowatts":null,"power":0,"status":null}]},{"id":424635,"outlets":[{"connector":3,"id":742930,"kilowatts":null,"power":0,"status":null}]}],"url":"http://api.plugshare.com/view/location/200037"},{"access":1,"address":"44JF+4R4, River View Colony, Koni, Bilaspur, Chhattisgarh 495009, India","icon":"https://assets.plugshare.com/icons/Y.png","icon_type":"Y","id":357190,"latitude":22.130037,"longitude":82.124774,"name":"Koni","stations":[{"id":851771,"outlets":[{"connector":13,"id":2376085,"kilowatts":null,"power":0,"status":null}]}],"url":"http://api.plugshare.com/view/location/357190"},{"access":1,"address":"Golden Galaxy Resorts, NH 19, Faridabad, Haryana 121004, India","icon":"https://assets.plugshare.com/icons/Y.png","icon_type":"Y","id":333856,"latitude":28.287788,"longitude":77.295724,"name":"AARGO(50KW) Golden Galaxy Resorts","score":9.0,"stations":[{"id":786402,"outlets":[{"connector":13,"id":2281501,"kilowatts":50.0,"power":0,"status":null},{"connector":7,"id":2312954,"kilowatts":22.0,"power":0,"status":null},{"connector":3,"id":2312952,"kilowatts":50.0,"power":0,"status":null}]},{"id":786404,"outlets":[{"connector":13,"id":2281503,"kilowatts":50.0,"power":0,"status":null},{"connector":3,"id":2312949,"kilowatts":50.0,"power":0,"status":null}]}],"url":"http://api.plugshare.com/view/location/333856"},{"access":1,"address":"9, Great Eastern Rd, Transport Nagar, Tatibandh, Raipur, Chhattisgarh 492001, India","icon":"https://assets.plugshare.com/icons/Y.png","icon_type":"Y","id":334415,"latitude":21.256773,"longitude":81.559725,"name":"TML National Garage Tata Power FC","stations":[{"id":787755,"outlets":[{"connector":13,"id":2283276,"kilowatts":null,"power":0,"status":null}]}],"url":"http://api.plugshare.com/view/location/334415"},{"access":1,"address":"\u0938\u093f\u0939\u094b\u0930 \u0928\u093e\u0915\u093e (A) | Sehore Naka (A, Bairagarh, Bhopal, Madhya Pradesh 462030, India","icon":"https://assets.plugshare.com/icons/Y.png","icon_type":"Y","id":337618,"latitude":23.269539,"longitude":77.327345,"name":"Bairagarh Visarjan Ghat Exicom FC","stations":[{"id":796386,"outlets":[{"connector":13,"id":2294289,"kilowatts":null,"power":0,"status":null}]},{"id":796387,"outlets":[{"connector":1,"id":2294290,"kilowatts":null,"power":0,"status":null}]}],"url":"http://api.plugshare.com/view/location/337618"},{"access":1,"address":"RPXH+R4G, RICO Industrial Area, Dungarpur, Rajasthan 314001, India","icon":"https://assets.plugshare.com/icons/G.png","icon_type":"G","id":359042,"latitude":23.84933,"longitude":73.728203,"name":"The Way Automobile Bolt Wall Charger","stations":[{"id":856832,"outlets":[{"connector":9,"id":2383266,"kilowatts":null,"power":0,"status":null}]}],"url":"http://api.plugshare.com/view/location/359042"},{"access":1,"address":"E-36, Block E, Industrial Area, Surajpur Site 4, Greater Noida, Uttar Pradesh 201310, India","icon":"https://assets.plugshare.com/icons/Y.png","icon_type":"Y","id":309554,"latitude":28.457882,"longitude":77.523238,"name":"TML Sagar Motors Tata Power FC","stations":[{"id":719570,"outlets":[{"connector":3,"id":2158886,"kilowatts":null,"power":0,"status":null},{"connector":13,"id":2158887,"kilowatts":null,"power":0,"status":null}]}],"url":"http://api.plugshare.com/view/location/309554"},{"access":1,"address":"1, Sitapura Industrial Area, Sitapura, Jaipur, Rajasthan 302022, India","icon":"https://assets.plugshare.com/icons/Y.png","icon_type":"Y","id":304682,"latitude":26.777536,"longitude":75.839379,"name":"TML First Mobital Tata Power FC","stations":[{"id":707389,"outlets":[{"connector":13,"id":2134111,"kilowatts":null,"power":0,"status":null}]}],"url":"http://api.plugshare.com/view/location/304682"},{"access":1,"address":"Kanker Roadways Bus Stop, Chokranala, NH59, Krishak Nagar, Raipur, Chhattisgarh 492006, India","icon":"https://assets.plugshare.com/icons/Y.png","icon_type":"Y","id":321950,"latitude":21.238063,"longitude":81.689562,"name":"TML Bhasin Motors Tata Power FC","stations":[{"id":753173,"outlets":[{"connector":13,"id":2237444,"kilowatts":null,"power":0,"status":"UNKNOWN"}]}],"url":"http://api.plugshare.com/view/location/321950"},{"access":1,"address":"16-4/3, Sector 19, Faridabad, Haryana 121002, India","icon":"https://assets.plugshare.com/icons/Y.png","icon_type":"Y","id":334416,"latitude":28.418737,"longitude":77.311075,"name":"TML Multitech Motors Tata Power FC","stations":[{"id":787756,"outlets":[{"connector":3,"id":2283277,"kilowatts":null,"power":0,"status":null},{"connector":13,"id":2283278,"kilowatts":null,"power":0,"status":null}]}],"url":"http://api.plugshare.com/view/location/334416"},{"access":1,"address":"2VFW+V8 Khamhariya, Madhya Pradesh, India","icon":"https://assets.plugshare.com/icons/G.png","icon_type":"G","id":350930,"latitude":23.024627,"longitude":79.895773,"name":"Annapurna Fuel Pump Chargegrid type-2","stations":[{"id":835617,"outlets":[{"connector":7,"id":2354903,"kilowatts":null,"power":0,"status":null}]}],"url":"http://api.plugshare.com/view/location/350930"},{"access":1,"address":"Nahargarh Biological Park, Delhi - Jaipur Expy, Kunda, Sisiyawas, Rajasthan 302028, India","icon":"https://assets.plugshare.com/icons/Y.png","icon_type":"Y","id":338851,"latitude":27.01262,"longitude":75.877456,"name":"Zero cafe Xobolt 30 kW DC Charging Station","stations":[{"id":799604,"outlets":[{"connector":13,"id":2298563,"kilowatts":null,"power":0,"status":null}]}],"url":"http://api.plugshare.com/view/location/338851"},{"access":1,"address":"Baghmara Road 44200, Ratnanagar 00977, Nepal","icon":"https://assets.plugshare.com/icons/Y.png","icon_type":"Y","id":357392,"latitude":27.587757,"longitude":84.484337,"name":"Landmark Forest Park MG AC CHARGER","stations":[{"id":852242,"outlets":[{"connector":13,"id":2376703,"kilowatts":null,"power":0,"status":null}]}],"url":"http://api.plugshare.com/view/location/357392"},{"access":1,"address":"Shambhu Nath Plaza, Jamal Rd, Budh Vihar, Fraser Road Area, Patna, Bihar 800001, India","icon":"https://assets.plugshare.com/icons/G.png","icon_type":"G","id":307551,"latitude":25.609266,"longitude":85.1403,"name":"Pure EV Showroom Bolt SC","stations":[{"id":714294,"outlets":[{"connector":9,"id":2147620,"kilowatts":null,"power":0,"status":null}]},{"id":714295,"outlets":[{"connector":9,"id":2147621,"kilowatts":null,"power":0,"status":null}]}],"url":"http://api.plugshare.com/view/location/307551"},{"access":1,"address":"Unnamed Road, Transport Nagar, Birgoan, Raipur, Chhattisgarh 492003, India","icon":"https://assets.plugshare.com/icons/Y.png","icon_type":"Y","id":350888,"latitude":21.319407,"longitude":81.637256,"name":"Prince Guest House Raipur Tata Power FC","stations":[{"id":835302,"outlets":[{"connector":13,"id":2354561,"kilowatts":null,"power":0,"status":null}]}],"url":"http://api.plugshare.com/view/location/350888"},{"access":1,"address":"814-816, Udyog Vihar Phase V, Udyog Vihar, Phase V, Sector 19, Gurugram, Haryana 122008, India","icon":"https://assets.plugshare.com/icons/G.png","icon_type":"G","id":120495,"latitude":28.501231,"longitude":77.086387,"name":"Udyog Vihar Phase V","stations":[{"id":211717,"outlets":[{"connector":2,"id":452385,"kilowatts":null,"power":0,"status":null}]},{"id":211718,"outlets":[{"connector":2,"id":452386,"kilowatts":null,"power":0,"status":null}]}],"url":"http://api.plugshare.com/view/location/120495"},{"access":1,"address":"No D/2, D Block, Sector 8, Noida, Uttar Pradesh 201301, India","icon":"https://assets.plugshare.com/icons/Y.png","icon_type":"Y","id":316745,"latitude":28.594445,"longitude":77.33216,"name":"MG Motors Sector 8 Fortum FC","stations":[{"id":739118,"outlets":[{"connector":3,"id":2218804,"kilowatts":null,"power":0,"status":null},{"connector":13,"id":2218805,"kilowatts":null,"power":0,"status":null}]}],"url":"http://api.plugshare.com/view/location/316745"},{"access":1,"address":"RRCX+QX4, Gram Baroli, Madhya Pradesh 453555, India","icon":"https://assets.plugshare.com/icons/G.png","icon_type":"G","id":350925,"latitude":22.821922,"longitude":75.849969,"name":"Sagar Fuel Pump Chargegrid Type-2","stations":[{"id":835612,"outlets":[{"connector":7,"id":2354896,"kilowatts":null,"power":0,"status":null}]}],"url":"http://api.plugshare.com/view/location/350925"},{"access":1,"address":"HFPC+34R, Tilottama 32903, Nepal","icon":"https://assets.plugshare.com/icons/Y.png","icon_type":"Y","id":345599,"latitude":27.583872,"longitude":83.471536,"name":"TATA DC Fast Charger","stations":[{"id":820484,"outlets":[{"connector":13,"id":2325344,"kilowatts":null,"power":0,"status":null}]}],"url":"http://api.plugshare.com/view/location/345599"},{"access":1,"address":"Emerald Heights, Madhya Pradesh 452012, India","icon":"https://assets.plugshare.com/icons/Y.png","icon_type":"Y","id":339356,"latitude":22.651706,"longitude":75.821112,"name":"TML Shyam Automotives AB Road Tata Power FC","stations":[{"id":800859,"outlets":[{"connector":3,"id":2300193,"kilowatts":null,"power":0,"status":null},{"connector":13,"id":2300194,"kilowatts":null,"power":0,"status":null}]}],"url":"http://api.plugshare.com/view/location/339356"},{"access":1,"address":"6, Govind Marg, Saket Colony, Adarsh Nagar, Jaipur, Rajasthan 302004, India","icon":"https://assets.plugshare.com/icons/Y.png","icon_type":"Y","id":308003,"latitude":26.901431,"longitude":75.835443,"name":"TML Roshan Motors Tata Power FC","stations":[{"id":715332,"outlets":[{"connector":13,"id":2149750,"kilowatts":null,"power":0,"status":null}]}],"url":"http://api.plugshare.com/view/location/308003"},{"access":1,"address":"11/CP-2, Tedhi Pulia Ring Rd, Sanjay Vihar, Vikas Nagar, Lucknow, Uttar Pradesh 226022, India","icon":"https://assets.plugshare.com/icons/Y.png","icon_type":"Y","id":344122,"latitude":26.900937,"longitude":80.964239,"name":"TML SRM Motors Tata Power FC","stations":[{"id":814444,"outlets":[{"connector":13,"id":2318046,"kilowatts":null,"power":0,"status":null}]}],"url":"http://api.plugshare.com/view/location/344122"},{"access":1,"address":"246, Vaishali Rd, Saket Colony, Shantipura, Ajmer, Rajasthan 305004, India","icon":"https://assets.plugshare.com/icons/Y.png","icon_type":"Y","id":357714,"latitude":26.487833,"longitude":74.62913,"name":"Bravia Hotel Vaishali Nagar Tata Power FC","stations":[{"id":853209,"network_id":1012,"outlets":[{"connector":13,"id":2378025,"kilowatts":null,"power":0,"status":null}]}],"url":"http://api.plugshare.com/view/location/357714"},{"access":1,"address":"30/1, Bawadiya Kalan Rd, Raghunath Nagar, Rohit Nagar, Shirdipuram, Gulmohar Colony, Bhopal, Madhya Pradesh 462016, India","icon":"https://assets.plugshare.com/icons/Y.png","icon_type":"Y","id":316058,"latitude":23.182489,"longitude":77.432792,"name":"IOCL Pump Tata Power FC","stations":[{"id":737059,"outlets":[{"connector":13,"id":2216099,"kilowatts":null,"power":0,"status":null}]}],"url":"http://api.plugshare.com/view/location/316058"},{"access":1,"address":"Sai Nagar 1, Chandrakiran Nagar, Nagpur, Maharashtra 440034, India","icon":"https://assets.plugshare.com/icons/G.png","icon_type":"G","id":337614,"latitude":21.090342,"longitude":79.123683,"name":"Paramjyoti E-Mobility  Bolt Wall Charger","stations":[{"id":796371,"outlets":[{"connector":9,"id":2294274,"kilowatts":null,"power":0,"status":null}]}],"url":"http://api.plugshare.com/view/location/337614"},{"access":1,"address":"Gomti Nagar Ext Bypass Rd, Gomti Nagar, Lucknow, Uttar Pradesh 226010, India","icon":"https://assets.plugshare.com/icons/G.png","icon_type":"G","id":334696,"latitude":26.851418,"longitude":80.973369,"name":"Taj Mahal Lucknow Wall Charger","stations":[{"id":788423,"outlets":[{"connector":9,"id":2284159,"kilowatts":null,"power":0,"status":null}]}],"url":"http://api.plugshare.com/view/location/334696"},{"access":1,"address":"Anand Cinema Hall, Old DC Rd, SS Park Extn, Vikaspuri, Sonipat, Haryana 131304, India","icon":"https://assets.plugshare.com/icons/G.png","icon_type":"G","id":343826,"latitude":28.980389,"longitude":77.028801,"name":"Anand Cinema Hall","stations":[{"id":813610,"network_id":1007,"outlets":[{"connector":7,"id":2316839,"kilowatts":null,"power":0,"status":null}]}],"url":"http://api.plugshare.com/view/location/343826"},{"access":1,"address":"RCM8+4RH, Mathura, Uttar Pradesh 281403, India","icon":"https://assets.plugshare.com/icons/Y.png","icon_type":"Y","id":345876,"latitude":27.832367,"longitude":77.418789,"name":"AARGO(24KW) Asli Pappu Dhaba","score":9.0,"stations":[{"id":821212,"outlets":[{"connector":13,"id":2326326,"kilowatts":null,"power":0,"status":null}]}],"url":"http://api.plugshare.com/view/location/345876"},{"access":1,"address":"D Block RR5, Connaught Place","icon":"https://assets.plugshare.com/icons/Y.png","icon_type":"Y","id":199918,"latitude":28.635039,"longitude":77.221199,"name":"EESL Charging Station Near Ferns N Petals","stations":[{"id":429570,"outlets":[{"connector":3,"id":754066,"kilowatts":null,"power":0,"status":null}]}],"url":"http://api.plugshare.com/view/location/199918"},{"access":1,"address":"umaid palace resort","icon":"https://assets.plugshare.com/icons/Y.png","icon_type":"Y","id":359415,"latitude":26.913014,"longitude":76.466885,"name":"Umaid Palace","stations":[{"id":857739,"outlets":[{"connector":13,"id":2384426,"kilowatts":null,"power":0,"status":null}]},{"id":857740,"outlets":[{"connector":7,"id":2384427,"kilowatts":null,"power":0,"status":null}]},{"id":857741,"outlets":[{"connector":7,"id":2384428,"kilowatts":null,"power":0,"status":null}]}],"url":"http://api.plugshare.com/view/location/359415"},{"access":1,"address":"outside van husan showroom, Block C, Connaught Place, New Delhi, Delhi 110001, India","icon":"https://assets.plugshare.com/icons/G.png","icon_type":"G","id":202234,"latitude":28.634185,"longitude":77.220494,"name":"outside van husan showroom,Block C, Connaught Place, New Delhi, Delhi 110001, India","stations":[{"id":429566,"outlets":[{"connector":7,"id":754794,"kilowatts":null,"power":0,"status":null}]}],"url":"http://api.plugshare.com/view/location/202234"},{"access":1,"address":"Bhawani Mandir, Bhilgaon, Nagpur, Maharashtra 440017, India","icon":"https://assets.plugshare.com/icons/Y.png","icon_type":"Y","id":337615,"latitude":21.176839,"longitude":79.148684,"name":"BP Pump Public DC FC","stations":[{"id":796372,"outlets":[{"connector":13,"id":2294275,"kilowatts":null,"power":0,"status":null}]},{"id":796373,"outlets":[{"connector":9,"id":2294276,"kilowatts":null,"power":0,"status":null}]}],"url":"http://api.plugshare.com/view/location/337615"},{"access":1,"address":"New Express Highway, Amravati- Badnera Road, Opp. Ram Meghe College of engineering, Badnera, Amravati, Maharashtra 444701, India","icon":"https://assets.plugshare.com/icons/G.png","icon_type":"G","id":305141,"latitude":20.857434,"longitude":77.748385,"name":"Jadhav Home Slow Charger","stations":[{"id":708439,"outlets":[{"connector":9,"id":2136211,"kilowatts":null,"power":0,"status":null}]}],"url":"http://api.plugshare.com/view/location/305141"},{"access":1,"address":"Dlf Capitol Point Metro Station Lic Shivaji Stadium, Baba Kharak Singh Rd, Hanuman Road Area, Connaught Place, New Delhi, Delhi 110001, India","icon":"https://assets.plugshare.com/icons/Y.png","icon_type":"Y","id":309301,"latitude":28.629355,"longitude":77.212653,"name":"IOCL Irwin Road Tata Power FC","stations":[{"id":718950,"outlets":[{"connector":3,"id":2157318,"kilowatts":null,"power":0,"status":null},{"connector":13,"id":2157319,"kilowatts":null,"power":0,"status":null}]}],"url":"http://api.plugshare.com/view/location/309301"},{"access":1,"address":"19, Sector 15, Faridabad, Haryana 121007, India","icon":"https://assets.plugshare.com/icons/G.png","icon_type":"G","id":328395,"latitude":28.395612,"longitude":77.322513,"name":"Charge City - Faridabad Sec-15 Community Center","stations":[{"id":771480,"outlets":[{"connector":7,"id":2261897,"kilowatts":null,"power":0,"status":null}]}],"url":"http://api.plugshare.com/view/location/328395"},{"access":1,"address":"B-6, Vishwakarma Industrial Area, Jaipur, Rajasthan 302013, India","icon":"https://assets.plugshare.com/icons/Y.png","icon_type":"Y","id":304684,"latitude":26.972175,"longitude":75.777071,"name":"TML Shree Shyam Motors Tata Power FC","stations":[{"id":707391,"outlets":[{"connector":13,"id":2134113,"kilowatts":null,"power":0,"status":null}]}],"url":"http://api.plugshare.com/view/location/304684"},{"access":1,"address":"310, Queens Rd, Nemi Sagar Colony, D - Block, Vaishali Nagar, Jaipur, Rajasthan 302021, India","icon":"https://assets.plugshare.com/icons/Y.png","icon_type":"Y","id":304683,"latitude":26.914443,"longitude":75.753409,"name":"TML Akar Fourwheels","stations":[{"id":707390,"outlets":[{"connector":13,"id":2134112,"kilowatts":null,"power":0,"status":null}]}],"url":"http://api.plugshare.com/view/location/304683"},{"access":1,"address":"Unnamed Road, Khursipar, Chhattisgarh 490011, India","icon":"https://assets.plugshare.com/icons/Y.png","icon_type":"Y","id":337128,"latitude":21.216598,"longitude":81.401366,"name":"TML Sairam Automobiles Khursipar Tata Power FC","stations":[{"id":795096,"outlets":[{"connector":3,"id":2292618,"kilowatts":null,"power":0,"status":null},{"connector":13,"id":2292619,"kilowatts":null,"power":0,"status":null}]}],"url":"http://api.plugshare.com/view/location/337128"},{"access":1,"address":"Airport Metro Station, Sonegaon, Nagpur, Maharashtra 440005, India","icon":"https://assets.plugshare.com/icons/G.png","icon_type":"G","id":337617,"latitude":21.086782,"longitude":79.063678,"name":"Nagpur Airport EESL ElectreeFi DC & AC","stations":[{"id":796376,"outlets":[{"connector":9,"id":2294279,"kilowatts":null,"power":0,"status":null}]},{"id":796377,"outlets":[{"connector":9,"id":2294280,"kilowatts":null,"power":0,"status":null}]},{"id":796378,"outlets":[{"connector":9,"id":2294281,"kilowatts":null,"power":0,"status":null}]},{"id":796379,"outlets":[{"connector":9,"id":2294282,"kilowatts":null,"power":0,"status":null}]},{"id":796380,"outlets":[{"connector":9,"id":2294283,"kilowatts":null,"power":0,"status":null}]},{"id":796381,"outlets":[{"connector":9,"id":2294284,"kilowatts":null,"power":0,"status":null}]},{"id":796382,"outlets":[{"connector":9,"id":2294285,"kilowatts":null,"power":0,"status":null}]},{"id":796383,"outlets":[{"connector":9,"id":2294286,"kilowatts":null,"power":0,"status":null}]},{"id":796384,"outlets":[{"connector":9,"id":2294287,"kilowatts":null,"power":0,"status":null}]},{"id":796385,"outlets":[{"connector":9,"id":2294288,"kilowatts":null,"power":0,"status":null}]}],"url":"http://api.plugshare.com/view/location/337617"},{"access":1,"address":"487, Zulfe Bengal, Dilshad Garden, Delhi, 110095, India","icon":"https://assets.plugshare.com/icons/Y.png","icon_type":"Y","id":324666,"latitude":28.676396,"longitude":77.317266,"name":"TML Sagar Motors Dilshad Tata Power FC","stations":[{"id":760132,"outlets":[{"connector":3,"id":2246825,"kilowatts":null,"power":0,"status":null},{"connector":13,"id":2246826,"kilowatts":null,"power":0,"status":null}]}],"url":"http://api.plugshare.com/view/location/324666"},{"access":1,"address":"S-303, Sapphire, Comfort height, New Jail Rd, Comfort Green Phase 2, Sanjeev Nagar, Navri, Bhopal, Madhya Pradesh 462038, India","icon":"https://assets.plugshare.com/icons/G.png","icon_type":"G","id":345492,"latitude":23.298113,"longitude":77.377247,"name":"Captain's","stations":[{"id":820253,"outlets":[{"connector":7,"id":2325022,"kilowatts":null,"power":0,"status":null}]}],"url":"http://api.plugshare.com/view/location/345492"},{"access":1,"address":"1606, Ratan Colony, Gorakhpur, Jabalpur, Madhya Pradesh 482002, India","icon":"https://assets.plugshare.com/icons/G.png","icon_type":"G","id":341030,"latitude":23.148754,"longitude":79.927321,"name":"Indian Oil Petrol pump","stations":[{"id":806000,"outlets":[{"connector":7,"id":2306709,"kilowatts":null,"power":0,"status":null}]}],"url":"http://api.plugshare.com/view/location/341030"},{"access":1,"address":"181/1, Road, Sitapur, Uttar Pradesh 226021, India","icon":"https://assets.plugshare.com/icons/G.png","icon_type":"G","id":350724,"latitude":26.94545,"longitude":80.931057,"name":"Revanta Wall Charger","stations":[{"id":834860,"outlets":[{"connector":9,"id":2353916,"kilowatts":null,"power":0,"status":null}]}],"url":"http://api.plugshare.com/view/location/350724"},{"access":1,"address":"Galaxy Rd, Part II, Sector 15 Part 2, Sector 15, Gurugram, Haryana 122007, India","icon":"https://assets.plugshare.com/icons/G.png","icon_type":"G","id":309869,"latitude":28.467621,"longitude":77.042717,"name":"Kalyani Hospital","stations":[{"id":720550,"network_id":46,"outlets":[{"connector":14,"id":2161047,"kilowatts":null,"power":0,"status":null}]}],"url":"http://api.plugshare.com/view/location/309869"},{"access":1,"address":"C9G3+FM2, Parsakhera Industrial Area, Parsakhera, Uttar Pradesh 243502, India","icon":"https://assets.plugshare.com/icons/G.png","icon_type":"G","id":350029,"latitude":28.425546,"longitude":79.355302,"name":"Coming Soon AKC Hyundai Statiq Type-2","stations":[{"id":832541,"outlets":[{"connector":7,"id":2350769,"kilowatts":null,"power":0,"status":null}]}],"url":"http://api.plugshare.com/view/location/350029"},{"access":1,"address":"2, Loni Rd, ind. Area, Mohan Nagar, Ghaziabad, Uttar Pradesh 201007, India","icon":"https://assets.plugshare.com/icons/Y.png","icon_type":"Y","id":309298,"latitude":28.683165,"longitude":77.377059,"name":"TML SAB Motors Tata Power FC","stations":[{"id":718947,"outlets":[{"connector":3,"id":2157312,"kilowatts":null,"power":0,"status":null},{"connector":13,"id":2157313,"kilowatts":null,"power":0,"status":null}]}],"url":"http://api.plugshare.com/view/location/309298"},{"access":1,"address":"Jaika Motors, Commercial Rd, Civil Lines, Nagpur, Maharashtra 440001, India","icon":"https://assets.plugshare.com/icons/Y.png","icon_type":"Y","id":304381,"latitude":21.155773,"longitude":79.078811,"name":"TML Jaika Motors TATA Power FC","stations":[{"id":706739,"outlets":[{"connector":3,"id":2132680,"kilowatts":null,"power":0,"status":null},{"connector":13,"id":2132681,"kilowatts":null,"power":0,"status":null}]}],"url":"http://api.plugshare.com/view/location/304381"},{"access":1,"address":"Unnamed Road 122101, Sector 80, Gurugram, Haryana 122051, India","icon":"https://assets.plugshare.com/icons/G.png","icon_type":"G","id":350062,"latitude":28.363863,"longitude":76.959522,"name":"Karma Lakelands Statiq Type-2","stations":[{"id":832616,"outlets":[{"connector":7,"id":2350860,"kilowatts":null,"power":0,"status":null}]}],"url":"http://api.plugshare.com/view/location/350062"},{"access":1,"address":"Plaza Mall, Block H, Connaught Place, New Delhi, Delhi 110001, India","icon":"https://assets.plugshare.com/icons/G.png","icon_type":"G","id":199915,"latitude":28.635089,"longitude":77.219409,"name":"Connaught  Place","stations":[{"id":424359,"outlets":[{"connector":7,"id":742590,"kilowatts":null,"power":0,"status":null}]}],"url":"http://api.plugshare.com/view/location/199915"},{"access":1,"address":"NH 48, Diwan Mohalla, Behror, Rajasthan 301701, India","icon":"https://assets.plugshare.com/icons/Y.png","icon_type":"Y","id":319388,"latitude":27.874074,"longitude":76.275957,"name":"Hotel Highway Xpress Statiq 50KW DC","score":10.0,"stations":[{"id":746090,"outlets":[{"connector":13,"id":2228141,"kilowatts":50.0,"power":0,"status":"UNKNOWN"},{"connector":13,"id":2292740,"kilowatts":50.0,"power":0,"status":null}]}],"url":"http://api.plugshare.com/view/location/319388"},{"access":1,"address":"Sarvajanik (Centaur Hotel), New Delhi, Delhi 110037, India","icon":"https://assets.plugshare.com/icons/G.png","icon_type":"G","id":310531,"latitude":28.548414,"longitude":77.104349,"name":"PTC IGI Airport","stations":[{"id":722628,"outlets":[{"connector":7,"id":2167838,"kilowatts":null,"power":0,"status":null}]},{"id":722629,"outlets":[{"connector":7,"id":2167839,"kilowatts":null,"power":0,"status":null}]},{"id":722630,"outlets":[{"connector":7,"id":2167840,"kilowatts":null,"power":0,"status":null}]},{"id":722631,"outlets":[{"connector":7,"id":2167841,"kilowatts":null,"power":0,"status":null}]},{"id":722632,"outlets":[{"connector":7,"id":2167842,"kilowatts":null,"power":0,"status":null}]},{"id":722633,"outlets":[{"connector":7,"id":2167843,"kilowatts":null,"power":0,"status":null}]},{"id":722634,"outlets":[{"connector":7,"id":2167844,"kilowatts":null,"power":0,"status":null}]},{"id":722635,"outlets":[{"connector":7,"id":2167845,"kilowatts":null,"power":0,"status":null}]}],"url":"http://api.plugshare.com/view/location/310531"},{"access":1,"address":"A-1/17, Outer Ring Rd, A Block, Prashant Vihar, Sector 14, Rohini, Delhi, 110085, India","icon":"https://assets.plugshare.com/icons/Y.png","icon_type":"Y","id":309312,"latitude":28.709519,"longitude":77.135443,"name":"TML Malwa Automobiles Tata Power FC","stations":[{"id":718963,"outlets":[{"connector":3,"id":2157343,"kilowatts":null,"power":0,"status":null},{"connector":13,"id":2157344,"kilowatts":null,"power":0,"status":null}]}],"url":"http://api.plugshare.com/view/location/309312"},{"access":1,"address":"6, Ashoka Cinema Rd, Thakkre Baba Conlony, Bapu Bazar, Shakti Nagar, Udaipur, Rajasthan 313001, India","icon":"https://assets.plugshare.com/icons/Y.png","icon_type":"Y","id":310508,"latitude":24.581035,"longitude":73.696733,"name":"TML Chambal Motocorp Tata Power FC","stations":[{"id":722571,"outlets":[{"connector":3,"id":2167591,"kilowatts":null,"power":0,"status":null},{"connector":13,"id":2167592,"kilowatts":null,"power":0,"status":null}]}],"url":"http://api.plugshare.com/view/location/310508"},{"access":1,"address":"Sirsa Rd, Industrial Area, Hisar, Haryana 125011, India","icon":"https://assets.plugshare.com/icons/Y.png","icon_type":"Y","id":349906,"latitude":29.133201,"longitude":75.753769,"name":"Static DC 30KW Charging station","stations":[{"id":832254,"outlets":[{"connector":13,"id":2350398,"kilowatts":null,"power":0,"status":null}]},{"id":832255,"outlets":[{"connector":9,"id":2350399,"kilowatts":null,"power":0,"status":null}]}],"url":"http://api.plugshare.com/view/location/349906"},{"access":1,"address":"Road No 201, Dwarka, New Delhi, Delhi 110045, Inde","icon":"https://assets.plugshare.com/icons/G.png","icon_type":"G","id":144121,"latitude":28.595685,"longitude":77.071115,"name":"Apartment Building ","stations":[{"id":274162,"outlets":[{"connector":15,"id":542527,"kilowatts":null,"power":0,"status":null}]}],"url":"http://api.plugshare.com/view/location/144121"},{"access":1,"address":"GQ8V+3VV, Shastri Nagar, Vidisha, Madhya Pradesh 464001, India","icon":"https://assets.plugshare.com/icons/G.png","icon_type":"G","id":350928,"latitude":23.515295,"longitude":77.794643,"name":"MSHSD Datta Fuel Pump Chargegrid Type-2","stations":[{"id":835615,"outlets":[{"connector":7,"id":2354901,"kilowatts":null,"power":0,"status":null}]}],"url":"http://api.plugshare.com/view/location/350928"},{"access":1,"address":"Darbaripur Rd, Sector 70, Hasanpur, Haryana 122101, India","icon":"https://assets.plugshare.com/icons/G.png","icon_type":"G","id":334259,"latitude":28.38624,"longitude":77.006336,"name":"IOCL Statiq AC Type-2","stations":[{"id":787360,"outlets":[{"connector":7,"id":2282740,"kilowatts":null,"power":0,"status":null}]}],"url":"http://api.plugshare.com/view/location/334259"},{"access":1,"address":"HJG7+9M3, Jait, Uttar Pradesh 281406, India","icon":"https://assets.plugshare.com/icons/G.png","icon_type":"G","id":346299,"latitude":27.575234,"longitude":77.614382,"name":"AARGO29_04 Krishna Valley Vrindavan","stations":[{"id":822378,"outlets":[{"connector":7,"id":2328013,"kilowatts":null,"power":0,"status":null}]}],"url":"http://api.plugshare.com/view/location/346299"},{"access":1,"address":"B-32, Mojiwala Bagh Village, Ashok Vihar, New Delhi, Delhi 110033, India","icon":"https://assets.plugshare.com/icons/Y.png","icon_type":"Y","id":310509,"latitude":28.703393,"longitude":77.181099,"name":"IOCL Pump Tata Power FC","stations":[{"id":722572,"outlets":[{"connector":13,"id":2167599,"kilowatts":null,"power":0,"status":null}]}],"url":"http://api.plugshare.com/view/location/310509"},{"access":1,"address":"Choithram Mandi, Mangal Nagar, Indore, Madhya Pradesh 452014, India","icon":"https://assets.plugshare.com/icons/Y.png","icon_type":"Y","id":341583,"latitude":22.685056,"longitude":75.855631,"name":"IOCL Pump Tata Power FC","stations":[{"id":807661,"outlets":[{"connector":3,"id":2308862,"kilowatts":null,"power":0,"status":null},{"connector":13,"id":2308863,"kilowatts":null,"power":0,"status":null}]}],"url":"http://api.plugshare.com/view/location/341583"},{"access":1,"address":"41, Hanumanpura, Jawahar Nagar Colony, Bhelupur, Varanasi, Uttar Pradesh 221010, India","icon":"https://assets.plugshare.com/icons/G.png","icon_type":"G","id":348210,"latitude":25.295478,"longitude":82.999151,"name":"Speedforce CNC Bolt Wall Charger","stations":[{"id":827109,"outlets":[{"connector":9,"id":2334708,"kilowatts":null,"power":0,"status":null}]}],"url":"http://api.plugshare.com/view/location/348210"},{"access":1,"address":"One Awadh Centre, 384, Gomti Nagar Rd, Vibhuti Khand, Gomti Nagar, Lucknow, Uttar Pradesh 226010","icon":"https://assets.plugshare.com/icons/Y.png","icon_type":"Y","id":350047,"latitude":26.862356,"longitude":81.010516,"name":"Tata Power One Awadh Centre","stations":[{"id":832565,"outlets":[{"connector":13,"id":2350794,"kilowatts":null,"power":0,"status":null}]},{"id":832566,"outlets":[{"connector":7,"id":2350795,"kilowatts":null,"power":0,"status":null}]},{"id":832567,"outlets":[{"connector":7,"id":2350796,"kilowatts":null,"power":0,"status":null}]},{"id":832568,"outlets":[{"connector":3,"id":2350797,"kilowatts":null,"power":0,"status":null}]}],"url":"http://api.plugshare.com/view/location/350047"},{"access":1,"address":"F242+QH Gurugram, Haryana, India","icon":"https://assets.plugshare.com/icons/G.png","icon_type":"G","id":350037,"latitude":28.456978,"longitude":77.001386,"name":"IOCL Statiq Type-2","stations":[{"id":832552,"outlets":[{"connector":7,"id":2350781,"kilowatts":null,"power":0,"status":null}]},{"id":832553,"outlets":[{"connector":9,"id":2350782,"kilowatts":null,"power":0,"status":null}]}],"url":"http://api.plugshare.com/view/location/350037"},{"access":1,"address":"Near Swati Apartments, Narwana Road IP extn , Delhi 110092","icon":"https://assets.plugshare.com/icons/Y.png","icon_type":"Y","id":325754,"latitude":28.621815,"longitude":77.293683,"name":"plugngo Patparganj fast charger 50KW","score":9.0,"stations":[{"id":763878,"outlets":[{"connector":2,"id":2251649,"kilowatts":null,"power":0,"status":null},{"connector":7,"id":2251650,"kilowatts":null,"power":0,"status":null},{"connector":3,"id":2251651,"kilowatts":null,"power":0,"status":null},{"connector":13,"id":2251652,"kilowatts":null,"power":0,"status":null}]},{"id":763879,"outlets":[{"connector":3,"id":2251653,"kilowatts":null,"power":0,"status":null},{"connector":13,"id":2251654,"kilowatts":null,"power":0,"status":null}]}],"url":"http://api.plugshare.com/view/location/325754"},{"access":1,"address":"Tent City 1, Statue of Unity, Kevadia, Gujarat","icon":"https://assets.plugshare.com/icons/Y.png","icon_type":"Y","id":345712,"latitude":21.880349,"longitude":73.727323,"name":"MobiLane DC FC (80kW)","stations":[{"id":820796,"outlets":[{"connector":13,"id":2325739,"kilowatts":null,"power":0,"status":null},{"connector":13,"id":2325740,"kilowatts":null,"power":0,"status":null}]}],"url":"http://api.plugshare.com/view/location/345712"},{"access":1,"address":"Panchsheel Park Metro Station gate no 1, Block B, Soami Nagar South, Soami Nagar, New Delhi, Delhi 110017, India","icon":"https://assets.plugshare.com/icons/Y.png","icon_type":"Y","id":309305,"latitude":28.542946,"longitude":77.220584,"name":"IOCL Soami Nagar Tata Power FC","stations":[{"id":718954,"outlets":[{"connector":3,"id":2157330,"kilowatts":null,"power":0,"status":null},{"connector":13,"id":2157331,"kilowatts":null,"power":0,"status":null}]}],"url":"http://api.plugshare.com/view/location/309305"},{"access":1,"address":"HOTEL THE BLACKSTONE, A-20 Ganesh Nagar 200ft Rd, Muhana Mandi Rd Mansarovar Jaipur","icon":"https://assets.plugshare.com/icons/G.png","icon_type":"G","id":339386,"latitude":26.8357,"longitude":75.75594,"name":"Hotel The Blackstone EV charger","stations":[{"id":800909,"outlets":[{"connector":1,"id":2300258,"kilowatts":null,"power":0,"status":null}]},{"id":800910,"outlets":[{"connector":7,"id":2300259,"kilowatts":null,"power":0,"status":null}]}],"url":"http://api.plugshare.com/view/location/339386"},{"access":1,"address":"Gopalpur, Jaipur, 302015, Rajasthan, India","icon":"https://assets.plugshare.com/icons/G.png","icon_type":"G","id":213948,"latitude":26.875861,"longitude":75.787271,"name":"chik","stations":[{"id":460573,"outlets":[{"connector":2,"id":971588,"kilowatts":null,"power":0,"status":null},{"connector":1,"id":971589,"kilowatts":null,"power":0,"status":null}]},{"id":460574,"outlets":[{"connector":1,"id":971590,"kilowatts":null,"power":0,"status":null}]}],"url":"http://api.plugshare.com/view/location/213948"},{"access":1,"address":"A-2, Tilak Marg, C Scheme, Ashok Nagar, Jaipur, Rajasthan 302005, India","icon":"https://assets.plugshare.com/icons/YR.png","icon_type":"YR","id":313365,"latitude":26.902283,"longitude":75.799059,"name":"Udyog Bhavan Chargegrid FC (Coming Soon)","stations":[{"id":730295,"outlets":[{"connector":3,"id":2194763,"kilowatts":null,"power":0,"status":null},{"connector":13,"id":2194764,"kilowatts":null,"power":0,"status":null}]},{"id":730296,"outlets":[{"connector":7,"id":2194765,"kilowatts":null,"power":0,"status":null}]}],"url":"http://api.plugshare.com/view/location/313365"},{"access":1,"address":"RZ a 70, Palam - Dabri Marg, Durgapuri & Dwarkapuri, Vaishali Colony, Mahavir Enclave, New Delhi, Delhi 110046, India","icon":"https://assets.plugshare.com/icons/Y.png","icon_type":"Y","id":317377,"latitude":28.605855,"longitude":77.081316,"name":"Sparsh Tata Motors Tata Power FC","stations":[{"id":740601,"outlets":[{"connector":3,"id":2220823,"kilowatts":null,"power":0,"status":null},{"connector":13,"id":2220824,"kilowatts":null,"power":0,"status":null}]}],"url":"http://api.plugshare.com/view/location/317377"},{"access":1,"address":"NHAI Building, Dwarka, Delhi, 110075, India","icon":"https://assets.plugshare.com/icons/Y.png","icon_type":"Y","id":317376,"latitude":28.578724,"longitude":77.059473,"name":"IOCL Hundred Percent","stations":[{"id":740600,"network_id":1012,"outlets":[{"connector":3,"id":2220821,"kilowatts":null,"power":0,"status":null},{"connector":13,"id":2220822,"kilowatts":null,"power":0,"status":null}]}],"url":"http://api.plugshare.com/view/location/317376"},{"access":1,"address":"Galaxy Apartment, Sector 15 Part 2, Sector 15, Gurugram, Haryana 122001, India","icon":"https://assets.plugshare.com/icons/Y.png","icon_type":"Y","id":316742,"latitude":28.462268,"longitude":77.048537,"name":"MG Gurgaon Sector 15 Fortum FC","stations":[{"id":739115,"outlets":[{"connector":3,"id":2218798,"kilowatts":null,"power":0,"status":null},{"connector":13,"id":2218799,"kilowatts":null,"power":0,"status":null}]}],"url":"http://api.plugshare.com/view/location/316742"},{"access":1,"address":"H04, Darechok, Nepal","icon":"https://assets.plugshare.com/icons/Y.png","icon_type":"Y","id":344539,"latitude":27.858865,"longitude":84.646064,"name":"Siddhartha Riverside Resort DC Fast Charging","stations":[{"id":815506,"outlets":[{"connector":13,"id":2319515,"kilowatts":null,"power":0,"status":null}]}],"url":"http://api.plugshare.com/view/location/344539"},{"access":1,"address":"1, Block A, Mayapuri Industrial Area Phase I, Mayapuri, New Delhi, Delhi 110064, India","icon":"https://assets.plugshare.com/icons/Y.png","icon_type":"Y","id":309299,"latitude":28.633328,"longitude":77.127005,"name":"TML Truenorth Tata Power FC","stations":[{"id":718948,"outlets":[{"connector":3,"id":2157315,"kilowatts":null,"power":0,"status":null},{"connector":13,"id":2157316,"kilowatts":null,"power":0,"status":null}]}],"url":"http://api.plugshare.com/view/location/309299"},{"access":1,"address":"A17, Rupsagar, Udaipur, Rajasthan 313001, India","icon":"https://assets.plugshare.com/icons/G.png","icon_type":"G","id":339125,"latitude":24.604032,"longitude":73.720794,"name":"Kyoto Resort Udaipur Wall Charger","stations":[{"id":800336,"outlets":[{"connector":9,"id":2299490,"kilowatts":null,"power":0,"status":null}]}],"url":"http://api.plugshare.com/view/location/339125"},{"access":1,"address":"A-15, Alankar Cinema, Building, Feroze Gandhi Rd, Block I, Lajpat Nagar III, Lajpat Nagar, New Delhi, Delhi 110024, India","icon":"https://assets.plugshare.com/icons/Y.png","icon_type":"Y","id":309309,"latitude":28.568181,"longitude":77.241142,"name":"Westside Tata Power FC","stations":[{"id":718960,"outlets":[{"connector":3,"id":2157338,"kilowatts":null,"power":0,"status":null},{"connector":13,"id":2157339,"kilowatts":null,"power":0,"status":null}]}],"url":"http://api.plugshare.com/view/location/309309"},{"access":1,"address":"102, Sector 13, Dwarka, Delhi, 110075, India","icon":"https://assets.plugshare.com/icons/Y.png","icon_type":"Y","id":357142,"latitude":28.598347,"longitude":77.033665,"name":"Jio-bp pulse EV Charging Hub","stations":[{"id":851691,"outlets":[{"connector":13,"id":2375987,"kilowatts":null,"power":0,"status":null}]}],"url":"http://api.plugshare.com/view/location/357142"},{"access":1,"address":"410 Vithal peth old jalgaon ","icon":"https://assets.plugshare.com/icons/G.png","icon_type":"G","id":337084,"latitude":21.006815,"longitude":75.572023,"name":"Tejas Bhavsar","stations":[{"id":795009,"network_id":1,"outlets":[{"connector":10,"id":2292512,"kilowatts":null,"power":0,"status":null}]}],"url":"http://api.plugshare.com/view/location/337084"},{"access":1,"address":"531, Sohna Rd, Islampur Village, Sector 33, Gurugram, Haryana 122005, India","icon":"https://assets.plugshare.com/icons/G.png","icon_type":"G","id":350036,"latitude":28.433584,"longitude":77.034919,"name":"JMD Garden Statiq Type-2","stations":[{"id":832550,"outlets":[{"connector":7,"id":2350779,"kilowatts":null,"power":0,"status":null}]},{"id":832551,"outlets":[{"connector":9,"id":2350780,"kilowatts":null,"power":0,"status":null}]}],"url":"http://api.plugshare.com/view/location/350036"},{"access":1,"address":"3, Tonk Rd, Chaudhary Charan Singh Park, Pratap Nagar, Jaipur, Rajasthan 302018, India","icon":"https://assets.plugshare.com/icons/Y.png","icon_type":"Y","id":332398,"latitude":26.8332,"longitude":75.794318,"name":"MG GPS Automobiles Tata Power FC","stations":[{"id":782506,"outlets":[{"connector":3,"id":2276363,"kilowatts":null,"power":0,"status":null},{"connector":13,"id":2276364,"kilowatts":null,"power":0,"status":null}]}],"url":"http://api.plugshare.com/view/location/332398"},{"access":1,"address":"City Square, Tonk Rd, Kirti Nagar, Vasundhara Colony, Gopal Pura Mode, Jaipur, Rajasthan 302018, India","icon":"https://assets.plugshare.com/icons/Y.png","icon_type":"Y","id":332292,"latitude":26.864811,"longitude":75.795923,"name":"Hotel Four Points by Sheraton Tata Power FC","stations":[{"id":782508,"outlets":[{"connector":7,"id":2276369,"kilowatts":null,"power":0,"status":null}]},{"id":782249,"network_id":1,"outlets":[{"connector":13,"id":2276051,"kilowatts":null,"power":0,"status":null}]},{"id":782250,"network_id":1,"outlets":[{"connector":3,"id":2276052,"kilowatts":null,"power":0,"status":null}]}],"url":"http://api.plugshare.com/view/location/332292"},{"access":1,"address":"Unnamed Road, Binola, Haryana 122414, India","icon":"https://assets.plugshare.com/icons/G.png","icon_type":"G","id":337207,"latitude":28.310516,"longitude":76.872927,"name":"Private - OVN Test Charger Tata Power AC Type-2","stations":[{"id":795239,"outlets":[{"connector":7,"id":2292798,"kilowatts":null,"power":0,"status":null}]}],"url":"http://api.plugshare.com/view/location/337207"},{"access":1,"address":"Vasant Kunj, New Delhi, 110070, Delhi, India","icon":"https://assets.plugshare.com/icons/G.png","icon_type":"G","id":252849,"latitude":28.543632,"longitude":77.156861,"name":"DLF Emporio B1","stations":[{"id":554503,"outlets":[{"connector":7,"id":1527829,"kilowatts":null,"power":0,"status":null},{"connector":10,"id":1527830,"kilowatts":null,"power":0,"status":null}]}],"url":"http://api.plugshare.com/view/location/252849"},{"access":1,"address":"29, Bhandara Rd, Lakadganj, Nagpur, Maharashtra 440008, India","icon":"https://assets.plugshare.com/icons/Y.png","icon_type":"Y","id":337616,"latitude":21.152602,"longitude":79.131341,"name":"HP Govt DC Charger","stations":[{"id":796374,"outlets":[{"connector":13,"id":2294277,"kilowatts":null,"power":0,"status":null}]},{"id":796375,"outlets":[{"connector":9,"id":2294278,"kilowatts":null,"power":0,"status":null}]}],"url":"http://api.plugshare.com/view/location/337616"},{"access":1,"address":"Service Rd, Uattardhona, Uttar Pradesh 226010, India","icon":"https://assets.plugshare.com/icons/Y.png","icon_type":"Y","id":328577,"latitude":26.8924,"longitude":81.072324,"name":"Tata Motors Puneet Workshop","stations":[{"id":771886,"outlets":[{"connector":13,"id":2262446,"kilowatts":null,"power":0,"status":null}]}],"url":"http://api.plugshare.com/view/location/328577"},{"access":1,"address":"plot no 18, Ajalkar Nagar, Dhule, Maharashtra 424001, India","icon":"https://assets.plugshare.com/icons/G.png","icon_type":"G","id":327395,"latitude":20.888824,"longitude":74.753599,"name":"Mahindra First Choice","stations":[{"id":768706,"outlets":[{"connector":9,"id":2258273,"kilowatts":null,"power":0,"status":null}]}],"url":"http://api.plugshare.com/view/location/327395"},{"access":1,"address":"29, Sahakar Nagar, Snehlataganj, Indore, Madhya Pradesh 452003, India","icon":"https://assets.plugshare.com/icons/Y.png","icon_type":"Y","id":326229,"latitude":22.729022,"longitude":75.863533,"name":"IOCL Pump Tata Power FC","stations":[{"id":765385,"outlets":[{"connector":3,"id":2253805,"kilowatts":null,"power":0,"status":null},{"connector":13,"id":2253806,"kilowatts":null,"power":0,"status":null}]}],"url":"http://api.plugshare.com/view/location/326229"},{"access":1,"address":"Pokhara-Baglung Hwy, Pokhara 33700, Nepal","icon":"https://assets.plugshare.com/icons/Y.png","icon_type":"Y","id":327457,"latitude":28.22222,"longitude":83.978658,"name":"Barahi Service Center - Hyundai AC Charger","stations":[{"id":768835,"outlets":[{"connector":13,"id":2258431,"kilowatts":null,"power":0,"status":null}]}],"url":"http://api.plugshare.com/view/location/327457"},{"access":1,"address":"206, Prakash Industrial Estate, Sahibabad Industrial Area Site 4, Sahibabad, Ghaziabad, Uttar Pradesh 201005, India","icon":"https://assets.plugshare.com/icons/Y.png","icon_type":"Y","id":339865,"latitude":28.676465,"longitude":77.341792,"name":"IOCL Petrol Pump","stations":[{"id":802209,"outlets":[{"connector":13,"id":2302065,"kilowatts":null,"power":0,"status":null}]}],"url":"http://api.plugshare.com/view/location/339865"},{"access":1,"address":"Pitampura","icon":"https://assets.plugshare.com/icons/Y.png","icon_type":"Y","id":336771,"latitude":28.694403,"longitude":77.153716,"name":"Pacific Mall NSP Parking","stations":[{"id":794290,"outlets":[{"connector":3,"id":2291633,"kilowatts":null,"power":0,"status":null},{"connector":13,"id":2291634,"kilowatts":null,"power":0,"status":null}]},{"id":794291,"outlets":[{"connector":7,"id":2291635,"kilowatts":null,"power":0,"status":null}]},{"id":794293,"outlets":[{"connector":7,"id":2291637,"kilowatts":null,"power":0,"status":null}]},{"id":798736,"outlets":[{"connector":13,"id":2297475,"kilowatts":null,"power":0,"status":null}]}],"url":"http://api.plugshare.com/view/location/336771"},{"access":1,"address":"43, DLF Galleria Rd, DLF Phase IV, Sector 28, Gurugram, Haryana 122009, India","icon":"https://assets.plugshare.com/icons/Y.png","icon_type":"Y","id":313482,"latitude":28.467616,"longitude":77.081708,"name":"Galleria Statiq FC Charger","score":9.0,"stations":[{"id":730543,"outlets":[{"connector":13,"id":2195571,"kilowatts":null,"power":0,"status":null}]}],"url":"http://api.plugshare.com/view/location/313482"},{"access":1,"address":"Delhi-Mathura Crossing, near ashram  chowk ring road maharani bagh,New Delhi, Delhi 110065, India","icon":"https://assets.plugshare.com/icons/G.png","icon_type":"G","id":202341,"latitude":28.57132,"longitude":77.259796,"name":"Delhi-Mathura Crossing","stations":[{"id":429792,"outlets":[{"connector":7,"id":754797,"kilowatts":null,"power":0,"status":null}]}],"url":"http://api.plugshare.com/view/location/202341"},{"access":1,"address":"Bses Rajdhani Power Limited, Bses House, Nehru Place, New Delhi, Delhi 110019, India","icon":"https://assets.plugshare.com/icons/G.png","icon_type":"G","id":202342,"latitude":28.549531,"longitude":77.254749,"name":"Bses Rajdhani Power Limited","stations":[{"id":429794,"outlets":[{"connector":7,"id":754800,"kilowatts":null,"power":0,"status":null}]},{"id":429795,"outlets":[{"connector":7,"id":754801,"kilowatts":null,"power":0,"status":null}]}],"url":"http://api.plugshare.com/view/location/202342"},{"access":1,"address":"RIICO Jaipur","icon":"https://assets.plugshare.com/icons/G.png","icon_type":"G","id":347986,"latitude":27.030712,"longitude":75.89048,"name":"Hotel Fairmont Jaipur","stations":[{"id":826492,"outlets":[{"connector":7,"id":2333870,"kilowatts":null,"power":0,"status":null}]},{"id":826493,"outlets":[{"connector":7,"id":2333871,"kilowatts":null,"power":0,"status":null}]}],"url":"http://api.plugshare.com/view/location/347986"},{"access":1,"address":"464, Block 6, Subhash Nagar, New Delhi, Delhi 110027, India","icon":"https://assets.plugshare.com/icons/Y.png","icon_type":"Y","id":339074,"latitude":28.642179,"longitude":77.105777,"name":"Pacific Mall","stations":[{"id":800246,"outlets":[{"connector":13,"id":2299378,"kilowatts":null,"power":0,"status":null},{"connector":13,"id":2299379,"kilowatts":null,"power":0,"status":null},{"connector":3,"id":2299380,"kilowatts":null,"power":0,"status":null}]},{"id":800247,"outlets":[{"connector":7,"id":2299381,"kilowatts":null,"power":0,"status":null},{"connector":24,"id":2299382,"kilowatts":null,"power":0,"status":null}]}],"url":"http://api.plugshare.com/view/location/339074"},{"access":1,"address":"Patidar Colony, Burhanpur, SH-27, Station Road, Burhanpur, patidar colony, Burhanpur, Madhya Pradesh 450331, India","icon":"https://assets.plugshare.com/icons/G.png","icon_type":"G","id":359050,"latitude":21.31543,"longitude":76.228291,"name":"Sahaj Bolt Wall Charger","stations":[{"id":856841,"outlets":[{"connector":9,"id":2383276,"kilowatts":null,"power":0,"status":null}]}],"url":"http://api.plugshare.com/view/location/359050"},{"access":1,"address":"344, Lal Sain Mandir Marg, Block VB, Virender Nagar, Janakpuri, New Delhi, Delhi 110058, India","icon":"https://assets.plugshare.com/icons/Y.png","icon_type":"Y","id":324263,"latitude":28.622502,"longitude":77.095398,"name":"IOCL Citi Fuels Tata Power FC","stations":[{"id":759037,"outlets":[{"connector":13,"id":2245300,"kilowatts":null,"power":0,"status":null}]}],"url":"http://api.plugshare.com/view/location/324263"},{"access":1,"address":"Wadi Naka No. 10, Wadi, Nagpur, Maharashtra 440023, India","icon":"https://assets.plugshare.com/icons/Y.png","icon_type":"Y","id":317379,"latitude":21.154027,"longitude":79.013167,"name":"Raw Matt Ind Pvt Ltd, wadi, Tata Power Fc","stations":[{"id":740604,"outlets":[{"connector":3,"id":2220828,"kilowatts":null,"power":0,"status":null},{"connector":13,"id":2220829,"kilowatts":null,"power":0,"status":null}]}],"url":"http://api.plugshare.com/view/location/317379"},{"access":1,"address":"Dhule - Malegaon Rd, Dhule, Maharashtra 424001, India","icon":"https://assets.plugshare.com/icons/G.png","icon_type":"G","id":335892,"latitude":20.892677,"longitude":74.773699,"name":"Hotel Ganpati Palace","stations":[{"id":792028,"outlets":[{"connector":9,"id":2288564,"kilowatts":null,"power":0,"status":null}]}],"url":"http://api.plugshare.com/view/location/335892"},{"access":1,"address":"INA Dilli Haat Parking","icon":"https://assets.plugshare.com/icons/Y.png","icon_type":"Y","id":343832,"latitude":28.572833,"longitude":77.208465,"name":"INA Dilli Haat Parking","stations":[{"id":813619,"outlets":[{"connector":13,"id":2316849,"kilowatts":null,"power":0,"status":null}]},{"id":813620,"outlets":[{"connector":13,"id":2316850,"kilowatts":null,"power":0,"status":null}]},{"id":813621,"outlets":[{"connector":7,"id":2316851,"kilowatts":null,"power":0,"status":null}]},{"id":813622,"outlets":[{"connector":7,"id":2316852,"kilowatts":null,"power":0,"status":null}]},{"id":813623,"outlets":[{"connector":3,"id":2316853,"kilowatts":null,"power":0,"status":null}]},{"id":813624,"outlets":[{"connector":3,"id":2316854,"kilowatts":null,"power":0,"status":null}]}],"url":"http://api.plugshare.com/view/location/343832"},{"access":1,"address":"Panchsheel Marg, Chanakyapuri, New Delhi, Delhi 110021, India","icon":"https://assets.plugshare.com/icons/G.png","icon_type":"G","id":202226,"latitude":28.597239,"longitude":77.190404,"name":"Chanakyapuri, New Delhi, Delhi 110021\n\n\n","stations":[{"id":429553,"outlets":[{"connector":7,"id":754038,"kilowatts":null,"power":0,"status":null}]}],"url":"http://api.plugshare.com/view/location/202226"},{"access":1,"address":"44 34, Aggarwal City Mall, Shyamji Krishna Varma Marg, Saint Nagar Delhi, Rani Bagh, Najafgarh Road Industrial Area, Rani Bagh, Pitam Pura, Delhi, 110034, India","icon":"https://assets.plugshare.com/icons/G.png","icon_type":"G","id":310283,"latitude":28.689834,"longitude":77.135122,"name":"IOCL Ranibagh","stations":[{"id":721846,"outlets":[{"connector":7,"id":2262806,"kilowatts":null,"power":0,"status":null}]}],"url":"http://api.plugshare.com/view/location/310283"},{"access":1,"address":"Khyber Pass, Civil Lines, Delhi, 110054, India","icon":"https://assets.plugshare.com/icons/Y.png","icon_type":"Y","id":337812,"latitude":28.545718,"longitude":77.192768,"name":"Start","stations":[{"id":796941,"outlets":[{"connector":3,"id":2295023,"kilowatts":null,"power":0,"status":null}]},{"id":796945,"outlets":[{"connector":7,"id":2295027,"kilowatts":null,"power":0,"status":null}]}],"url":"http://api.plugshare.com/view/location/337812"},{"access":1,"address":"Pitampura HU block, New Delhi, Delhi 110021, India","icon":"https://assets.plugshare.com/icons/Y.png","icon_type":"Y","id":309302,"latitude":28.583419,"longitude":77.191248,"name":"IOCL Tata Power FC","stations":[{"id":718951,"outlets":[{"connector":3,"id":2157320,"kilowatts":null,"power":0,"status":null},{"connector":13,"id":2157321,"kilowatts":null,"power":0,"status":null}]}],"url":"http://api.plugshare.com/view/location/309302"},{"access":1,"address":"Mohammad Pur, Mohammadpur, Rama Krishna Puram, New Delhi, Delhi 110066, India","icon":"https://assets.plugshare.com/icons/Y.png","icon_type":"Y","id":309303,"latitude":28.564834,"longitude":77.188942,"name":"TML Treo showroom Tata Power FC","stations":[{"id":718952,"outlets":[{"connector":3,"id":2157322,"kilowatts":null,"power":0,"status":null},{"connector":13,"id":2157323,"kilowatts":null,"power":0,"status":null}]}],"url":"http://api.plugshare.com/view/location/309303"},