[{"access":1,"address":"147 Rudakiy ko'chasi, Samarqand, Uzbekistan","icon":"https://assets.plugshare.com/icons/G.png","icon_type":"G","id":337951,"latitude":39.679882,"longitude":66.93851,"name":"UNG Petro (Samarkand)","stations":[{"id":797298,"outlets":[{"connector":3,"id":2295522,"kilowatts":null,"power":0,"status":null},{"connector":13,"id":2295523,"kilowatts":null,"power":0,"status":null},{"connector":7,"id":2295524,"kilowatts":null,"power":0,"status":null}]}],"url":"http://api.plugshare.com/view/location/337951"},{"access":1,"address":"Bypass Rd, Madhya Pradesh 470661, India","icon":"https://assets.plugshare.com/icons/G.png","icon_type":"G","id":328693,"latitude":23.816066,"longitude":79.412456,"name":"Gangotri Automobiles Chargegrid Type 2","stations":[{"id":772096,"outlets":[{"connector":7,"id":2262722,"kilowatts":null,"power":0,"status":null}]}],"url":"http://api.plugshare.com/view/location/328693"},{"access":1,"address":"NH43, Gahila, Chhattisgarh 497101, India","icon":"https://assets.plugshare.com/icons/G.png","icon_type":"G","id":331749,"latitude":23.02377,"longitude":83.378107,"name":"HPCL Shree Ram pump Chargegrid Type-2","stations":[{"id":780879,"outlets":[{"connector":7,"id":2274292,"kilowatts":null,"power":0,"status":null}]}],"url":"http://api.plugshare.com/view/location/331749"},{"access":1,"address":"Udaipur","icon":"https://assets.plugshare.com/icons/G.png","icon_type":"G","id":303537,"latitude":24.563805,"longitude":73.707274,"name":"Home Unit - Mohit","stations":[{"id":704678,"outlets":[{"connector":7,"id":2128684,"kilowatts":null,"power":0,"status":null},{"connector":9,"id":2128685,"kilowatts":null,"power":0,"status":null}]}],"url":"http://api.plugshare.com/view/location/303537"},{"access":1,"address":"Nawathe Stop, Badnera Rd, Vidhya Vihar Colony, Navathe Nagar, Amravati, Maharashtra 444607, India","icon":"https://assets.plugshare.com/icons/G.png","icon_type":"G","id":330618,"latitude":20.909467,"longitude":77.752234,"name":"Hotel Rangoli Pearl Tata Power FC(25kw)","score":9.0,"stations":[{"id":777465,"outlets":[{"connector":3,"id":2269778,"kilowatts":null,"power":0,"status":null},{"connector":13,"id":2269779,"kilowatts":null,"power":0,"status":null}]},{"id":777466,"outlets":[{"connector":7,"id":2269780,"kilowatts":null,"power":0,"status":null}]}],"url":"http://api.plugshare.com/view/location/330618"},{"access":1,"address":"8RP9+CF8, Chikmagalur, Karnataka 577102, India","icon":"https://assets.plugshare.com/icons/G.png","icon_type":"G","id":357329,"latitude":13.336814,"longitude":75.817463,"name":"Gateway Hotel - Tata FC (25kw)","stations":[{"id":852596,"outlets":[{"connector":1,"id":2377221,"kilowatts":null,"power":0,"status":null}]},{"id":852124,"network_id":1012,"outlets":[{"connector":13,"id":2376552,"kilowatts":25.0,"power":0,"status":null}]},{"id":852125,"network_id":1012,"outlets":[{"connector":7,"id":2376553,"kilowatts":null,"power":0,"status":null}]}],"url":"http://api.plugshare.com/view/location/357329"},{"access":1,"address":"1B/A, Police line, Subhash Chowk, Ratanada, Jodhpur","icon":"https://assets.plugshare.com/icons/G.png","icon_type":"G","id":346517,"latitude":26.279872,"longitude":73.0304,"name":"The Fern Residency Xobolt Type-2","stations":[{"id":822910,"outlets":[{"connector":7,"id":2329014,"kilowatts":null,"power":0,"status":null}]}],"url":"http://api.plugshare.com/view/location/346517"},{"access":1,"address":"Ranibagh - Haldwani Rd, Kathgodam, Haldwani, Uttarakhand 263126, India","icon":"https://assets.plugshare.com/icons/G.png","icon_type":"G","id":272800,"latitude":29.253763,"longitude":79.541888,"name":"Nainigo","stations":[{"id":602582,"outlets":[{"connector":7,"id":1671798,"kilowatts":null,"power":0,"status":null}]}],"url":"http://api.plugshare.com/view/location/272800"},{"access":1,"address":"PNR Function Hall, Andhrakesari Nagar, Proddatur, Andhra Pradesh 516360","icon":"https://assets.plugshare.com/icons/G.png","icon_type":"G","id":354194,"latitude":14.752939,"longitude":78.555394,"name":"PNR Function Hall - Tata FC(25Kw)","stations":[{"id":843911,"network_id":1012,"outlets":[{"connector":13,"id":2365756,"kilowatts":null,"power":0,"status":null}]},{"id":861709,"network_id":1012,"outlets":[{"connector":7,"id":2390353,"kilowatts":null,"power":0,"status":null}]}],"url":"http://api.plugshare.com/view/location/354194"},{"access":1,"address":"NH45, Deori, Madhya Pradesh 464774, India","icon":"https://assets.plugshare.com/icons/G.png","icon_type":"G","id":331747,"latitude":23.128215,"longitude":78.680675,"name":"Indane Petrol Pump","stations":[{"id":780877,"outlets":[{"connector":7,"id":2274288,"kilowatts":null,"power":0,"status":null}]}],"url":"http://api.plugshare.com/view/location/331747"},{"access":1,"address":"9V4F+VF Ramanathapuram, Tamil Nadu, India","icon":"https://assets.plugshare.com/icons/G.png","icon_type":"G","id":353240,"latitude":9.357188,"longitude":78.873637,"name":"KSN Charging Station - Relux Type-2","stations":[{"id":841515,"outlets":[{"connector":7,"id":2362177,"kilowatts":null,"power":0,"status":null}]}],"url":"http://api.plugshare.com/view/location/353240"},{"access":1,"address":"RPHX+JC Tikhi, Maharashtra, India","icon":"https://assets.plugshare.com/icons/G.png","icon_type":"G","id":354362,"latitude":20.829098,"longitude":74.748613,"name":"Coming Soon - Hotel Bliss County Dhule Statiq 60KW FC","stations":[{"id":844318,"outlets":[{"connector":13,"id":2366393,"kilowatts":null,"power":0,"status":null},{"connector":13,"id":2366394,"kilowatts":null,"power":0,"status":null}]},{"id":844319,"outlets":[{"connector":7,"id":2366395,"kilowatts":null,"power":0,"status":null}]},{"id":844320,"outlets":[{"connector":9,"id":2366396,"kilowatts":null,"power":0,"status":null}]}],"url":"http://api.plugshare.com/view/location/354362"},{"access":1,"address":"Unnamed Road, Rajasthan 304804, India","icon":"https://assets.plugshare.com/icons/G.png","icon_type":"G","id":357713,"latitude":25.936118,"longitude":75.458843,"name":"Dusk View Beesalpur Tata Power FC","stations":[{"id":853207,"network_id":1012,"outlets":[{"connector":13,"id":2378023,"kilowatts":null,"power":0,"status":null}]},{"id":853208,"network_id":1012,"outlets":[{"connector":7,"id":2378024,"kilowatts":null,"power":0,"status":null}]}],"url":"http://api.plugshare.com/view/location/357713"},{"access":1,"address":"3JQX+7QW, Nepalgunj 21900, Nepal","icon":"https://assets.plugshare.com/icons/G.png","icon_type":"G","id":346750,"latitude":28.109539,"longitude":81.657091,"name":"Team Eleven EV World- BYD SHOWROOM","stations":[{"id":823419,"outlets":[{"connector":13,"id":2329695,"kilowatts":null,"power":0,"status":null}]},{"id":859511,"outlets":[{"connector":7,"id":2386976,"kilowatts":null,"power":0,"status":null},{"connector":10,"id":2386977,"kilowatts":null,"power":0,"status":null}]}],"url":"http://api.plugshare.com/view/location/346750"},{"access":1,"address":"991-992, Phase-2, Urban Estate,Jamalpur Colony, Opposite Gol Market, Urban Estate Phase II, Jamalpur Colony, Ludhiana, Punjab 141010, India","icon":"https://assets.plugshare.com/icons/G.png","icon_type":"G","id":265573,"latitude":30.895826,"longitude":75.907989,"name":"Royal Guest House ","stations":[{"id":583223,"outlets":[{"connector":7,"id":1613415,"kilowatts":null,"power":0,"status":null},{"connector":10,"id":1613416,"kilowatts":null,"power":0,"status":null}]}],"url":"http://api.plugshare.com/view/location/265573"},{"access":1,"address":"HQ8F+XJ3, Surendranagar, Gujarat 363421, India","icon":"https://assets.plugshare.com/icons/G.png","icon_type":"G","id":356432,"latitude":22.567381,"longitude":71.774198,"name":"Highway Food Mall Limbdi Charge-Zone FC","stations":[{"id":849631,"outlets":[{"connector":13,"id":2373210,"kilowatts":null,"power":0,"status":null},{"connector":13,"id":2373211,"kilowatts":null,"power":0,"status":null}]},{"id":849632,"outlets":[{"connector":7,"id":2373212,"kilowatts":null,"power":0,"status":null},{"connector":7,"id":2373213,"kilowatts":null,"power":0,"status":null}]}],"url":"http://api.plugshare.com/view/location/356432"},{"access":1,"address":"i-Red Airtel Project, AH46, Rupnarayanpur, West Bengal 721305, India","icon":"https://assets.plugshare.com/icons/G.png","icon_type":"G","id":336402,"latitude":22.380942,"longitude":87.365993,"name":"Hotel Greenland Tower Tata Power FC","stations":[{"id":793318,"network_id":1012,"outlets":[{"connector":3,"id":2290315,"kilowatts":null,"power":0,"status":null},{"connector":13,"id":2290316,"kilowatts":null,"power":0,"status":null}]},{"id":793319,"network_id":1012,"outlets":[{"connector":7,"id":2290317,"kilowatts":null,"power":0,"status":null}]},{"id":793320,"network_id":1012,"outlets":[{"connector":7,"id":2290318,"kilowatts":null,"power":0,"status":null}]}],"url":"http://api.plugshare.com/view/location/336402"},{"access":1,"address":"SH 2, Wadraf Nagar, Chhattisgarh 497225, India","icon":"https://assets.plugshare.com/icons/G.png","icon_type":"G","id":331750,"latitude":23.760819,"longitude":83.198205,"name":"HPCL Vishwanath Fuels Chargegrid Type-2","stations":[{"id":780880,"outlets":[{"connector":7,"id":2274293,"kilowatts":null,"power":0,"status":null}]}],"url":"http://api.plugshare.com/view/location/331750"},{"access":1,"address":"12, Lawrence Road, opposite Bijli Pehalwan Temple, Joshi Colony, Amritsar, Punjab 143001, India","icon":"https://assets.plugshare.com/icons/G.png","icon_type":"G","id":358213,"latitude":31.646248,"longitude":74.878084,"name":"One Earth Avaas Amritsar Tata Power FC","stations":[{"id":854463,"network_id":1012,"outlets":[{"connector":13,"id":2379808,"kilowatts":null,"power":0,"status":null}]},{"id":854464,"network_id":1012,"outlets":[{"connector":7,"id":2379809,"kilowatts":null,"power":0,"status":null}]}],"url":"http://api.plugshare.com/view/location/358213"},{"access":1,"address":"AH47, Yeshwantnagar, Madhya Pradesh 456770, India","icon":"https://assets.plugshare.com/icons/G.png","icon_type":"G","id":328694,"latitude":23.379605,"longitude":76.231103,"name":"Jyoti Pump Chargegrid Type 2","stations":[{"id":772097,"outlets":[{"connector":7,"id":2262723,"kilowatts":null,"power":0,"status":null}]}],"url":"http://api.plugshare.com/view/location/328694"},{"access":1,"address":"NH 21, Rangri, Distt. Kullu, Simsa Village, Manali, Himachal Pradesh 175131, India","icon":"https://assets.plugshare.com/icons/G.png","icon_type":"G","id":339369,"latitude":32.227734,"longitude":77.188632,"name":"E-Fill AC Charger - Hotel Maple Retreat","stations":[{"id":800884,"outlets":[{"connector":7,"id":2300225,"kilowatts":null,"power":0,"status":null}]}],"url":"http://api.plugshare.com/view/location/339369"},{"access":1,"address":"Srinagar - Kanyakumari Hwy, Itti, Punjab 145023, India","icon":"https://assets.plugshare.com/icons/G.png","icon_type":"G","id":358555,"latitude":32.287597,"longitude":75.596865,"name":"Downtown 44 Pathankot Tata Power Type-2","stations":[{"id":855279,"network_id":1012,"outlets":[{"connector":7,"id":2380948,"kilowatts":null,"power":0,"status":null},{"connector":7,"id":2380949,"kilowatts":null,"power":0,"status":null}]}],"url":"http://api.plugshare.com/view/location/358555"},{"access":1,"address":"Koshi Rajmarg 12, Itahari 56705, Nepal","icon":"https://assets.plugshare.com/icons/G.png","icon_type":"G","id":349755,"latitude":26.627486,"longitude":87.273808,"name":"Itahari -12 Khanar , Biratnagar Line","stations":[{"id":831854,"outlets":[{"connector":7,"id":2349921,"kilowatts":null,"power":0,"status":null}]}],"url":"http://api.plugshare.com/view/location/349755"},{"access":1,"address":"TIRUVANNAMALAI, Unnamed Road, Kilnathur, Tamil Nadu 606601, India","icon":"https://assets.plugshare.com/icons/G.png","icon_type":"G","id":329742,"latitude":12.235264,"longitude":79.089718,"name":"7 KW 16amp Relux PKS EV Charging @ OYO39387 AMMAYI RESORT TIRUVANNAMALAI","stations":[{"id":775272,"outlets":[{"connector":7,"id":2266915,"kilowatts":null,"power":0,"status":null}]}],"url":"http://api.plugshare.com/view/location/329742"},{"access":1,"address":"Agra Rd, Rajasthan 303303, India","icon":"https://assets.plugshare.com/icons/G.png","icon_type":"G","id":328699,"latitude":26.908065,"longitude":76.393814,"name":"Indian Oil Prakash Pump Chargegrid FC","stations":[{"id":772103,"outlets":[{"connector":7,"id":2262729,"kilowatts":null,"power":0,"status":null}]},{"id":772104,"outlets":[{"connector":3,"id":2262730,"kilowatts":null,"power":0,"status":null},{"connector":13,"id":2262731,"kilowatts":null,"power":0,"status":null}]}],"url":"http://api.plugshare.com/view/location/328699"},{"access":1,"address":"NH 58, Khatauli Bypass, Bhainsi, Uttar Pradesh 251201","icon":"https://assets.plugshare.com/icons/G.png","icon_type":"G","id":325316,"latitude":29.309891,"longitude":77.721915,"name":"Food Carnival Khatauli Statiq FC","score":10.0,"stations":[{"id":762632,"outlets":[{"connector":7,"id":2249968,"kilowatts":null,"power":0,"status":null}]},{"id":762631,"outlets":[{"connector":13,"id":2249966,"kilowatts":null,"power":0,"status":null},{"connector":13,"id":2249967,"kilowatts":null,"power":0,"status":null}]}],"url":"http://api.plugshare.com/view/location/325316"},{"access":1,"address":"Maladagudda - Kowtal Rd, Kowthal, Karnataka 584120, India","icon":"https://assets.plugshare.com/icons/G.png","icon_type":"G","id":336968,"latitude":16.056471,"longitude":76.826495,"name":"Edala Home KTL","stations":[{"id":853875,"outlets":[{"connector":7,"id":2379031,"kilowatts":null,"power":0,"status":null}]}],"url":"http://api.plugshare.com/view/location/336968"},{"access":1,"address":"FPVC+V8 Karkada Badaholi and mooduholi, Karnataka, India","icon":"https://assets.plugshare.com/icons/G.png","icon_type":"G","id":353460,"latitude":13.494705,"longitude":74.720802,"name":"Aithal\u2019s Slow Charger","stations":[{"id":841960,"outlets":[{"connector":7,"id":2363080,"kilowatts":null,"power":0,"status":null}]}],"url":"http://api.plugshare.com/view/location/353460"},{"access":1,"address":"52G5+M6G, Sewala Jat, Panchkuian, Rakabganj, Agra, Uttar Pradesh 282001, India","icon":"https://assets.plugshare.com/icons/G.png","icon_type":"G","id":358311,"latitude":27.17667,"longitude":78.008074,"name":"agra","stations":[{"id":854623,"outlets":[{"connector":2,"id":2380017,"kilowatts":null,"power":0,"status":null},{"connector":7,"id":2380018,"kilowatts":null,"power":0,"status":null},{"connector":3,"id":2380019,"kilowatts":null,"power":0,"status":null}]},{"id":854624,"outlets":[{"connector":1,"id":2380020,"kilowatts":null,"power":0,"status":null}]}],"url":"http://api.plugshare.com/view/location/358311"},{"access":1,"address":"Bengaluru - Tirupati Hwy, Vadagur, Karnataka 563101, India","icon":"https://assets.plugshare.com/icons/G.png","icon_type":"G","id":305704,"latitude":13.139293,"longitude":78.209144,"name":"Statiq (72kW)- Highway Star","stations":[{"id":709649,"outlets":[{"connector":7,"id":2138499,"kilowatts":null,"power":0,"status":null}]},{"id":709650,"outlets":[{"connector":7,"id":2138500,"kilowatts":null,"power":0,"status":null}]},{"id":852623,"outlets":[{"connector":2,"id":2377254,"kilowatts":null,"power":0,"status":null},{"connector":7,"id":2377255,"kilowatts":null,"power":0,"status":null},{"connector":3,"id":2377256,"kilowatts":null,"power":0,"status":null},{"connector":13,"id":2377257,"kilowatts":null,"power":0,"status":null}]}],"url":"http://api.plugshare.com/view/location/305704"},{"access":1,"address":"Hpcl Retail Outlet Sy.no.76/e/4, 76/E/5 & 76/B/1, Mandal Secunderabad, Aurangabad, Telangana 502113, India","icon":"https://assets.plugshare.com/icons/G.png","icon_type":"G","id":331755,"latitude":18.076213,"longitude":78.281473,"name":"HPCL Fuel Pump Chargegrid Type-2","stations":[{"id":780887,"outlets":[{"connector":7,"id":2274301,"kilowatts":null,"power":0,"status":null}]}],"url":"http://api.plugshare.com/view/location/331755"},{"access":1,"address":"Hansi Rd, Haryana 127035, India","icon":"https://assets.plugshare.com/icons/G.png","icon_type":"G","id":340743,"latitude":28.97992,"longitude":75.966083,"name":"R S Spun Pipes-AARGO","stations":[{"id":805285,"outlets":[{"connector":7,"id":2305823,"kilowatts":null,"power":0,"status":null}]}],"url":"http://api.plugshare.com/view/location/340743"},{"access":1,"address":"Vellore - Thoothukudi Hwy, Sengurichi, Tamil Nadu 606115, India","icon":"https://assets.plugshare.com/icons/G.png","icon_type":"G","id":352770,"latitude":11.719325,"longitude":79.33658,"name":"Zeon Charging (50KW) Cafe Udupi Ruchi","stations":[{"id":840245,"outlets":[{"connector":13,"id":2360469,"kilowatts":null,"power":0,"status":null}]},{"id":840246,"outlets":[{"connector":7,"id":2360470,"kilowatts":null,"power":0,"status":null}]},{"id":840247,"outlets":[{"connector":3,"id":2360471,"kilowatts":null,"power":0,"status":null}]}],"url":"http://api.plugshare.com/view/location/352770"},{"access":1,"address":"Papari Rd, Dohra, Rajasthan 301404, India","icon":"https://assets.plugshare.com/icons/G.png","icon_type":"G","id":339372,"latitude":27.712817,"longitude":76.7414,"name":"E-Fill AC Charger - Vyan Medical Hospital","stations":[{"id":800891,"outlets":[{"connector":7,"id":2300234,"kilowatts":null,"power":0,"status":null}]}],"url":"http://api.plugshare.com/view/location/339372"},{"access":1,"address":"New Galla Mandi, Sagar Rd, Uday Nagar Colony, Vidisha, Madhya Pradesh 464001, India","icon":"https://assets.plugshare.com/icons/G.png","icon_type":"G","id":350927,"latitude":23.535344,"longitude":77.838939,"name":"Hp Fuel Pump Pitalia Vidisha Chargegrid Type-2","stations":[{"id":835614,"outlets":[{"connector":7,"id":2354898,"kilowatts":null,"power":0,"status":null}]}],"url":"http://api.plugshare.com/view/location/350927"},{"access":1,"address":"Aswins Veg Restaurant | Perambalur","icon":"https://assets.plugshare.com/icons/G.png","icon_type":"G","id":360686,"latitude":11.206513,"longitude":78.881357,"name":"Aswins Veg Restaurant | Perambalur| Zeon 50kW","stations":[{"id":861279,"outlets":[{"connector":13,"id":2389610,"kilowatts":null,"power":0,"status":null}]},{"id":861280,"outlets":[{"connector":7,"id":2389611,"kilowatts":null,"power":0,"status":null}]}],"url":"http://api.plugshare.com/view/location/360686"},{"access":1,"address":"7F72+4X6, Vidya Nagar, Tiptur, Karnataka 572201, India","icon":"https://assets.plugshare.com/icons/G.png","icon_type":"G","id":359801,"latitude":13.262791,"longitude":76.452237,"name":"Advaith Hyundai Tiptur(7.2Kw)","stations":[{"id":858830,"outlets":[{"connector":7,"id":2385988,"kilowatts":null,"power":0,"status":null}]}],"url":"http://api.plugshare.com/view/location/359801"},{"access":1,"address":"#4-2/D, Sy No.882 B2, Kasaba Village, Belthangady, Belthangady, Karnataka 574214, India","icon":"https://assets.plugshare.com/icons/G.png","icon_type":"G","id":359784,"latitude":12.992194,"longitude":75.28517,"name":"Advaith Hyundai Belthangady(7.2Kw)","stations":[{"id":858806,"outlets":[{"connector":7,"id":2385964,"kilowatts":null,"power":0,"status":null}]}],"url":"http://api.plugshare.com/view/location/359784"},{"access":1,"address":"Jispa Lahaul Himachal Pradesh 175132","icon":"https://assets.plugshare.com/icons/G.png","icon_type":"G","id":355136,"latitude":32.638792,"longitude":77.183028,"name":"Padma Lodge Jispa","stations":[{"id":846188,"outlets":[{"connector":7,"id":2368849,"kilowatts":null,"power":0,"status":null}]}],"url":"http://api.plugshare.com/view/location/355136"},{"access":1,"address":"Pandharpur Road Miraj","icon":"https://assets.plugshare.com/icons/G.png","icon_type":"G","id":305928,"latitude":16.836664,"longitude":74.648619,"name":"Suraj Fuel Injection Service","stations":[{"id":710148,"outlets":[{"connector":7,"id":2139573,"kilowatts":null,"power":0,"status":null}]}],"url":"http://api.plugshare.com/view/location/305928"},{"access":1,"address":"6341c, Bengaluru - Chennai Hwy, near Meenakshi Medical Hospital, Chettiarpettai, Kanchipuram, Tamil Nadu 631502, India","icon":"https://assets.plugshare.com/icons/G.png","icon_type":"G","id":305360,"latitude":12.870583,"longitude":79.723675,"name":"MM Legacy Hotel","stations":[{"id":708896,"outlets":[{"connector":7,"id":2203599,"kilowatts":null,"power":0,"status":null}]}],"url":"http://api.plugshare.com/view/location/305360"},{"access":1,"address":"NH716, Veerakaverirajupuram, Andhra Pradesh 517590, India","icon":"https://assets.plugshare.com/icons/G.png","icon_type":"G","id":350289,"latitude":13.293392,"longitude":79.581704,"name":"Highway Grand World Tata Power FC","stations":[{"id":833402,"outlets":[{"connector":13,"id":2351910,"kilowatts":null,"power":0,"status":null}]},{"id":833403,"outlets":[{"connector":7,"id":2351911,"kilowatts":null,"power":0,"status":null}]},{"id":833404,"outlets":[{"connector":7,"id":2351912,"kilowatts":null,"power":0,"status":null}]}],"url":"http://api.plugshare.com/view/location/350289"},{"access":1,"address":"SH 17, Telangana 502311, India","icon":"https://assets.plugshare.com/icons/G.png","icon_type":"G","id":331753,"latitude":17.820223,"longitude":78.730396,"name":"HPCL Shanti Filling Station Chargegrid Type-2","stations":[{"id":780883,"outlets":[{"connector":7,"id":2274297,"kilowatts":null,"power":0,"status":null}]}],"url":"http://api.plugshare.com/view/location/331753"},{"access":1,"address":"Amrai Hotel and Resort, Shendre, Satara, Maharashtra","icon":"https://assets.plugshare.com/icons/G.png","icon_type":"G","id":305714,"latitude":17.637983,"longitude":74.012113,"name":"Amrai Resort Tata Power FC(25KW)","score":10.0,"stations":[{"id":709672,"outlets":[{"connector":7,"id":2138560,"kilowatts":null,"power":0,"status":null}]},{"id":709673,"outlets":[{"connector":13,"id":2138562,"kilowatts":null,"power":0,"status":null},{"connector":3,"id":2138561,"kilowatts":null,"power":0,"status":null}]}],"url":"http://api.plugshare.com/view/location/305714"},{"access":1,"address":"main road","icon":"https://assets.plugshare.com/icons/G.png","icon_type":"G","id":356970,"latitude":16.748917,"longitude":77.410123,"name":"Anpoor","stations":[{"id":851200,"outlets":[{"connector":7,"id":2375361,"kilowatts":null,"power":0,"status":null}]}],"url":"http://api.plugshare.com/view/location/356970"},{"access":1,"address":"JSR Complex, Golden Temple Way, Sharifpura, Amritsar, Punjab 143001, India","icon":"https://assets.plugshare.com/icons/G.png","icon_type":"G","id":339366,"latitude":31.629046,"longitude":74.892427,"name":"E-Fill AC (type-2) Charger - Hotel 49 Amritsar","stations":[{"id":800881,"outlets":[{"connector":7,"id":2300222,"kilowatts":null,"power":0,"status":null}]}],"url":"http://api.plugshare.com/view/location/339366"},{"access":1,"address":"7QF5+32 Madanwadi, Maharashtra, India","icon":"https://assets.plugshare.com/icons/G.png","icon_type":"G","id":355553,"latitude":18.272735,"longitude":74.757553,"name":"Coming Soon - Ujani Fish Bhigwan - Statiq FC","stations":[{"id":847285,"outlets":[{"connector":13,"id":2370285,"kilowatts":null,"power":0,"status":null}]},{"id":847286,"outlets":[{"connector":7,"id":2370286,"kilowatts":null,"power":0,"status":null}]}],"url":"http://api.plugshare.com/view/location/355553"},{"access":1,"address":"6V7X+44 Chapda Mal, Madhya Pradesh, India","icon":"https://assets.plugshare.com/icons/G.png","icon_type":"G","id":350929,"latitude":22.212856,"longitude":77.897829,"name":"HP Gupta Fuels Betul Chargegrid Type-2","stations":[{"id":835616,"outlets":[{"connector":7,"id":2354902,"kilowatts":null,"power":0,"status":null}]}],"url":"http://api.plugshare.com/view/location/350929"},{"access":1,"address":"M6JP+89G, Dudu, Rajasthan 303008, India","icon":"https://assets.plugshare.com/icons/G.png","icon_type":"G","id":357686,"latitude":26.680602,"longitude":75.235805,"name":"Vrindavan Dham Charging Station","stations":[{"id":853150,"outlets":[{"connector":7,"id":2377949,"kilowatts":null,"power":0,"status":null}]}],"url":"http://api.plugshare.com/view/location/357686"},{"access":1,"address":"Sangeeta veg hotel, rasampalayam toll plaza ","icon":"https://assets.plugshare.com/icons/G.png","icon_type":"G","id":340705,"latitude":11.193343,"longitude":78.104864,"name":"Hotel Sangeetha Veg - Relux FC(30kw)","stations":[{"id":805205,"outlets":[{"connector":13,"id":2305726,"kilowatts":null,"power":0,"status":null}]},{"id":841513,"outlets":[{"connector":7,"id":2362175,"kilowatts":null,"power":0,"status":null}]}],"url":"http://api.plugshare.com/view/location/340705"},{"access":1,"address":"36QX+M75, Nashik, Maharashtra 422305, India","icon":"https://assets.plugshare.com/icons/G.png","icon_type":"G","id":352670,"latitude":20.088195,"longitude":74.249279,"name":"Shree Datta Petroleum HP E Charge","stations":[{"id":840035,"outlets":[{"connector":7,"id":2360134,"kilowatts":null,"power":0,"status":null},{"connector":24,"id":2360135,"kilowatts":null,"power":0,"status":null}]}],"url":"http://api.plugshare.com/view/location/352670"},{"access":1,"address":"Mumbai Hwy, Maharashtra 413104, India","icon":"https://assets.plugshare.com/icons/G.png","icon_type":"G","id":326922,"latitude":18.231416,"longitude":74.772977,"name":"Hotel Shree Tata Power Type 2","stations":[{"id":767368,"outlets":[{"connector":7,"id":2256349,"kilowatts":null,"power":0,"status":null}]}],"url":"http://api.plugshare.com/view/location/326922"},{"access":1,"address":"Unnamed Road, \u0935\u093e\u0923\u0917\u0902\u0917\u093e 32800, Nepal","icon":"https://assets.plugshare.com/icons/G.png","icon_type":"G","id":347503,"latitude":27.661304,"longitude":83.170865,"name":"Ram Subhage's Personal Charger 7KW","stations":[{"id":825382,"outlets":[{"connector":7,"id":2332367,"kilowatts":null,"power":0,"status":null}]}],"url":"http://api.plugshare.com/view/location/347503"},{"access":1,"address":"7439+8P9, Padanakkad, Kerala 671315, India","icon":"https://assets.plugshare.com/icons/G.png","icon_type":"G","id":338100,"latitude":12.253391,"longitude":75.11945,"name":"Agriculture University EESL FC","stations":[{"id":797605,"outlets":[{"connector":7,"id":2295964,"kilowatts":null,"power":0,"status":null}]},{"id":797606,"outlets":[{"connector":3,"id":2295965,"kilowatts":null,"power":0,"status":null},{"connector":13,"id":2295966,"kilowatts":null,"power":0,"status":null}]}],"url":"http://api.plugshare.com/view/location/338100"},{"access":1,"address":"Unnamed Road, Maharashtra 423701, India","icon":"https://assets.plugshare.com/icons/G.png","icon_type":"G","id":328688,"latitude":19.801546,"longitude":74.881573,"name":"Bhau Enterprises Chargegrid Type 2","stations":[{"id":772088,"outlets":[{"connector":7,"id":2262711,"kilowatts":null,"power":0,"status":null}]}],"url":"http://api.plugshare.com/view/location/328688"},{"access":1,"address":"RXXH+P37, Idukki Twp, Kerala 685602, India","icon":"https://assets.plugshare.com/icons/G.png","icon_type":"G","id":334860,"latitude":9.849205,"longitude":76.977454,"name":"DTPC Idukki Park","stations":[{"id":788772,"outlets":[{"connector":13,"id":2284631,"kilowatts":null,"power":0,"status":null}]},{"id":788773,"outlets":[{"connector":3,"id":2284632,"kilowatts":null,"power":0,"status":null}]},{"id":788774,"outlets":[{"connector":7,"id":2284633,"kilowatts":null,"power":0,"status":null}]}],"url":"http://api.plugshare.com/view/location/334860"},{"access":1,"address":"NH248, Syari, Rajasthan 303002, India","icon":"https://assets.plugshare.com/icons/G.png","icon_type":"G","id":337746,"latitude":27.158946,"longitude":75.960348,"name":"Yaksh The Art People Tata Power FC","stations":[{"id":796730,"outlets":[{"connector":3,"id":2294762,"kilowatts":null,"power":0,"status":null},{"connector":13,"id":2294763,"kilowatts":null,"power":0,"status":null}]},{"id":796731,"outlets":[{"connector":7,"id":2294764,"kilowatts":null,"power":0,"status":null}]},{"id":830165,"outlets":[{"connector":13,"id":2347706,"kilowatts":null,"power":0,"status":null}]}],"url":"http://api.plugshare.com/view/location/337746"},{"access":1,"address":"19, IELC compl","icon":"https://assets.plugshare.com/icons/G.png","icon_type":"G","id":331871,"latitude":12.779813,"longitude":78.717756,"name":"Ambur - Relux FC","stations":[{"id":781231,"outlets":[{"connector":7,"id":2274738,"kilowatts":null,"power":0,"status":null}]},{"id":781230,"outlets":[{"connector":13,"id":2274737,"kilowatts":null,"power":0,"status":null}]}],"url":"http://api.plugshare.com/view/location/331871"},{"access":1,"address":"22RW+H27, Barwani, Madhya Pradesh 451556, India","icon":"https://assets.plugshare.com/icons/G.png","icon_type":"G","id":350922,"latitude":22.041473,"longitude":75.04553,"name":"HPCL Anjad Chargegrid Type-2","stations":[{"id":835609,"outlets":[{"connector":7,"id":2354893,"kilowatts":null,"power":0,"status":null}]}],"url":"http://api.plugshare.com/view/location/350922"},{"access":1,"address":"Palpanur Bus Stop, SH 17, Palapnoor, Telangana 502296, India","icon":"https://assets.plugshare.com/icons/G.png","icon_type":"G","id":331756,"latitude":17.65939,"longitude":78.175694,"name":"HPCL Fuel Pump Chargegrid Type-2","stations":[{"id":780888,"outlets":[{"connector":7,"id":2274302,"kilowatts":null,"power":0,"status":null}]}],"url":"http://api.plugshare.com/view/location/331756"},{"access":1,"address":"Dolmen City, HC-3, Marine Promenade, Block 4 Clifton, Karachi, Pakistan","icon":"https://assets.plugshare.com/icons/G.png","icon_type":"G","id":114162,"latitude":24.802669,"longitude":67.030514,"name":"Dolmen Mall Clifton Parking","stations":[{"id":196086,"outlets":[{"connector":7,"id":427725,"kilowatts":null,"power":0,"status":null}]}],"url":"http://api.plugshare.com/view/location/114162"},{"access":1,"address":"Village, Morappakkam, Tamil Nadu 603306, India","icon":"https://assets.plugshare.com/icons/G.png","icon_type":"G","id":178440,"latitude":12.500357,"longitude":79.850066,"name":"Morappakkam ","stations":[{"id":366870,"outlets":[{"connector":7,"id":2137896,"kilowatts":null,"power":0,"status":null}]},{"id":366871,"outlets":[{"connector":1,"id":658587,"kilowatts":null,"power":0,"status":null}]}],"url":"http://api.plugshare.com/view/location/178440"},{"access":1,"address":"47MQ+73M, Tulsipur 22412, Nepal","icon":"https://assets.plugshare.com/icons/G.png","icon_type":"G","id":346751,"latitude":28.133311,"longitude":82.287117,"name":"Metro Hospitality","stations":[{"id":823422,"outlets":[{"connector":7,"id":2329698,"kilowatts":null,"power":0,"status":null}]}],"url":"http://api.plugshare.com/view/location/346751"},{"access":1,"address":"PLOT - 110, Rai Industrial Estate, Sector 38, Sonipat, Haryana 131029, India","icon":"https://assets.plugshare.com/icons/G.png","icon_type":"G","id":341125,"latitude":28.934703,"longitude":77.092349,"name":"E-FILL ELECTRIC(15kw)","stations":[{"id":806337,"outlets":[{"connector":13,"id":2307158,"kilowatts":null,"power":0,"status":null}]},{"id":806338,"outlets":[{"connector":7,"id":2307159,"kilowatts":null,"power":0,"status":null}]}],"url":"http://api.plugshare.com/view/location/341125"},{"access":1,"address":"Q499+38 Sannod, Madhya Pradesh, India","icon":"https://assets.plugshare.com/icons/G.png","icon_type":"G","id":350926,"latitude":22.767673,"longitude":76.118333,"name":"Vijay Lakshmi Fuel Pump Chargegrid Type-2","stations":[{"id":835613,"outlets":[{"connector":7,"id":2354897,"kilowatts":null,"power":0,"status":null}]}],"url":"http://api.plugshare.com/view/location/350926"},{"access":1,"address":"Central Ave, Mahindra World City, Tamil Nadu 603002, India","icon":"https://assets.plugshare.com/icons/G.png","icon_type":"G","id":326947,"latitude":12.738144,"longitude":80.001935,"name":"Tata Power FC - Fairfield Marriott","stations":[{"id":767454,"outlets":[{"connector":13,"id":2256465,"kilowatts":null,"power":0,"status":null}]},{"id":767455,"outlets":[{"connector":3,"id":2256466,"kilowatts":null,"power":0,"status":null}]},{"id":767456,"outlets":[{"connector":7,"id":2256467,"kilowatts":null,"power":0,"status":null}]}],"url":"http://api.plugshare.com/view/location/326947"},{"access":1,"address":"Saravana Bhavan, Sankagiri Toll, Tamil Nadu 637103, India","icon":"https://assets.plugshare.com/icons/G.png","icon_type":"G","id":298435,"latitude":11.519274,"longitude":77.935063,"name":"Zeon Charging(50KW) - Sree Saravana Bhavan","score":10.0,"stations":[{"id":672414,"outlets":[{"connector":13,"id":2086925,"kilowatts":50.0,"power":0,"status":null},{"connector":3,"id":2311748,"kilowatts":50.0,"power":0,"status":null},{"connector":7,"id":2311749,"kilowatts":22.0,"power":0,"status":null}]}],"url":"http://api.plugshare.com/view/location/298435"},{"access":1,"address":"BM Rd, Kushalnagar, Karnataka 571234, India","icon":"https://assets.plugshare.com/icons/G.png","icon_type":"G","id":359794,"latitude":12.454817,"longitude":75.953403,"name":"Advaith Hyundai Kushalnagar(7.2Kw)","stations":[{"id":858820,"outlets":[{"connector":7,"id":2385978,"kilowatts":null,"power":0,"status":null}]}],"url":"http://api.plugshare.com/view/location/359794"},{"access":1,"address":"Unnamed Road, Stuart Hill, Madikeri, Karnataka 571201, India","icon":"https://assets.plugshare.com/icons/G.png","icon_type":"G","id":359785,"latitude":12.423871,"longitude":75.736198,"name":"Advaith Hyundai Madikeri(7.2KW)","stations":[{"id":858807,"outlets":[{"connector":7,"id":2385965,"kilowatts":null,"power":0,"status":null}]}],"url":"http://api.plugshare.com/view/location/359785"},{"access":1,"address":"GVFC+24M, MC Rd, V V Nagar, Mandya, Karnataka 571401, India","icon":"https://assets.plugshare.com/icons/G.png","icon_type":"G","id":359795,"latitude":12.522525,"longitude":76.870324,"name":"Advaith Hyundai Mandya(7.2Kw)","stations":[{"id":858821,"outlets":[{"connector":7,"id":2385979,"kilowatts":null,"power":0,"status":null}]}],"url":"http://api.plugshare.com/view/location/359795"},{"access":1,"address":"Kalka - Shimla Rd, Jabli, Himachal Pradesh 173209, India","icon":"https://assets.plugshare.com/icons/G.png","icon_type":"G","id":329824,"latitude":30.878445,"longitude":76.994972,"name":"Savoy Greens Jabli Statiq FC","stations":[{"id":775455,"outlets":[{"connector":7,"id":2267131,"kilowatts":null,"power":0,"status":null}]},{"id":775456,"outlets":[{"connector":7,"id":2267132,"kilowatts":null,"power":0,"status":null}]},{"id":775454,"outlets":[{"connector":3,"id":2267129,"kilowatts":null,"power":0,"status":null},{"connector":13,"id":2267130,"kilowatts":null,"power":0,"status":null}]}],"url":"http://api.plugshare.com/view/location/329824"},{"access":1,"address":"XHPG+3C7, Kamargaon, Maharashtra 414301, India","icon":"https://assets.plugshare.com/icons/G.png","icon_type":"G","id":334408,"latitude":18.985231,"longitude":74.576013,"name":"Hotel Smile Stone","score":6.2,"stations":[{"id":787746,"outlets":[{"connector":7,"id":2283265,"kilowatts":null,"power":0,"status":null}]},{"id":787745,"outlets":[{"connector":3,"id":2283263,"kilowatts":null,"power":0,"status":null},{"connector":13,"id":2283264,"kilowatts":null,"power":0,"status":null}]}],"url":"http://api.plugshare.com/view/location/334408"},{"access":1,"address":"FP6P+45 Tinchha, Madhya Pradesh, India","icon":"https://assets.plugshare.com/icons/G.png","icon_type":"G","id":350924,"latitude":22.460316,"longitude":75.735465,"name":"Balaji Petrol Pump Chargegrid Type-2","stations":[{"id":835611,"outlets":[{"connector":7,"id":2354895,"kilowatts":null,"power":0,"status":null}]}],"url":"http://api.plugshare.com/view/location/350924"},{"access":1,"address":"Roha - Kolad Rd, Roha, Maharashtra 402109, India","icon":"https://assets.plugshare.com/icons/G.png","icon_type":"G","id":328697,"latitude":18.436689,"longitude":73.142891,"name":"HPCL Pump Chargegrid Type2","stations":[{"id":772101,"outlets":[{"connector":7,"id":2262727,"kilowatts":null,"power":0,"status":null}]}],"url":"http://api.plugshare.com/view/location/328697"},{"access":1,"address":"Sangam Hotel St, Shaniwar Peth, Karad, Maharashtra 415110, India","icon":"https://assets.plugshare.com/icons/G.png","icon_type":"G","id":303908,"latitude":17.273833,"longitude":74.180312,"name":"Hotel Sangam(25KW)","score":10.0,"stations":[{"id":705615,"outlets":[{"connector":3,"id":2130392,"kilowatts":null,"power":0,"status":null},{"connector":13,"id":2130393,"kilowatts":null,"power":0,"status":null}]},{"id":705616,"outlets":[{"connector":7,"id":2130394,"kilowatts":null,"power":0,"status":null}]}],"url":"http://api.plugshare.com/view/location/303908"},{"access":1,"address":"NH275, Madapura, Karnataka 562128, India","icon":"https://assets.plugshare.com/icons/G.png","icon_type":"G","id":359796,"latitude":12.750942,"longitude":77.316475,"name":"Advaith Hyundai Ramnagara(7.2Kw)","stations":[{"id":858822,"outlets":[{"connector":7,"id":2385980,"kilowatts":null,"power":0,"status":null}]}],"url":"http://api.plugshare.com/view/location/359796"},{"access":1,"address":"F5R3+XC Rasipuram, Tamil Nadu, India","icon":"https://assets.plugshare.com/icons/G.png","icon_type":"G","id":349111,"latitude":11.49245,"longitude":78.153524,"name":"Zeon Charging(50KW) A2B Adayar Ananda Bhavan Rasipuram","stations":[{"id":829805,"outlets":[{"connector":3,"id":2347120,"kilowatts":null,"power":0,"status":null}]},{"id":829792,"outlets":[{"connector":13,"id":2347099,"kilowatts":null,"power":0,"status":null}]},{"id":829793,"outlets":[{"connector":7,"id":2347100,"kilowatts":null,"power":0,"status":null}]}],"url":"http://api.plugshare.com/view/location/349111"},{"access":1,"address":"G.T. Road,District, Dilbag Colony, Goraya, Punjab 144409, India","icon":"https://assets.plugshare.com/icons/G.png","icon_type":"G","id":306163,"latitude":31.125725,"longitude":75.776296,"name":"G.T. Road \u092a\u093e\u0930\u094d\u0915\u093f\u0902\u0917 / \u091a\u093e\u0930\u094d\u091c\u093f\u0902\u0917","stations":[{"id":710694,"outlets":[{"connector":7,"id":2140568,"kilowatts":null,"power":0,"status":null}]}],"url":"http://api.plugshare.com/view/location/306163"},{"access":1,"address":"Perundhurai, Tamil Nadu 638052, India","icon":"https://assets.plugshare.com/icons/G.png","icon_type":"G","id":351124,"latitude":11.302064,"longitude":77.600085,"name":"Relux Perundurai","stations":[{"id":836030,"outlets":[{"connector":7,"id":2355434,"kilowatts":null,"power":0,"status":null}]},{"id":836029,"outlets":[{"connector":13,"id":2355433,"kilowatts":null,"power":0,"status":null}]}],"url":"http://api.plugshare.com/view/location/351124"},{"access":1,"address":"QPCR+JX Sawaleshwar, Maharashtra, India","icon":"https://assets.plugshare.com/icons/G.png","icon_type":"G","id":355554,"latitude":17.771506,"longitude":75.742414,"name":"Coming Soon - Royal Inn Mohol - Statiq FC","stations":[{"id":847287,"outlets":[{"connector":13,"id":2370287,"kilowatts":null,"power":0,"status":null}]},{"id":847288,"outlets":[{"connector":7,"id":2370288,"kilowatts":null,"power":0,"status":null}]}],"url":"http://api.plugshare.com/view/location/355554"},{"access":1,"address":"Siddhartha Hwy, Siddharthanagar 32900, Nepal","icon":"https://assets.plugshare.com/icons/G.png","icon_type":"G","id":327462,"latitude":27.503597,"longitude":83.456441,"name":"Jagat Motors Hyundai AC Charger","stations":[{"id":768840,"outlets":[{"connector":7,"id":2259919,"kilowatts":null,"power":0,"status":null}]}],"url":"http://api.plugshare.com/view/location/327462"},{"access":1,"address":"Asanur, Ulunderpet Taluk NH-45 Chennai - Trichy Highway Kallakuruchi District, 606305","icon":"https://assets.plugshare.com/icons/G.png","icon_type":"G","id":356263,"latitude":11.631766,"longitude":79.200801,"name":"7kwh charger Sakthi agencies Indian oil pump asanur","stations":[{"id":849221,"outlets":[{"connector":7,"id":2372718,"kilowatts":null,"power":0,"status":null},{"connector":10,"id":2372719,"kilowatts":null,"power":0,"status":null}]}],"url":"http://api.plugshare.com/view/location/356263"},{"access":1,"address":"Mahabaleshwar, Mahabaleshwar, Maharashtra 412806, India","icon":"https://assets.plugshare.com/icons/G.png","icon_type":"G","id":314607,"latitude":17.924588,"longitude":73.655094,"name":"Hotel Dreamland Mahabaleshwar Tata Power FC(25KW)","stations":[{"id":733466,"outlets":[{"connector":7,"id":2206268,"kilowatts":null,"power":0,"status":null}]},{"id":733465,"outlets":[{"connector":3,"id":2206266,"kilowatts":null,"power":0,"status":null},{"connector":13,"id":2206267,"kilowatts":null,"power":0,"status":null}]}],"url":"http://api.plugshare.com/view/location/314607"},{"access":1,"address":"Wai-Panchgani Rd, Dhandeghar, Panchgani, Maharashtra 412805, India","icon":"https://assets.plugshare.com/icons/G.png","icon_type":"G","id":303948,"latitude":17.9337,"longitude":73.815661,"name":"Zostel Pachgani Tata Power FC(25KW)","score":9.0,"stations":[{"id":705707,"network_id":1012,"outlets":[{"connector":9,"id":2130555,"kilowatts":null,"power":0,"status":null}]},{"id":793081,"network_id":1012,"outlets":[{"connector":3,"id":2289979,"kilowatts":null,"power":0,"status":null},{"connector":13,"id":2289980,"kilowatts":null,"power":0,"status":null}]},{"id":841979,"network_id":1012,"outlets":[{"connector":7,"id":2363103,"kilowatts":null,"power":0,"status":null}]},{"id":841980,"network_id":1012,"outlets":[{"connector":9,"id":2363104,"kilowatts":null,"power":0,"status":null}]},{"id":841981,"network_id":1012,"outlets":[{"connector":9,"id":2363105,"kilowatts":null,"power":0,"status":null}]}],"url":"http://api.plugshare.com/view/location/303948"},{"access":1,"address":"Abdul Haque Rd, Trade Centre Commercial Area Phase 2 Johar Town, Lahore, Punjab, Pakistan","icon":"https://assets.plugshare.com/icons/G.png","icon_type":"G","id":100490,"latitude":31.466854,"longitude":74.265755,"name":"Emporium Mall & Hyperstar","stations":[{"id":167467,"outlets":[{"connector":7,"id":387179,"kilowatts":null,"power":0,"status":null}]}],"url":"http://api.plugshare.com/view/location/100490"},{"access":1,"address":"Cross River Mall, Maharaja Surajmal Marg, Vishwas Nagar Extension, Vishwas Nagar, Shahdara, New Delhi, Delhi 110032, India","icon":"https://assets.plugshare.com/icons/G.png","icon_type":"G","id":200037,"latitude":28.65818,"longitude":77.302477,"name":"Ev","stations":[{"id":424633,"outlets":[{"connector":7,"id":742926,"kilowatts":null,"power":0,"status":null},{"connector":7,"id":742927,"kilowatts":null,"power":0,"status":null}]},{"id":424634,"outlets":[{"connector":7,"id":742928,"kilowatts":null,"power":0,"status":null},{"connector":7,"id":742929,"kilowatts":null,"power":0,"status":null}]},{"id":424635,"outlets":[{"connector":3,"id":742930,"kilowatts":null,"power":0,"status":null}]}],"url":"http://api.plugshare.com/view/location/200037"},{"access":1,"address":"Sai International Yellor Phata, Maharashtra 416302, India","icon":"https://assets.plugshare.com/icons/G.png","icon_type":"G","id":304378,"latitude":16.953462,"longitude":74.275366,"name":"Hotel Sai International","score":10.0,"stations":[{"id":706735,"network_id":1012,"outlets":[{"connector":7,"id":2132673,"kilowatts":null,"power":0,"status":null}]},{"id":706733,"network_id":1012,"outlets":[{"connector":3,"id":2132670,"kilowatts":25.0,"power":0,"status":null},{"connector":13,"id":2132671,"kilowatts":25.0,"power":0,"status":null}]},{"id":706734,"network_id":1012,"outlets":[{"connector":7,"id":2132672,"kilowatts":null,"power":0,"status":null}]}],"url":"http://api.plugshare.com/view/location/304378"},{"access":1,"address":"Golden Galaxy Resorts, NH 19, Faridabad, Haryana 121004, India","icon":"https://assets.plugshare.com/icons/G.png","icon_type":"G","id":333856,"latitude":28.287788,"longitude":77.295724,"name":"AARGO(50KW) Golden Galaxy Resorts","score":9.0,"stations":[{"id":786402,"outlets":[{"connector":13,"id":2281501,"kilowatts":50.0,"power":0,"status":null},{"connector":7,"id":2312954,"kilowatts":22.0,"power":0,"status":null},{"connector":3,"id":2312952,"kilowatts":50.0,"power":0,"status":null}]},{"id":786404,"outlets":[{"connector":13,"id":2281503,"kilowatts":50.0,"power":0,"status":null},{"connector":3,"id":2312949,"kilowatts":50.0,"power":0,"status":null}]}],"url":"http://api.plugshare.com/view/location/333856"},{"access":1,"address":"571, near KSDP, Pathirappally, Kalavoor, Alappuzha, Kerala 688522, India","icon":"https://assets.plugshare.com/icons/G.png","icon_type":"G","id":310045,"latitude":9.633815,"longitude":76.3338,"name":"Autokast Kseb Eesl EV Charging Station","stations":[{"id":721161,"outlets":[{"connector":3,"id":2163124,"kilowatts":null,"power":0,"status":null},{"connector":13,"id":2163125,"kilowatts":null,"power":0,"status":null}]},{"id":721162,"outlets":[{"connector":7,"id":2254957,"kilowatts":null,"power":0,"status":null}]}],"url":"http://api.plugshare.com/view/location/310045"},{"access":1,"address":"Essar fuel station,Kotagiri-Kattabettu-Ooty Rd, Tamil Nadu 643214, India","icon":"https://assets.plugshare.com/icons/G.png","icon_type":"G","id":307460,"latitude":11.423131,"longitude":76.824317,"name":"Kotagiri AC Charger","stations":[{"id":713989,"outlets":[{"connector":7,"id":2221429,"kilowatts":null,"power":0,"status":null}]}],"url":"http://api.plugshare.com/view/location/307460"},{"access":1,"address":"GRT Hotel Rd, Yercaud, Tamil Nadu 636601, India","icon":"https://assets.plugshare.com/icons/G.png","icon_type":"G","id":305705,"latitude":11.77859,"longitude":78.1985,"name":"Zeon Charging - GRT Hotels","stations":[{"id":709651,"outlets":[{"connector":7,"id":2138501,"kilowatts":null,"power":0,"status":null}]}],"url":"http://api.plugshare.com/view/location/305705"},{"access":1,"address":"2VFW+V8 Khamhariya, Madhya Pradesh, India","icon":"https://assets.plugshare.com/icons/G.png","icon_type":"G","id":350930,"latitude":23.024627,"longitude":79.895773,"name":"Annapurna Fuel Pump Chargegrid type-2","stations":[{"id":835617,"outlets":[{"connector":7,"id":2354903,"kilowatts":null,"power":0,"status":null}]}],"url":"http://api.plugshare.com/view/location/350930"},{"access":1,"address":"GOGTE PLAZA, KIADB INDUSTRIAL AREA, Kakati, Belagavi, Karnataka 591113, India","icon":"https://assets.plugshare.com/icons/G.png","icon_type":"G","id":343415,"latitude":15.928462,"longitude":74.529029,"name":"Gogte Plaza Belgaum","score":10.0,"stations":[{"id":860176,"network_id":1012,"outlets":[{"connector":3,"id":2387790,"kilowatts":25.0,"power":0,"status":null},{"connector":13,"id":2387789,"kilowatts":25.0,"power":0,"status":null}]},{"id":812552,"network_id":1012,"outlets":[{"connector":3,"id":2387787,"kilowatts":null,"power":0,"status":null},{"connector":7,"id":2387788,"kilowatts":null,"power":0,"status":null},{"connector":13,"id":2315457,"kilowatts":null,"power":0,"status":null}]}],"url":"http://api.plugshare.com/view/location/343415"},{"access":1,"address":"Aurangabad, Puna, Jikthan, Maharashtra 431133, India","icon":"https://assets.plugshare.com/icons/G.png","icon_type":"G","id":331504,"latitude":19.75375,"longitude":75.151118,"name":"Hotel Shrushti Tata Power Type-2 AC","stations":[{"id":780081,"outlets":[{"connector":7,"id":2273257,"kilowatts":null,"power":0,"status":null}]}],"url":"http://api.plugshare.com/view/location/331504"},{"access":1,"address":"167, Union Mill Rd, Opp Sangeetha Theatre, Kannipiran Colony, Valipalayam, Tiruppur, Tamil Nadu 641601, India","icon":"https://assets.plugshare.com/icons/G.png","icon_type":"G","id":305362,"latitude":11.108508,"longitude":77.349678,"name":"Zeon Charging FC","stations":[{"id":793576,"network_id":1,"outlets":[{"connector":9,"id":2290674,"kilowatts":null,"power":0,"status":null}]},{"id":708898,"outlets":[{"connector":7,"id":2137104,"kilowatts":null,"power":0,"status":null}]}],"url":"http://api.plugshare.com/view/location/305362"},{"access":1,"address":"PQV9+2XM, Khalumbre, Maharashtra 412109, India","icon":"https://assets.plugshare.com/icons/G.png","icon_type":"G","id":360813,"latitude":18.742735,"longitude":73.770566,"name":"Jopadevi Petroleum Tata Power FC","stations":[{"id":861682,"network_id":1012,"outlets":[{"connector":13,"id":2390322,"kilowatts":null,"power":0,"status":null}]},{"id":861683,"network_id":1012,"outlets":[{"connector":7,"id":2390323,"kilowatts":null,"power":0,"status":null}]}],"url":"http://api.plugshare.com/view/location/360813"},{"access":1,"address":"RRCX+QX4, Gram Baroli, Madhya Pradesh 453555, India","icon":"https://assets.plugshare.com/icons/G.png","icon_type":"G","id":350925,"latitude":22.821922,"longitude":75.849969,"name":"Sagar Fuel Pump Chargegrid Type-2","stations":[{"id":835612,"outlets":[{"connector":7,"id":2354896,"kilowatts":null,"power":0,"status":null}]}],"url":"http://api.plugshare.com/view/location/350925"},{"access":1,"address":"RMS Complex, Ananthakrishnarayasamudram, Tamil Nadu 637018, India","icon":"https://assets.plugshare.com/icons/G.png","icon_type":"G","id":353239,"latitude":11.406083,"longitude":78.15975,"name":"RMS Complex - Reflux Type-2","stations":[{"id":841514,"outlets":[{"connector":7,"id":2362176,"kilowatts":null,"power":0,"status":null}]}],"url":"http://api.plugshare.com/view/location/353239"},{"access":1,"address":"Deep-Pradeep Engg.Works, NH166, Ram Nagar, Sangli, Maharashtra 416416, India","icon":"https://assets.plugshare.com/icons/G.png","icon_type":"G","id":325364,"latitude":16.841328,"longitude":74.563576,"name":"TML JV Motors Tata Power Type-2","stations":[{"id":762734,"outlets":[{"connector":7,"id":2250117,"kilowatts":null,"power":0,"status":null}]}],"url":"http://api.plugshare.com/view/location/325364"},{"access":1,"address":"NH 44, Barana, Haryana 132117, India","icon":"https://assets.plugshare.com/icons/G.png","icon_type":"G","id":339374,"latitude":29.887894,"longitude":76.919633,"name":"E-Fill AC Charger - Chayren Fauji Dhaba","stations":[{"id":800893,"outlets":[{"connector":7,"id":2300236,"kilowatts":null,"power":0,"status":null}]}],"url":"http://api.plugshare.com/view/location/339374"},{"access":1,"address":"875/4, Market Rd, Mapusa, Goa 403507, India","icon":"https://assets.plugshare.com/icons/G.png","icon_type":"G","id":338095,"latitude":15.588045,"longitude":73.813758,"name":"Mapusa Mamlatdar Office EESL FC","score":6.2,"stations":[{"id":797594,"outlets":[{"connector":3,"id":2295944,"kilowatts":null,"power":0,"status":null},{"connector":13,"id":2295945,"kilowatts":null,"power":0,"status":null}]},{"id":797595,"outlets":[{"connector":7,"id":2295946,"kilowatts":null,"power":0,"status":null}]}],"url":"http://api.plugshare.com/view/location/338095"},{"access":1,"address":"NH4 Old Mumbai Pune Highway, Village chowk Near HPCL Dingorkar Petrol Pump Tal- Khalapur, Dist, Chouk, Maharashtra 410206, India","icon":"https://assets.plugshare.com/icons/G.png","icon_type":"G","id":331084,"latitude":18.901763,"longitude":73.234318,"name":"Chowk Highway Service Tata Power Type-2","stations":[{"id":779032,"outlets":[{"connector":7,"id":2271844,"kilowatts":null,"power":0,"status":null}]}],"url":"http://api.plugshare.com/view/location/331084"},{"access":1,"address":"Anand Cinema Hall, Old DC Rd, SS Park Extn, Vikaspuri, Sonipat, Haryana 131304, India","icon":"https://assets.plugshare.com/icons/G.png","icon_type":"G","id":343826,"latitude":28.980389,"longitude":77.028801,"name":"Anand Cinema Hall","stations":[{"id":813610,"network_id":1007,"outlets":[{"connector":7,"id":2316839,"kilowatts":null,"power":0,"status":null}]}],"url":"http://api.plugshare.com/view/location/343826"},{"access":1,"address":"Near ahmednagar-Aurangabad highway near Ashoka tool naka","icon":"https://assets.plugshare.com/icons/G.png","icon_type":"G","id":360826,"latitude":19.203656,"longitude":74.783084,"name":"Hotel orange valley","stations":[{"id":861713,"network_id":1060,"outlets":[{"connector":7,"id":2390357,"kilowatts":null,"power":0,"status":null}]}],"url":"http://api.plugshare.com/view/location/360826"},{"access":1,"address":"umaid palace resort","icon":"https://assets.plugshare.com/icons/G.png","icon_type":"G","id":359415,"latitude":26.913014,"longitude":76.466885,"name":"Umaid Palace","stations":[{"id":857739,"outlets":[{"connector":13,"id":2384426,"kilowatts":null,"power":0,"status":null}]},{"id":857740,"outlets":[{"connector":7,"id":2384427,"kilowatts":null,"power":0,"status":null}]},{"id":857741,"outlets":[{"connector":7,"id":2384428,"kilowatts":null,"power":0,"status":null}]}],"url":"http://api.plugshare.com/view/location/359415"},{"access":1,"address":"outside van husan showroom, Block C, Connaught Place, New Delhi, Delhi 110001, India","icon":"https://assets.plugshare.com/icons/G.png","icon_type":"G","id":202234,"latitude":28.634185,"longitude":77.220494,"name":"outside van husan showroom,Block C, Connaught Place, New Delhi, Delhi 110001, India","stations":[{"id":429566,"outlets":[{"connector":7,"id":754794,"kilowatts":null,"power":0,"status":null}]}],"url":"http://api.plugshare.com/view/location/202234"},{"access":1,"address":"Spituk Farka Leh Ladakh 194101","icon":"https://assets.plugshare.com/icons/G.png","icon_type":"G","id":355131,"latitude":34.120837,"longitude":77.514708,"name":"The Fortune Resort","stations":[{"id":846172,"outlets":[{"connector":7,"id":2368833,"kilowatts":7.0,"power":0,"status":null}]}],"url":"http://api.plugshare.com/view/location/355131"},{"access":1,"address":"9CRX+CRQ, Ayarpatta, Nainital, Uttarakhand 263002, India","icon":"https://assets.plugshare.com/icons/G.png","icon_type":"G","id":354685,"latitude":29.391225,"longitude":79.44998,"name":"E Fill Charging Station","stations":[{"id":845171,"outlets":[{"connector":7,"id":2367560,"kilowatts":null,"power":0,"status":null}]}],"url":"http://api.plugshare.com/view/location/354685"},{"access":1,"address":"No 61 Basavanatha v Tamaka p, Kolar, Karnataka 563101, India","icon":"https://assets.plugshare.com/icons/G.png","icon_type":"G","id":359797,"latitude":13.116412,"longitude":78.142104,"name":"Advaith Hyundai Kolar(7.2Kw)","stations":[{"id":858823,"outlets":[{"connector":7,"id":2385981,"kilowatts":null,"power":0,"status":null}]}],"url":"http://api.plugshare.com/view/location/359797"},{"access":1,"address":"5WMF+RCV, Gonikopalu, Karnataka 571213, India","icon":"https://assets.plugshare.com/icons/G.png","icon_type":"G","id":359793,"latitude":12.184603,"longitude":75.923685,"name":"Advaith Hyundai Gonikopalu(7.2Kw)","stations":[{"id":858819,"outlets":[{"connector":7,"id":2385977,"kilowatts":null,"power":0,"status":null}]}],"url":"http://api.plugshare.com/view/location/359793"},{"access":1,"address":"Jarsheshwar Rd, Mandvi Bk., Maharashtra 412107, India","icon":"https://assets.plugshare.com/icons/G.png","icon_type":"G","id":343451,"latitude":18.416767,"longitude":73.687073,"name":"IHCL Ama Stays Sangrun Tata Power Type2","stations":[{"id":812643,"outlets":[{"connector":7,"id":2315563,"kilowatts":null,"power":0,"status":null}]}],"url":"http://api.plugshare.com/view/location/343451"},{"access":1,"address":"DPS Rd, Bachupally, Hyderabad, Telangana 500090, India","icon":"https://assets.plugshare.com/icons/G.png","icon_type":"G","id":331759,"latitude":17.54688,"longitude":78.390466,"name":"HPCL Fuel Pump Chargegrid Type-2","stations":[{"id":780891,"outlets":[{"connector":7,"id":2274305,"kilowatts":null,"power":0,"status":null}]}],"url":"http://api.plugshare.com/view/location/331759"},{"access":1,"address":"Shila Kipper, Mandi, NH-21, Mandi Road, Mandi Mandi Himachal Pradesh 175001","icon":"https://assets.plugshare.com/icons/G.png","icon_type":"G","id":355137,"latitude":31.701867,"longitude":76.972104,"name":"Mahindra First Choice Wheels Limited","stations":[{"id":846192,"outlets":[{"connector":7,"id":2368857,"kilowatts":null,"power":0,"status":null}]}],"url":"http://api.plugshare.com/view/location/355137"},{"access":1,"address":"19, Sector 15, Faridabad, Haryana 121007, India","icon":"https://assets.plugshare.com/icons/G.png","icon_type":"G","id":328395,"latitude":28.395612,"longitude":77.322513,"name":"Charge City - Faridabad Sec-15 Community Center","stations":[{"id":771480,"outlets":[{"connector":7,"id":2261897,"kilowatts":null,"power":0,"status":null}]}],"url":"http://api.plugshare.com/view/location/328395"},{"access":1,"address":"Shobha Hills View Apartment, Nagegowdanapalya, Bengaluru, Karnataka 560109, India","icon":"https://assets.plugshare.com/icons/G.png","icon_type":"G","id":253237,"latitude":12.865589,"longitude":77.522691,"name":"Thalgattapura","stations":[{"id":555406,"outlets":[{"connector":7,"id":2355690,"kilowatts":null,"power":0,"status":null}]}],"url":"http://api.plugshare.com/view/location/253237"},{"access":1,"address":"Karamana to Nagercoil Main Road, Nemom, Kerala 695020, India","icon":"https://assets.plugshare.com/icons/G.png","icon_type":"G","id":313529,"latitude":8.453897,"longitude":77.003968,"name":"KSEBL Nemom","stations":[{"id":730676,"outlets":[{"connector":3,"id":2196157,"kilowatts":null,"power":0,"status":null},{"connector":13,"id":2196158,"kilowatts":null,"power":0,"status":null},{"connector":7,"id":2196159,"kilowatts":null,"power":0,"status":null}]}],"url":"http://api.plugshare.com/view/location/313529"},{"access":1,"address":"PFC9+MQ5, Dabgram, West Bengal 734004, India","icon":"https://assets.plugshare.com/icons/G.png","icon_type":"G","id":343153,"latitude":26.732134,"longitude":88.432197,"name":"Atherspace Siliguri","stations":[{"id":811892,"outlets":[{"connector":7,"id":2314548,"kilowatts":null,"power":0,"status":null}]},{"id":811893,"outlets":[{"connector":7,"id":2314549,"kilowatts":null,"power":0,"status":null}]}],"url":"http://api.plugshare.com/view/location/343153"},{"access":1,"address":"S-303, Sapphire, Comfort height, New Jail Rd, Comfort Green Phase 2, Sanjeev Nagar, Navri, Bhopal, Madhya Pradesh 462038, India","icon":"https://assets.plugshare.com/icons/G.png","icon_type":"G","id":345492,"latitude":23.298113,"longitude":77.377247,"name":"Captain's","stations":[{"id":820253,"outlets":[{"connector":7,"id":2325022,"kilowatts":null,"power":0,"status":null}]}],"url":"http://api.plugshare.com/view/location/345492"},{"access":1,"address":"1606, Ratan Colony, Gorakhpur, Jabalpur, Madhya Pradesh 482002, India","icon":"https://assets.plugshare.com/icons/G.png","icon_type":"G","id":341030,"latitude":23.148754,"longitude":79.927321,"name":"Indian Oil Petrol pump","stations":[{"id":806000,"outlets":[{"connector":7,"id":2306709,"kilowatts":null,"power":0,"status":null}]}],"url":"http://api.plugshare.com/view/location/341030"},{"access":1,"address":"7th floor, Parakh House, 1, Boat Club Rd, Bund Garden, Sangamvadi, Pune, Maharashtra 411001, India","icon":"https://assets.plugshare.com/icons/G.png","icon_type":"G","id":304671,"latitude":18.540381,"longitude":73.882654,"name":"MG Motors AC FC","stations":[{"id":707373,"outlets":[{"connector":7,"id":2134086,"kilowatts":null,"power":0,"status":null}]}],"url":"http://api.plugshare.com/view/location/304671"},{"access":1,"address":"426, C4 Level, Amanora Chambers, Amanora Park Town, Hadapsar, Pune, Maharashtra 411028, India","icon":"https://assets.plugshare.com/icons/G.png","icon_type":"G","id":303915,"latitude":18.519108,"longitude":73.936373,"name":"Amanora Mall TATA Power FC","score":5.1,"stations":[{"id":705631,"outlets":[{"connector":7,"id":2130410,"kilowatts":null,"power":0,"status":null}]},{"id":705630,"outlets":[{"connector":13,"id":2130409,"kilowatts":null,"power":0,"status":null}]}],"url":"http://api.plugshare.com/view/location/303915"},{"access":1,"address":"1a, Old Mahabalipuram Rd, Kumaran Nagar, Sholinganallur, Chennai, Tamil Nadu 600119, India","icon":"https://assets.plugshare.com/icons/G.png","icon_type":"G","id":337205,"latitude":12.875629,"longitude":80.227321,"name":"Fairfield Marriott Tata Power FC","stations":[{"id":795235,"outlets":[{"connector":3,"id":2292788,"kilowatts":null,"power":0,"status":null},{"connector":13,"id":2292789,"kilowatts":null,"power":0,"status":null}]},{"id":795236,"outlets":[{"connector":7,"id":2292790,"kilowatts":null,"power":0,"status":null}]}],"url":"http://api.plugshare.com/view/location/337205"},{"access":1,"address":"C9G3+FM2, Parsakhera Industrial Area, Parsakhera, Uttar Pradesh 243502, India","icon":"https://assets.plugshare.com/icons/G.png","icon_type":"G","id":350029,"latitude":28.425546,"longitude":79.355302,"name":"Coming Soon AKC Hyundai Statiq Type-2","stations":[{"id":832541,"outlets":[{"connector":7,"id":2350769,"kilowatts":null,"power":0,"status":null}]}],"url":"http://api.plugshare.com/view/location/350029"},{"access":1,"address":"Unnamed Road 122101, Sector 80, Gurugram, Haryana 122051, India","icon":"https://assets.plugshare.com/icons/G.png","icon_type":"G","id":350062,"latitude":28.363863,"longitude":76.959522,"name":"Karma Lakelands Statiq Type-2","stations":[{"id":832616,"outlets":[{"connector":7,"id":2350860,"kilowatts":null,"power":0,"status":null}]}],"url":"http://api.plugshare.com/view/location/350062"},{"access":1,"address":"Plaza Mall, Block H, Connaught Place, New Delhi, Delhi 110001, India","icon":"https://assets.plugshare.com/icons/G.png","icon_type":"G","id":199915,"latitude":28.635089,"longitude":77.219409,"name":"Connaught  Place","stations":[{"id":424359,"outlets":[{"connector":7,"id":742590,"kilowatts":null,"power":0,"status":null}]}],"url":"http://api.plugshare.com/view/location/199915"},{"access":1,"address":"Sarvajanik (Centaur Hotel), New Delhi, Delhi 110037, India","icon":"https://assets.plugshare.com/icons/G.png","icon_type":"G","id":310531,"latitude":28.548414,"longitude":77.104349,"name":"PTC IGI Airport","stations":[{"id":722628,"outlets":[{"connector":7,"id":2167838,"kilowatts":null,"power":0,"status":null}]},{"id":722629,"outlets":[{"connector":7,"id":2167839,"kilowatts":null,"power":0,"status":null}]},{"id":722630,"outlets":[{"connector":7,"id":2167840,"kilowatts":null,"power":0,"status":null}]},{"id":722631,"outlets":[{"connector":7,"id":2167841,"kilowatts":null,"power":0,"status":null}]},{"id":722632,"outlets":[{"connector":7,"id":2167842,"kilowatts":null,"power":0,"status":null}]},{"id":722633,"outlets":[{"connector":7,"id":2167843,"kilowatts":null,"power":0,"status":null}]},{"id":722634,"outlets":[{"connector":7,"id":2167844,"kilowatts":null,"power":0,"status":null}]},{"id":722635,"outlets":[{"connector":7,"id":2167845,"kilowatts":null,"power":0,"status":null}]}],"url":"http://api.plugshare.com/view/location/310531"},{"access":1,"address":"No.29 Vijayanagara 2nd stage, Hinkal, Mysuru, Karnataka 570017, India","icon":"https://assets.plugshare.com/icons/G.png","icon_type":"G","id":304790,"latitude":12.330344,"longitude":76.606461,"name":"Cescom","stations":[{"id":707627,"outlets":[{"connector":7,"id":2212474,"kilowatts":null,"power":0,"status":null}]}],"url":"http://api.plugshare.com/view/location/304790"},{"access":1,"address":"GQ8V+3VV, Shastri Nagar, Vidisha, Madhya Pradesh 464001, India","icon":"https://assets.plugshare.com/icons/G.png","icon_type":"G","id":350928,"latitude":23.515295,"longitude":77.794643,"name":"MSHSD Datta Fuel Pump Chargegrid Type-2","stations":[{"id":835615,"outlets":[{"connector":7,"id":2354901,"kilowatts":null,"power":0,"status":null}]}],"url":"http://api.plugshare.com/view/location/350928"},{"access":1,"address":"Dehradun, Uttarakhand 248195, India","icon":"https://assets.plugshare.com/icons/G.png","icon_type":"G","id":339359,"latitude":30.366457,"longitude":78.070287,"name":"Pacific Mall Dehradun Tata Power FC","stations":[{"id":800865,"outlets":[{"connector":13,"id":2300205,"kilowatts":null,"power":0,"status":null},{"connector":3,"id":2300204,"kilowatts":null,"power":0,"status":null}]},{"id":800864,"outlets":[{"connector":7,"id":2300203,"kilowatts":null,"power":0,"status":null}]}],"url":"http://api.plugshare.com/view/location/339359"},{"access":1,"address":"Nageshwar Awas Rd, Bodani, Maharashtra 402201, India","icon":"https://assets.plugshare.com/icons/G.png","icon_type":"G","id":345019,"latitude":18.76014,"longitude":72.882408,"name":"Nine Palms Ama Stay Tata Power AC Type-2","stations":[{"id":817483,"outlets":[{"connector":7,"id":2321822,"kilowatts":null,"power":0,"status":null}]}],"url":"http://api.plugshare.com/view/location/345019"},{"access":1,"address":"HD Complex, Janapath Ln, South Sarania, Ulubari, Guwahati, Assam 781007, India","icon":"https://assets.plugshare.com/icons/G.png","icon_type":"G","id":331751,"latitude":26.170918,"longitude":91.761481,"name":"HPCL Guwahati Chargegrid Type-2","stations":[{"id":780881,"outlets":[{"connector":7,"id":2274294,"kilowatts":null,"power":0,"status":null},{"connector":7,"id":2274295,"kilowatts":null,"power":0,"status":null}]}],"url":"http://api.plugshare.com/view/location/331751"},{"access":1,"address":"Darbaripur Rd, Sector 70, Hasanpur, Haryana 122101, India","icon":"https://assets.plugshare.com/icons/G.png","icon_type":"G","id":334259,"latitude":28.38624,"longitude":77.006336,"name":"IOCL Statiq AC Type-2","stations":[{"id":787360,"outlets":[{"connector":7,"id":2282740,"kilowatts":null,"power":0,"status":null}]}],"url":"http://api.plugshare.com/view/location/334259"},{"access":1,"address":"HJG7+9M3, Jait, Uttar Pradesh 281406, India","icon":"https://assets.plugshare.com/icons/G.png","icon_type":"G","id":346299,"latitude":27.575234,"longitude":77.614382,"name":"AARGO29_04 Krishna Valley Vrindavan","stations":[{"id":822378,"outlets":[{"connector":7,"id":2328013,"kilowatts":null,"power":0,"status":null}]}],"url":"http://api.plugshare.com/view/location/346299"},{"access":1,"address":"Rameshwaram Darshan, Manpada cross road, near Agarwal hall, Ayodhya nagari, Dombivli East, Dombivli, Maharashtra 421201, India","icon":"https://assets.plugshare.com/icons/G.png","icon_type":"G","id":355251,"latitude":19.209337,"longitude":73.096159,"name":"Rameshwaram","stations":[{"id":846443,"outlets":[{"connector":7,"id":2369219,"kilowatts":null,"power":0,"status":null}]}],"url":"http://api.plugshare.com/view/location/355251"},{"access":1,"address":"401 Maru Tower, Kanke Rd, Jawahar Nagar, Hatma, Ranchi, Jharkhand 834008, India","icon":"https://assets.plugshare.com/icons/G.png","icon_type":"G","id":328696,"latitude":23.396414,"longitude":85.31393,"name":"HPCL Retail RO Chargegrid Type2","stations":[{"id":772099,"outlets":[{"connector":7,"id":2262725,"kilowatts":null,"power":0,"status":null}]},{"id":772100,"outlets":[{"connector":7,"id":2262726,"kilowatts":null,"power":0,"status":null}]}],"url":"http://api.plugshare.com/view/location/328696"},{"access":1,"address":"25, Sanjauli Rd, Lakkar Bazar, Shimla, Himachal Pradesh 171001, India","icon":"https://assets.plugshare.com/icons/G.png","icon_type":"G","id":317739,"latitude":31.106882,"longitude":77.177494,"name":"Hotel Dhroov","stations":[{"id":741649,"outlets":[{"connector":7,"id":2245478,"kilowatts":7.0,"power":0,"status":null}]}],"url":"http://api.plugshare.com/view/location/317739"},{"access":1,"address":"One Awadh Centre, 384, Gomti Nagar Rd, Vibhuti Khand, Gomti Nagar, Lucknow, Uttar Pradesh 226010","icon":"https://assets.plugshare.com/icons/G.png","icon_type":"G","id":350047,"latitude":26.862356,"longitude":81.010516,"name":"Tata Power One Awadh Centre","stations":[{"id":832565,"outlets":[{"connector":13,"id":2350794,"kilowatts":null,"power":0,"status":null}]},{"id":832566,"outlets":[{"connector":7,"id":2350795,"kilowatts":null,"power":0,"status":null}]},{"id":832567,"outlets":[{"connector":7,"id":2350796,"kilowatts":null,"power":0,"status":null}]},{"id":832568,"outlets":[{"connector":3,"id":2350797,"kilowatts":null,"power":0,"status":null}]}],"url":"http://api.plugshare.com/view/location/350047"},{"access":1,"address":"G.k.Saitej Bungalow Met Gutad Mahableshwar., opp. Grand legancy and Saj Hotel, Avakali, Maharashtra 412806, India","icon":"https://assets.plugshare.com/icons/G.png","icon_type":"G","id":345406,"latitude":17.925896,"longitude":73.696238,"name":"The Grand Legacy Tata Power FC","stations":[{"id":857333,"network_id":1012,"outlets":[{"connector":13,"id":2383902,"kilowatts":null,"power":0,"status":null}]},{"id":856896,"network_id":1012,"outlets":[{"connector":13,"id":2383347,"kilowatts":null,"power":0,"status":null}]},{"id":819995,"network_id":1012,"outlets":[{"connector":7,"id":2324689,"kilowatts":null,"power":0,"status":null}]}],"url":"http://api.plugshare.com/view/location/345406"},{"access":1,"address":"F242+QH Gurugram, Haryana, India","icon":"https://assets.plugshare.com/icons/G.png","icon_type":"G","id":350037,"latitude":28.456978,"longitude":77.001386,"name":"IOCL Statiq Type-2","stations":[{"id":832552,"outlets":[{"connector":7,"id":2350781,"kilowatts":null,"power":0,"status":null}]},{"id":832553,"outlets":[{"connector":9,"id":2350782,"kilowatts":null,"power":0,"status":null}]}],"url":"http://api.plugshare.com/view/location/350037"},{"access":1,"address":"Near Swati Apartments, Narwana Road IP extn , Delhi 110092","icon":"https://assets.plugshare.com/icons/G.png","icon_type":"G","id":325754,"latitude":28.621815,"longitude":77.293683,"name":"plugngo Patparganj fast charger 50KW","score":9.0,"stations":[{"id":763878,"outlets":[{"connector":2,"id":2251649,"kilowatts":null,"power":0,"status":null},{"connector":7,"id":2251650,"kilowatts":null,"power":0,"status":null},{"connector":3,"id":2251651,"kilowatts":null,"power":0,"status":null},{"connector":13,"id":2251652,"kilowatts":null,"power":0,"status":null}]},{"id":763879,"outlets":[{"connector":3,"id":2251653,"kilowatts":null,"power":0,"status":null},{"connector":13,"id":2251654,"kilowatts":null,"power":0,"status":null}]}],"url":"http://api.plugshare.com/view/location/325754"},{"access":1,"address":"14, Lady Doak College Rd, Chinna Chokikulam, Tamil Nadu 625002","icon":"https://assets.plugshare.com/icons/G.png","icon_type":"G","id":340519,"latitude":9.937373,"longitude":78.132505,"name":"ZEON Charging | JC Residency","stations":[{"id":803735,"outlets":[{"connector":7,"id":2304092,"kilowatts":null,"power":0,"status":null}]}],"url":"http://api.plugshare.com/view/location/340519"},{"access":1,"address":"Old Agra Rd, Matoshree Nagar, Nashik, Maharashtra 422011, India","icon":"https://assets.plugshare.com/icons/G.png","icon_type":"G","id":304725,"latitude":19.993005,"longitude":73.78292,"name":"TML Sterling Motors Tata Power FC","stations":[{"id":768086,"outlets":[{"connector":7,"id":2257395,"kilowatts":null,"power":0,"status":null}]},{"id":707468,"outlets":[{"connector":3,"id":2134288,"kilowatts":null,"power":0,"status":null},{"connector":13,"id":2134289,"kilowatts":null,"power":0,"status":null}]}],"url":"http://api.plugshare.com/view/location/304725"},{"access":1,"address":"Satpur, Trambakeshwar Rd, MIDC, Satpur Colony, Nashik, Maharashtra 422007, India","icon":"https://assets.plugshare.com/icons/G.png","icon_type":"G","id":304723,"latitude":19.991498,"longitude":73.744094,"name":"Ginger Hotel","score":9.0,"stations":[{"id":707464,"outlets":[{"connector":3,"id":2134283,"kilowatts":null,"power":0,"status":null},{"connector":13,"id":2134284,"kilowatts":null,"power":0,"status":null}]},{"id":766299,"outlets":[{"connector":7,"id":2254946,"kilowatts":null,"power":0,"status":null}]}],"url":"http://api.plugshare.com/view/location/304723"},{"access":1,"address":"2X3V+2V5, Maharashtra 415536, India","icon":"https://assets.plugshare.com/icons/G.png","icon_type":"G","id":345407,"latitude":18.002579,"longitude":73.994674,"name":"Hotel Aram Regency Tata Power Type-2","score":9.0,"stations":[{"id":819996,"network_id":1012,"outlets":[{"connector":7,"id":2324690,"kilowatts":null,"power":0,"status":null}]},{"id":841982,"network_id":1012,"outlets":[{"connector":9,"id":2363106,"kilowatts":null,"power":0,"status":null}]},{"id":841983,"network_id":1012,"outlets":[{"connector":9,"id":2363107,"kilowatts":null,"power":0,"status":null}]},{"id":841984,"network_id":1012,"outlets":[{"connector":9,"id":2363108,"kilowatts":null,"power":0,"status":null}]}],"url":"http://api.plugshare.com/view/location/345407"},{"access":1,"address":"HOTEL THE BLACKSTONE, A-20 Ganesh Nagar 200ft Rd, Muhana Mandi Rd Mansarovar Jaipur","icon":"https://assets.plugshare.com/icons/G.png","icon_type":"G","id":339386,"latitude":26.8357,"longitude":75.75594,"name":"Hotel The Blackstone EV charger","stations":[{"id":800909,"outlets":[{"connector":1,"id":2300258,"kilowatts":null,"power":0,"status":null}]},{"id":800910,"outlets":[{"connector":7,"id":2300259,"kilowatts":null,"power":0,"status":null}]}],"url":"http://api.plugshare.com/view/location/339386"},{"access":1,"address":"Guru Da Dhaba, Solapur - Pune Hwy, Manjri Bk, Maharashtra 412307, India","icon":"https://assets.plugshare.com/icons/G.png","icon_type":"G","id":314606,"latitude":18.49581,"longitude":73.978975,"name":"Ace Kudale Cycles Manjri Tata Power FC","stations":[{"id":733463,"network_id":1012,"outlets":[{"connector":3,"id":2206263,"kilowatts":null,"power":0,"status":null},{"connector":13,"id":2206264,"kilowatts":null,"power":0,"status":null}]},{"id":733464,"network_id":1012,"outlets":[{"connector":7,"id":2206265,"kilowatts":null,"power":0,"status":null}]},{"id":841972,"network_id":1012,"outlets":[{"connector":9,"id":2363096,"kilowatts":null,"power":0,"status":null}]},{"id":841973,"network_id":1012,"outlets":[{"connector":9,"id":2363097,"kilowatts":null,"power":0,"status":null}]},{"id":841974,"network_id":1012,"outlets":[{"connector":9,"id":2363098,"kilowatts":null,"power":0,"status":null}]}],"url":"http://api.plugshare.com/view/location/314606"},{"access":1,"address":"Rd Number 2, Financial District, Gachibowli, Hyderabad, Telangana 500032","icon":"https://assets.plugshare.com/icons/G.png","icon_type":"G","id":324363,"latitude":17.423759,"longitude":78.347385,"name":"Fairfield by Marriott Hyderabad Tata Power FC","stations":[{"id":759288,"outlets":[{"connector":3,"id":2245651,"kilowatts":null,"power":0,"status":null},{"connector":13,"id":2245652,"kilowatts":null,"power":0,"status":null}]},{"id":774066,"outlets":[{"connector":7,"id":2265307,"kilowatts":null,"power":0,"status":null}]}],"url":"http://api.plugshare.com/view/location/324363"},{"access":1,"address":"88, Mumbai - Agra National Hwy, next to Hotel Gateway, MIDC Ambad, Nashik, Maharashtra 422010, India","icon":"https://assets.plugshare.com/icons/G.png","icon_type":"G","id":304666,"latitude":19.955315,"longitude":73.753886,"name":"MG Motors AC FC","stations":[{"id":707367,"outlets":[{"connector":7,"id":2134073,"kilowatts":null,"power":0,"status":null}]}],"url":"http://api.plugshare.com/view/location/304666"},{"access":1,"address":"Asia Building, Nehru Market, Sanjay Nagar, Jabah, Jammu, 180004","icon":"https://assets.plugshare.com/icons/G.png","icon_type":"G","id":358214,"latitude":32.71312,"longitude":74.859765,"name":"Asia One Earth Jammu Tawi Tata Power FC","stations":[{"id":854465,"network_id":1012,"outlets":[{"connector":13,"id":2379810,"kilowatts":null,"power":0,"status":null}]},{"id":854466,"network_id":1012,"outlets":[{"connector":7,"id":2379811,"kilowatts":null,"power":0,"status":null}]}],"url":"http://api.plugshare.com/view/location/358214"},{"access":1,"address":"Narayanappa Garden Whitefield, Bengaluru, Karnataka 560066, India","icon":"https://assets.plugshare.com/icons/G.png","icon_type":"G","id":345326,"latitude":12.964257,"longitude":77.753088,"name":"AARGO EV Pkv Filling Station","stations":[{"id":819750,"outlets":[{"connector":7,"id":2324305,"kilowatts":null,"power":0,"status":null}]}],"url":"http://api.plugshare.com/view/location/345326"},{"access":1,"address":"4XR2+3J Canaguinim, Goa, India","icon":"https://assets.plugshare.com/icons/G.png","icon_type":"G","id":345322,"latitude":15.140133,"longitude":73.951547,"name":"Ama Stays Betul Tata Power AC Type-2","stations":[{"id":819740,"outlets":[{"connector":7,"id":2324295,"kilowatts":null,"power":0,"status":null}]}],"url":"http://api.plugshare.com/view/location/345322"},{"access":1,"address":"Mina Complex A, Factory Rd, Khadki Bazar, Khadki, Pune, Maharashtra 411003, India","icon":"https://assets.plugshare.com/icons/G.png","icon_type":"G","id":328299,"latitude":18.565351,"longitude":73.850844,"name":"Vilux Theater Khadki Tata Power Type 2","stations":[{"id":771250,"outlets":[{"connector":7,"id":2261576,"kilowatts":null,"power":0,"status":null}]}],"url":"http://api.plugshare.com/view/location/328299"},{"access":1,"address":"Maker Tower 1 Wing-B, MAKER TOWER-1, Cuffe Parade, Mumbai, Maharashtra 400005, India","icon":"https://assets.plugshare.com/icons/G.png","icon_type":"G","id":347526,"latitude":18.917149,"longitude":72.816581,"name":"Maker Tower A&B Tata Power Type-2","stations":[{"id":825432,"outlets":[{"connector":7,"id":2332422,"kilowatts":null,"power":0,"status":null},{"connector":7,"id":2332423,"kilowatts":null,"power":0,"status":null}]}],"url":"http://api.plugshare.com/view/location/347526"},{"access":1,"address":"HREDA, Sector 17, Panchkula, Haryana 134108, India","icon":"https://assets.plugshare.com/icons/G.png","icon_type":"G","id":310284,"latitude":30.695944,"longitude":76.834825,"name":"Hareda Office","score":9.0,"stations":[{"id":721848,"outlets":[{"connector":7,"id":2165352,"kilowatts":null,"power":0,"status":null}]},{"id":721849,"outlets":[{"connector":13,"id":2165353,"kilowatts":null,"power":0,"status":null}]},{"id":721850,"outlets":[{"connector":3,"id":2165354,"kilowatts":null,"power":0,"status":null}]},{"id":721851,"outlets":[{"connector":13,"id":2165355,"kilowatts":null,"power":0,"status":null}]}],"url":"http://api.plugshare.com/view/location/310284"},{"access":1,"address":"New Town Rd, Action Area III, Newtown, New Town, West Bengal 700135, India","icon":"https://assets.plugshare.com/icons/G.png","icon_type":"G","id":288100,"latitude":22.555199,"longitude":88.50296,"name":"EXICOM Fast EVCS (SC)","stations":[{"id":630510,"outlets":[{"connector":7,"id":1889884,"kilowatts":null,"power":0,"status":null}]},{"id":630511,"outlets":[{"connector":9,"id":1889885,"kilowatts":null,"power":0,"status":null}]}],"url":"http://api.plugshare.com/view/location/288100"},{"access":1,"address":"9, Gangaiamman koil street, valasaravakkam,Chennai, Tamil Nadu 600087, India","icon":"https://assets.plugshare.com/icons/G.png","icon_type":"G","id":353795,"latitude":13.048604,"longitude":80.17606,"name":"Srinivasan House","stations":[{"id":842944,"outlets":[{"connector":7,"id":2364449,"kilowatts":null,"power":0,"status":null}]}],"url":"http://api.plugshare.com/view/location/353795"},{"access":1,"address":"137/1, Opp Achal industry, Baikampady Industrail Area, New Mangalore, Industrial Area, Baikampady, Mangaluru, Karnataka 575011, India","icon":"https://assets.plugshare.com/icons/G.png","icon_type":"G","id":359799,"latitude":12.95403,"longitude":74.821356,"name":"Advaith Hyundai Baikampady(7.2Kw)","stations":[{"id":858827,"outlets":[{"connector":7,"id":2385985,"kilowatts":null,"power":0,"status":null}]}],"url":"http://api.plugshare.com/view/location/359799"},{"access":1,"address":"531, Sohna Rd, Islampur Village, Sector 33, Gurugram, Haryana 122005, India","icon":"https://assets.plugshare.com/icons/G.png","icon_type":"G","id":350036,"latitude":28.433584,"longitude":77.034919,"name":"JMD Garden Statiq Type-2","stations":[{"id":832550,"outlets":[{"connector":7,"id":2350779,"kilowatts":null,"power":0,"status":null}]},{"id":832551,"outlets":[{"connector":9,"id":2350780,"kilowatts":null,"power":0,"status":null}]}],"url":"http://api.plugshare.com/view/location/350036"},{"access":1,"address":"City Square, Tonk Rd, Kirti Nagar, Vasundhara Colony, Gopal Pura Mode, Jaipur, Rajasthan 302018, India","icon":"https://assets.plugshare.com/icons/G.png","icon_type":"G","id":332292,"latitude":26.864811,"longitude":75.795923,"name":"Hotel Four Points by Sheraton Tata Power FC","stations":[{"id":782508,"outlets":[{"connector":7,"id":2276369,"kilowatts":null,"power":0,"status":null}]},{"id":782249,"network_id":1,"outlets":[{"connector":13,"id":2276051,"kilowatts":null,"power":0,"status":null}]},{"id":782250,"network_id":1,"outlets":[{"connector":3,"id":2276052,"kilowatts":null,"power":0,"status":null}]}],"url":"http://api.plugshare.com/view/location/332292"},{"access":1,"address":"Unnamed Road, Binola, Haryana 122414, India","icon":"https://assets.plugshare.com/icons/G.png","icon_type":"G","id":337207,"latitude":28.310516,"longitude":76.872927,"name":"Private - OVN Test Charger Tata Power AC Type-2","stations":[{"id":795239,"outlets":[{"connector":7,"id":2292798,"kilowatts":null,"power":0,"status":null}]}],"url":"http://api.plugshare.com/view/location/337207"},{"access":1,"address":"Eastern Bypass,ward 36,Telipara ,siliguri, West Bengal 734004","icon":"https://assets.plugshare.com/icons/G.png","icon_type":"G","id":345318,"latitude":26.713877,"longitude":88.457049,"name":"AARGO-Basanti Trading Co","stations":[{"id":819735,"outlets":[{"connector":7,"id":2324289,"kilowatts":null,"power":0,"status":null}]}],"url":"http://api.plugshare.com/view/location/345318"},{"access":1,"address":"Eastern Bypass,ward 36,Telipara ,siliguri, West Bengal 734004","icon":"https://assets.plugshare.com/icons/G.png","icon_type":"G","id":345319,"latitude":26.713877,"longitude":88.457049,"name":"AARGO-Basanti Trading Co","stations":[{"id":819736,"outlets":[{"connector":7,"id":2324290,"kilowatts":null,"power":0,"status":null}]}],"url":"http://api.plugshare.com/view/location/345319"},{"access":1,"address":"10-1-124, Mehdipatnam - Banjara Hills Rd, Castle Hills, Venkatadri Colony, Masab Tank, Hyderabad, Telangana 500028","icon":"https://assets.plugshare.com/icons/G.png","icon_type":"G","id":359241,"latitude":17.404402,"longitude":78.453788,"name":"The golkonda hotel","stations":[{"id":857265,"network_id":1,"outlets":[{"connector":13,"id":2383803,"kilowatts":null,"power":0,"status":null}]},{"id":857266,"outlets":[{"connector":7,"id":2383804,"kilowatts":null,"power":0,"status":null}]}],"url":"http://api.plugshare.com/view/location/359241"},{"access":1,"address":"Panvel Complex, Service Rd, Old Panvel, Panvel, Navi Mumbai, Maharashtra 410206, India","icon":"https://assets.plugshare.com/icons/G.png","icon_type":"G","id":335831,"latitude":18.981592,"longitude":73.115569,"name":"Hotel Pravin Tata Power AC Type 2","score":9.0,"stations":[{"id":791915,"outlets":[{"connector":7,"id":2288418,"kilowatts":null,"power":0,"status":null}]}],"url":"http://api.plugshare.com/view/location/335831"},{"access":1,"address":"33W9+G58, Sardewadi, Maharashtra 413106, India","icon":"https://assets.plugshare.com/icons/G.png","icon_type":"G","id":357429,"latitude":18.095987,"longitude":75.068116,"name":"Hotel Swamiraj Executive Tata Power Type-2","stations":[{"id":852313,"network_id":1012,"outlets":[{"connector":7,"id":2376787,"kilowatts":null,"power":0,"status":null}]}],"url":"http://api.plugshare.com/view/location/357429"},{"access":1,"address":"Rishikesh Rd, Ram Ghat, Haridwar, Uttarakhand 249401, India","icon":"https://assets.plugshare.com/icons/G.png","icon_type":"G","id":357357,"latitude":29.952585,"longitude":78.172707,"name":"Dindayal Upadhyay Parking EESL FC","stations":[{"id":852185,"outlets":[{"connector":13,"id":2376635,"kilowatts":null,"power":0,"status":null}]},{"id":852186,"outlets":[{"connector":7,"id":2376636,"kilowatts":null,"power":0,"status":null}]}],"url":"http://api.plugshare.com/view/location/357357"},{"access":1,"address":"Vasant Kunj, New Delhi, 110070, Delhi, India","icon":"https://assets.plugshare.com/icons/G.png","icon_type":"G","id":252849,"latitude":28.543632,"longitude":77.156861,"name":"DLF Emporio B1","stations":[{"id":554503,"outlets":[{"connector":7,"id":1527829,"kilowatts":null,"power":0,"status":null},{"connector":10,"id":1527830,"kilowatts":null,"power":0,"status":null}]}],"url":"http://api.plugshare.com/view/location/252849"},{"access":1,"address":"Sheddon Rd, Pudumund, Ooty, Tamil Nadu 643006, India","icon":"https://assets.plugshare.com/icons/G.png","icon_type":"G","id":314766,"latitude":11.419954,"longitude":76.703168,"name":"Zeon charging station(AC 22Kw)","stations":[{"id":733876,"outlets":[{"connector":7,"id":2207992,"kilowatts":null,"power":0,"status":null}]}],"url":"http://api.plugshare.com/view/location/314766"},{"access":1,"address":"735, Jalna Road, MIDC Industrial Area, Chilkalthana, Aurangabad, Maharashtra 431001, India","icon":"https://assets.plugshare.com/icons/G.png","icon_type":"G","id":326594,"latitude":19.868856,"longitude":75.399531,"name":"IOCL Pump Tata Power Type 2","stations":[{"id":766305,"outlets":[{"connector":7,"id":2254953,"kilowatts":null,"power":0,"status":null}]}],"url":"http://api.plugshare.com/view/location/326594"},{"access":1,"address":"3/505, 4th South Cross St, Saraswathy Nagar North, Neelankarai, Chennai, Tamil Nadu 600041, India","icon":"https://assets.plugshare.com/icons/G.png","icon_type":"G","id":318784,"latitude":12.951948,"longitude":80.250277,"name":"Ather DOT E Point","stations":[{"id":744415,"network_id":1,"outlets":[{"connector":7,"id":2225994,"kilowatts":null,"power":0,"status":"UNKNOWN"}]}],"url":"http://api.plugshare.com/view/location/318784"},{"access":1,"address":"Mysore - Madikeri Rd, Koorgally, Karnataka 570018, India","icon":"https://assets.plugshare.com/icons/G.png","icon_type":"G","id":359812,"latitude":12.347788,"longitude":76.568968,"name":"Advaith Hyundai Belvadi(7.2Kw)","stations":[{"id":858853,"outlets":[{"connector":7,"id":2386018,"kilowatts":null,"power":0,"status":null}]}],"url":"http://api.plugshare.com/view/location/359812"},{"access":1,"address":"6, Whitefield Main Rd, Devasandra Industrial Estate, Mahadevapura, Bengaluru, Karnataka 560048, India","icon":"https://assets.plugshare.com/icons/G.png","icon_type":"G","id":290711,"latitude":12.994856,"longitude":77.699271,"name":"BESCOM","stations":[{"id":636639,"outlets":[{"connector":3,"id":1970523,"kilowatts":25.0,"power":0,"status":null},{"connector":13,"id":1970524,"kilowatts":25.0,"power":0,"status":null},{"connector":7,"id":2176485,"kilowatts":null,"power":0,"status":null}]}],"url":"http://api.plugshare.com/view/location/290711"},{"access":1,"address":"X5HJ+FP Haridwar, Uttarakhand, India","icon":"https://assets.plugshare.com/icons/G.png","icon_type":"G","id":358210,"latitude":29.978671,"longitude":78.181809,"name":"One Earth Haridwar Tata Power FC","stations":[{"id":854459,"network_id":1012,"outlets":[{"connector":13,"id":2379804,"kilowatts":null,"power":0,"status":null}]},{"id":854460,"network_id":1012,"outlets":[{"connector":7,"id":2379805,"kilowatts":null,"power":0,"status":null}]}],"url":"http://api.plugshare.com/view/location/358210"},{"access":1,"address":"2, Alpha Garden, Plot 26, Sector 14, Kopar Khairane, Navi Mumbai, Maharashtra 400709, India","icon":"https://assets.plugshare.com/icons/G.png","icon_type":"G","id":156017,"latitude":19.09619,"longitude":73.003023,"name":"Magenta EV Charging - 1 | Kopar Khairane | Bike & Car Charging Station","stations":[{"id":302734,"outlets":[{"connector":7,"id":576561,"kilowatts":null,"power":0,"status":null}]},{"id":302737,"outlets":[{"connector":1,"id":576563,"kilowatts":null,"power":0,"status":null}]}],"url":"http://api.plugshare.com/view/location/156017"},{"access":1,"address":"SEP-2, B- East Pirojshanagar,, 3, Vikhroli Village Rd, Pirojshanagar, Vikhroli East, Mumbai, Maharashtra 400079, India","icon":"https://assets.plugshare.com/icons/G.png","icon_type":"G","id":125922,"latitude":19.094964,"longitude":72.926241,"name":"Tata Power Vikhroli","score":8.6,"stations":[{"id":225455,"network_id":1012,"outlets":[{"connector":7,"id":474050,"kilowatts":null,"power":0,"status":null}]},{"id":503291,"network_id":1012,"outlets":[{"connector":3,"id":1242963,"kilowatts":null,"power":0,"status":null},{"connector":13,"id":1242964,"kilowatts":null,"power":0,"status":null}]},{"id":795112,"network_id":1012,"outlets":[{"connector":7,"id":2292638,"kilowatts":null,"power":0,"status":null}]}],"url":"http://api.plugshare.com/view/location/125922"},{"access":1,"address":"5, RTO Colony, Mumbai Central, Mumbai, Maharashtra 400011, India","icon":"https://assets.plugshare.com/icons/G.png","icon_type":"G","id":306321,"latitude":18.979747,"longitude":72.825484,"name":"Raheja Viverea Private Captive Type 2 FC","stations":[{"id":711052,"outlets":[{"connector":7,"id":2141215,"kilowatts":null,"power":0,"status":null}]},{"id":711053,"outlets":[{"connector":7,"id":2141216,"kilowatts":null,"power":0,"status":null}]}],"url":"http://api.plugshare.com/view/location/306321"},{"access":1,"address":"E - W Hwy, Birtamode 57204, Nepal","icon":"https://assets.plugshare.com/icons/G.png","icon_type":"G","id":349005,"latitude":26.640649,"longitude":87.955292,"name":"Mahalaxmi International","stations":[{"id":829284,"outlets":[{"connector":7,"id":2346361,"kilowatts":null,"power":0,"status":null}]}],"url":"http://api.plugshare.com/view/location/349005"},{"access":1,"address":"Ashram Road, Satyawadi Society, Usman Pura, Satyawadi Society, Usmanpura, Ahmedabad, Gujarat 380013, India","icon":"https://assets.plugshare.com/icons/G.png","icon_type":"G","id":339808,"latitude":23.052211,"longitude":72.571102,"name":"Fairfield By Marriott Ahmedabad Tata Power FC","stations":[{"id":802021,"outlets":[{"connector":3,"id":2301843,"kilowatts":null,"power":0,"status":null},{"connector":13,"id":2301844,"kilowatts":null,"power":0,"status":null}]},{"id":802022,"outlets":[{"connector":7,"id":2301845,"kilowatts":null,"power":0,"status":null}]}],"url":"http://api.plugshare.com/view/location/339808"},{"access":1,"address":"B.P. Highway, Bardibas 45701, Nepal","icon":"https://assets.plugshare.com/icons/G.png","icon_type":"G","id":349003,"latitude":26.999532,"longitude":85.903315,"name":"Hotel Gunja MG 7 kW AC Charger","stations":[{"id":829280,"outlets":[{"connector":7,"id":2346357,"kilowatts":null,"power":0,"status":null}]}],"url":"http://api.plugshare.com/view/location/349003"},{"access":1,"address":"HQPF+66V, Parra, Goa 403509, India","icon":"https://assets.plugshare.com/icons/G.png","icon_type":"G","id":346055,"latitude":15.58414,"longitude":73.77529,"name":"Chikoo Villa Ama Stays Tata Power Type-2","stations":[{"id":821694,"outlets":[{"connector":7,"id":2327038,"kilowatts":null,"power":0,"status":null}]}],"url":"http://api.plugshare.com/view/location/346055"},{"access":1,"address":"Pitampura","icon":"https://assets.plugshare.com/icons/G.png","icon_type":"G","id":336771,"latitude":28.694403,"longitude":77.153716,"name":"Pacific Mall NSP Parking","stations":[{"id":794290,"outlets":[{"connector":3,"id":2291633,"kilowatts":null,"power":0,"status":null},{"connector":13,"id":2291634,"kilowatts":null,"power":0,"status":null}]},{"id":794291,"outlets":[{"connector":7,"id":2291635,"kilowatts":null,"power":0,"status":null}]},{"id":794293,"outlets":[{"connector":7,"id":2291637,"kilowatts":null,"power":0,"status":null}]},{"id":798736,"outlets":[{"connector":13,"id":2297475,"kilowatts":null,"power":0,"status":null}]}],"url":"http://api.plugshare.com/view/location/336771"},{"access":1,"address":"Kamat, Assagaon, Assagao, Goa 403507, India","icon":"https://assets.plugshare.com/icons/G.png","icon_type":"G","id":346054,"latitude":15.601345,"longitude":73.793435,"name":"Ama Stay Assagao Tata Power Type-2","stations":[{"id":821693,"outlets":[{"connector":7,"id":2327037,"kilowatts":null,"power":0,"status":null}]}],"url":"http://api.plugshare.com/view/location/346054"},{"access":1,"address":"Intercontinental Hotel, Muscat, Oman","icon":"https://assets.plugshare.com/icons/G.png","icon_type":"G","id":141403,"latitude":23.615616,"longitude":58.464726,"name":"Intercontinental Muscat ","stations":[{"id":266125,"outlets":[{"connector":7,"id":532771,"kilowatts":null,"power":0,"status":null},{"connector":7,"id":532772,"kilowatts":null,"power":0,"status":null}]}],"url":"http://api.plugshare.com/view/location/141403"},{"access":1,"address":"Crown Plaza Hotel, Muscat, Oman","icon":"https://assets.plugshare.com/icons/G.png","icon_type":"G","id":141320,"latitude":23.629141,"longitude":58.484098,"name":"CROWNE PLAZA, MUSCAT","stations":[{"id":265911,"outlets":[{"connector":7,"id":532514,"kilowatts":null,"power":0,"status":null}]},{"id":265912,"outlets":[{"connector":7,"id":532515,"kilowatts":null,"power":0,"status":null}]}],"url":"http://api.plugshare.com/view/location/141320"},{"access":1,"address":"Shree Siddhivinayak Building, Maharashtra Nagar, Mankhurd, Mumbai, Maharashtra 400043, India","icon":"https://assets.plugshare.com/icons/G.png","icon_type":"G","id":337139,"latitude":19.052093,"longitude":72.940277,"name":"Tata Power Mankhurd RSS Tata Power AC Type-2","stations":[{"id":795113,"outlets":[{"connector":7,"id":2292639,"kilowatts":null,"power":0,"status":null}]}],"url":"http://api.plugshare.com/view/location/337139"},{"access":1,"address":"plot 9, Industrial area, Lokikere Road, Davangere ","icon":"https://assets.plugshare.com/icons/G.png","icon_type":"G","id":351433,"latitude":14.424306,"longitude":75.937104,"name":"Davanagere Concrete Products (7.2kw)","stations":[{"id":836816,"outlets":[{"connector":7,"id":2356388,"kilowatts":null,"power":0,"status":null}]}],"url":"http://api.plugshare.com/view/location/351433"},{"access":1,"address":"Unit S-48 , Second Floor, VR Mall, Thirumangalam, Chennai, Tamil Nadu 600040, India","icon":"https://assets.plugshare.com/icons/G.png","icon_type":"G","id":268856,"latitude":13.08062,"longitude":80.19745,"name":"Ather Energy - VR Mall Chennai","stations":[{"id":592424,"outlets":[{"connector":7,"id":1639376,"kilowatts":null,"power":0,"status":null}]}],"url":"http://api.plugshare.com/view/location/268856"},{"access":1,"address":"4/28, Sector 10, MIDC, Bhosari, Pimpri-Chinchwad, Maharashtra 411026, India","icon":"https://assets.plugshare.com/icons/G.png","icon_type":"G","id":304962,"latitude":18.643707,"longitude":73.83178,"name":"Tork Motors Chargegrid FC","stations":[{"id":708061,"outlets":[{"connector":7,"id":2135486,"kilowatts":null,"power":0,"status":null}]}],"url":"http://api.plugshare.com/view/location/304962"},{"access":1,"address":"Delhi-Mathura Crossing, near ashram  chowk ring road maharani bagh,New Delhi, Delhi 110065, India","icon":"https://assets.plugshare.com/icons/G.png","icon_type":"G","id":202341,"latitude":28.57132,"longitude":77.259796,"name":"Delhi-Mathura Crossing","stations":[{"id":429792,"outlets":[{"connector":7,"id":754797,"kilowatts":null,"power":0,"status":null}]}],"url":"http://api.plugshare.com/view/location/202341"},{"access":1,"address":"Bses Rajdhani Power Limited, Bses House, Nehru Place, New Delhi, Delhi 110019, India","icon":"https://assets.plugshare.com/icons/G.png","icon_type":"G","id":202342,"latitude":28.549531,"longitude":77.254749,"name":"Bses Rajdhani Power Limited","stations":[{"id":429794,"outlets":[{"connector":7,"id":754800,"kilowatts":null,"power":0,"status":null}]},{"id":429795,"outlets":[{"connector":7,"id":754801,"kilowatts":null,"power":0,"status":null}]}],"url":"http://api.plugshare.com/view/location/202342"},{"access":1,"address":"RIICO Jaipur","icon":"https://assets.plugshare.com/icons/G.png","icon_type":"G","id":347986,"latitude":27.030712,"longitude":75.89048,"name":"Hotel Fairmont Jaipur","stations":[{"id":826492,"outlets":[{"connector":7,"id":2333870,"kilowatts":null,"power":0,"status":null}]},{"id":826493,"outlets":[{"connector":7,"id":2333871,"kilowatts":null,"power":0,"status":null}]}],"url":"http://api.plugshare.com/view/location/347986"},{"access":1,"address":"464, Block 6, Subhash Nagar, New Delhi, Delhi 110027, India","icon":"https://assets.plugshare.com/icons/G.png","icon_type":"G","id":339074,"latitude":28.642179,"longitude":77.105777,"name":"Pacific Mall","stations":[{"id":800246,"outlets":[{"connector":13,"id":2299378,"kilowatts":null,"power":0,"status":null},{"connector":13,"id":2299379,"kilowatts":null,"power":0,"status":null},{"connector":3,"id":2299380,"kilowatts":null,"power":0,"status":null}]},{"id":800247,"outlets":[{"connector":7,"id":2299381,"kilowatts":null,"power":0,"status":null},{"connector":24,"id":2299382,"kilowatts":null,"power":0,"status":null}]}],"url":"http://api.plugshare.com/view/location/339074"},{"access":1,"address":"P9XV+3FC, Thombrewadi, Lonavla, Maharashtra 410401, India","icon":"https://assets.plugshare.com/icons/G.png","icon_type":"G","id":353353,"latitude":18.746857,"longitude":73.393967,"name":"Sluice Stays Ama Tata Power Type-2","stations":[{"id":841727,"network_id":1012,"outlets":[{"connector":7,"id":2362697,"kilowatts":null,"power":0,"status":null}]}],"url":"http://api.plugshare.com/view/location/353353"},{"access":1,"address":"403 Muscat Expy, Muscat, Oman","icon":"https://assets.plugshare.com/icons/G.png","icon_type":"G","id":296396,"latitude":23.608434,"longitude":58.489881,"name":"City Centre Qurum","stations":[{"id":686070,"outlets":[{"connector":7,"id":2106316,"kilowatts":12.0,"power":0,"status":null}]}],"url":"http://api.plugshare.com/view/location/296396"},{"access":1,"address":"Nk singh Marga ward 31, Kathmandu, Central Region, Nepal, N.K.Singh Marg, Kathmandu 44600, Nepal","icon":"https://assets.plugshare.com/icons/G.png","icon_type":"G","id":348257,"latitude":27.689064,"longitude":85.340622,"name":"PRANISH PATHAK","stations":[{"id":827209,"outlets":[{"connector":7,"id":2334840,"kilowatts":null,"power":0,"status":null}]}],"url":"http://api.plugshare.com/view/location/348257"},{"access":1,"address":"613/4,Ganga Dham Bungalow Society, Bungalow No. 1, Sai Dham,Near Market Yard, Phase 1, Ganga Dham, Pune, Maharashtra 411037, India","icon":"https://assets.plugshare.com/icons/G.png","icon_type":"G","id":337136,"latitude":18.47862,"longitude":73.873765,"name":"Mahati Industries Tata Power AC type-2","stations":[{"id":795107,"outlets":[{"connector":7,"id":2292633,"kilowatts":null,"power":0,"status":null}]}],"url":"http://api.plugshare.com/view/location/337136"},{"access":1,"address":"7-1-25, Ameerpet Rd, Leelanagar, Begumpet","icon":"https://assets.plugshare.com/icons/G.png","icon_type":"G","id":356099,"latitude":17.436699,"longitude":78.454341,"name":"LionCharge Charging Station","stations":[{"id":848939,"outlets":[{"connector":7,"id":2372363,"kilowatts":null,"power":0,"status":null}]},{"id":848940,"outlets":[{"connector":13,"id":2372364,"kilowatts":null,"power":0,"status":null}]}],"url":"http://api.plugshare.com/view/location/356099"},{"access":1,"address":"7 Kawdana Broadway, Dehiwala-Mount Lavinia, Sri Lanka","icon":"https://assets.plugshare.com/icons/G.png","icon_type":"G","id":187368,"latitude":6.843091,"longitude":79.873259,"name":"Shanthi Plastic","stations":[{"id":390678,"outlets":[{"connector":3,"id":689744,"kilowatts":null,"power":0,"status":null},{"connector":13,"id":689745,"kilowatts":null,"power":0,"status":null},{"connector":7,"id":689746,"kilowatts":null,"power":0,"status":null}]},{"id":390679,"outlets":[{"connector":9,"id":689747,"kilowatts":null,"power":0,"status":null}]}],"url":"http://api.plugshare.com/view/location/187368"},{"access":1,"address":"Sawant Niwas R-2, Behind Sagar Hotel, Kharodi, Marve Rd, Malad, Rathodi, Malad West, Mumbai, Maharashtra 400095, India","icon":"https://assets.plugshare.com/icons/G.png","icon_type":"G","id":336403,"latitude":19.195224,"longitude":72.820221,"name":"Malad RSS Tata Power Type-2","stations":[{"id":793321,"outlets":[{"connector":7,"id":2290319,"kilowatts":null,"power":0,"status":null}]}],"url":"http://api.plugshare.com/view/location/336403"},{"access":1,"address":"A-WING, RAVI ESTATE, Unnathi Gardens, Thane West, Thane, Maharashtra 400606, India","icon":"https://assets.plugshare.com/icons/G.png","icon_type":"G","id":353990,"latitude":19.217282,"longitude":72.960106,"name":"Pranav Sawant","stations":[{"id":843333,"outlets":[{"connector":7,"id":2364947,"kilowatts":null,"power":0,"status":null}]}],"url":"http://api.plugshare.com/view/location/353990"},{"access":1,"address":"Laxmi Niwas, Rajmata Jijau Marg, Krishna Nagar, Pimple Gurav, Pimpri-Chinchwad, Maharashtra 411027, India","icon":"https://assets.plugshare.com/icons/G.png","icon_type":"G","id":314733,"latitude":18.585302,"longitude":73.821271,"name":"RAJENDRA","stations":[{"id":733821,"outlets":[{"connector":7,"id":2207699,"kilowatts":null,"power":0,"status":null}]}],"url":"http://api.plugshare.com/view/location/314733"},{"access":1,"address":"INA Dilli Haat Parking","icon":"https://assets.plugshare.com/icons/G.png","icon_type":"G","id":343832,"latitude":28.572833,"longitude":77.208465,"name":"INA Dilli Haat Parking","stations":[{"id":813619,"outlets":[{"connector":13,"id":2316849,"kilowatts":null,"power":0,"status":null}]},{"id":813620,"outlets":[{"connector":13,"id":2316850,"kilowatts":null,"power":0,"status":null}]},